#--------------------------------------------------#
#-------------------ENVERUS, INC.------------------#
#------------------WWW.ENVERUS.COM-----------------#
#------------------COPYRIGHT 2020------------------#
#--------------------------------------------------#
#THIS FILE MAY BE USED ONLY IN ACCORDANCE WITH A CURRENT SUBSCRIPTION AGREEMENT BETWEEN
#THE USER AND ENVERUS, INC. NO PART OF THIS FILE MAY BE REPRODUCED, USED, COPIED,
#MODIFIED, PROPAGATED, OR DISTRIBUTED EXCEPT IN ACCORDANCE WITH THE SUBSCRIPTION
#AGREEMENT. UNAUTHORIZED USE OR DISTRIBUTION OF ALL OR ANY PART OF THIS FILE MAY VIOLATE
#COPYRIGHT, TRADEMARK, AND/OR OTHER LAWS AND IS SUBJECT TO CIVIL AS WELL AS CRIMINAL
#SANCTIONS.
#--------------------------------------------------#
#THIS FILE IS PROVIDED "AS-IS" AND ALL WARRANTIES ARE EXPRESSLY DISCLAIMED, WHETHER
#EXPRESS, ORAL, IMPLIED, STATUTORY OR OTHERWISE, INCLUDING ANY IMPLIED WARRANTY OF FITNESS
#FOR A PARTICULAR PURPOSE, MERCHANTABILITY, TITLE OR NON-INFRINGEMENT, AND ANY WARRANTIES
#ARISING BY VIRTUE OF CUSTOM OF TRADE OR COURSE OF DEALING.  FURTHER, ENVERUS, INC.
#AND ITS LICENSORS DO NOT REPRESENT OR WARRANT THAT THIS FILE WILL MEET USER'S
#REQUIREMENTS OR ARE SUITABLE FOR USER'S NEEDS OR THAT THE DATA OR RESULTS PROVIDED IN
#CONJUNCTION THEREWITH ARE CORRECT, ACCURATE, TIMELY OR RELIABLE. THESE DISCLAIMERS SHALL
#APPLY REGARDLESS OF ANY FAILURE OF ESSENTIAL PURPOSE OF ANY LIMITED REMEDY.  SOME
#JURISDICTIONS DO NOT ALLOW THE EXCLUSION OF CERTAIN WARRANTIES SO SOME OF THE ABOVE
#EXCLUSIONS MAY NOT APPLY. IN NO EVENT SHALL ENVERUS, INC. OR ANY OF ITS AFFILIATES
#BE LIABLE UNDER ANY LEGAL THEORY, WHETHER IN TORT (INCLUDING WITHOUT LIMITATION
#NEGLIGENCE), CONTRACT, STRICT LIABILITY, STATUTORY OR OTHERWISE, FOR ANY SPECIAL,
#INCIDENTAL, CONSEQUENTIAL, EXEMPLARY, PUNITIVE OR INDIRECT DAMAGE OF ANY KIND, INCLUDING
#WITHOUT LIMITATION LOSS OF REVENUE, PROFITS, GOODWILL, USE, AND/OR DATA OR THE COST OF
#PROCUREMENT OF SUBSTITUTE GOODS OR SERVICES, EVEN IF APPRISED OF THE POSSIBILITY OF SUCH
#DAMAGES IN ADVANCE.
#--------------------------------------------------#

~VERSION INFORMATION
VERS. 2.0 : CWLS LOG ASCII STANDARD - VERSION 2.0
WRAP.  NO : ONE LINE PER DEPTH STEP
~WELL INFORMATION
#MNEMONIC     .UNIT              VALUE :DESCRIPTION
STRT       .FT                0 :START DEPTH
STOP       .FT                15770 :STOP DEPTH
STEP       .FT                   0.500 :STEP
NULL       .                  -999.250 :NULL
UWI        .              42389309020000 :UNIQUE WELL ID
API        .              42389309020000 :API NUMBER
COMP       .         WALSH & WATTS  INC. :COMPANY
WELL       .        SABRE  1WS :WELL
DATE       .                28-JAN-1987 :LOG DATE
~CURVE INFORMATION
#MNEMONIC     .UNIT      API CODE :CURVE DESCRIPTION
DEPTH       .FT                      :MEASURED DEPTH
CAL.INCH        UNKNOWN   :CAL
DT.US/FT        UNKNOWN   :DT
GR.API        UNKNOWN   :GR
~A    DEPTH    CAL    DT    GR
# ...
 4133     14.186   85.49   36.616
 4133.5     14.212   85.587   35.782
 4134     14.238   84.856   38.632
 4134.5     14.264   84.569   42.665
 4135     14.277   84.984   40.433
 4135.5     14.277   85.771   37.993
 4136     14.277   85.806   35.789
 4136.5     14.277   85.842   35.787
 4137     14.277   85.878   36.685
 4137.5     14.277   85.411   37.7
 4138     14.277   85.088   38.714
 4138.5     14.276   86.708   38.412
 4139     14.276   88.328   36.909
 4139.5     14.276   88.849   35.262
 4140     14.276   88.991   37.706
 4140.5     14.276   88.523   42.36
 4141     14.276   88.048   45.457
 4141.5     14.276   86.846   46.154
 4142     14.275   85.269   45.926
 4142.5     14.275   84.413   44.817
 4143     14.275   85.763   44.023
 4143.5     14.269   85.04   43.253
 4144     14.259   85.255   43.661
 4144.5     14.249   85.622   44.689
 4145     14.24   83.992   45.495
 4145.5     14.23   84.028   44.427
 4146     14.221   84.064   43.358
 4146.5     14.211   84.099   42.91
 4147     14.201   85.367   42.802
 4147.5     14.192   85.137   38.998
 4148     14.182   82.507   37.485
 4148.5     14.173   80.621   38.945
 4149     14.163   79.493   42.591
 4149.5     14.153   78.463   42.917
 4150     14.144   77.808   42.288
 4150.5     14.134   77.154   41.729
 4151     14.125   76.801   41.31
 4151.5     14.115   76.551   41.205
 4152     14.105   76.301   42.058
 4152.5     14.097   75.974   42.938
 4153     14.102   75.463   43.924
 4153.5     14.106   75.776   44.91
 4154     14.111   75.84   47.524
 4154.5     14.115   77.079   49.658
 4155     14.12   77.29   51.28
 4155.5     14.155   77.467   51.345
 4156     14.206   77.644   49.662
 4156.5     14.256   78.213   47.979
 4157     14.306   79.185   46.297
 4157.5     14.356   79.57   44.614
 4158     14.406   79.821   42.931
 4158.5     14.457   79.741   45.083
 4159     14.507   80.279   49.646
 4159.5     14.557   81.176   47.689
 4160     14.607   82.62   44.496
 4160.5     14.657   85.917   41.303
 4161     14.708   90.582   38.111
 4161.5     14.758   90.673   37.61
 4162     14.808   89.075   38.501
 4162.5     14.858   88.638   39.392
 4163     14.908   89.857   40.283
 4163.5     14.959   91.005   40.391
 4164     15.009   91.806   40.22
 4164.5     15.059   92.606   40.12
 4165     15.109   91.808   40.459
 4165.5     15.144   91.928   40.797
 4166     15.174   92.048   40.991
 4166.5     15.204   92.168   41.073
 4167     15.234   90.117   41.156
 4167.5     15.264   89.201   42.535
 4168     15.294   88.842   43.043
 4168.5     15.324   88.483   42.171
 4169     15.355   85.526   39.345
 4169.5     15.385   85.102   38.91
 4170     15.415   84.678   39.8
 4170.5     15.445   85.012   40.914
 4171     15.475   85.085   42.082
 4171.5     15.505   84.762   43.459
 4172     15.535   83.795   44.836
 4172.5     15.565   82.627   45.108
 4173     15.595   83.022   44.871
 4173.5     15.611   83.576   45.028
 4174     15.627   84.024   45.185
 4174.5     15.642   84.475   44.506
 4175     15.658   85.099   42.919
 4175.5     15.674   85.514   41.346
 4176     15.689   85.865   42.139
 4176.5     15.705   85.18   43.314
 4177     15.72   83.765   44.489
 4177.5     15.729   83.354   45.664
 4178     15.738   83.022   45.311
 4178.5     15.746   84.918   38.951
 4179     15.755   85.075   33.601
 4179.5     15.764   84.843   31.182
 4180     15.772   84.769   30.431
 4180.5     15.781   84.88   31.16
 4181     15.79   84.992   31.889
 4181.5     15.798   85.104   32.498
 4182     15.807   85.02   34.471
 4182.5     15.816   84.879   38.108
 4183     15.818   84.738   41.745
 4183.5     15.818   84.598   43.577
 4184     15.818   84.457   43.716
 4184.5     15.818   85.113   44.574
 4185     15.818   85.809   46.36
 4185.5     15.817   86.504   48.146
 4186     15.817   86.346   48.268
 4186.5     15.817   85.535   46.082
 4187     15.817   84.835   43.896
 4187.5     15.817   84.915   43.544
 4188     15.817   85.682   44.324
 4188.5     15.816   85.906   45.512
 4189     15.816   85.779   45.278
 4189.5     15.816   85.651   43.605
 4190     15.816   85.523   41.962
 4190.5     15.816   85.333   43.179
 4191     15.816   85.135   44.395
 4191.5     15.815   84.577   45.612
 4192     15.815   83.454   45.177
 4192.5     15.815   83.439   44.781
 4193     15.81   83.546   44.779
 4193.5     15.782   83.652   44.411
 4194     15.754   84.415   43.659
 4194.5     15.726   85.19   42.907
 4195     15.697   85.966   42.155
 4195.5     15.669   87.37   42.524
 4196     15.641   86.294   42.904
 4196.5     15.613   86.178   43.285
 4197     15.584   85.997   43.012
 4197.5     15.556   85.242   42.215
 4198     15.528   84.65   40.902
 4198.5     15.5   84.651   39.286
 4199     15.471   84.702   37.693
 4199.5     15.443   85.328   37.966
 4200     15.427   85.47   39.376
 4200.5     15.415   85.399   39.718
 4201     15.404   85.329   39.716
 4201.5     15.392   85.12   39.714
 4202     15.38   84.399   39.845
 4202.5     15.368   83.912   40.126
 4203     15.356   83.849   41.338
 4203.5     15.344   83.453   44.022
 4204     15.332   83.27   46.851
 4204.5     15.321   83.358   49.679
 4205     15.309   83.454   50.796
 4205.5     15.297   83.57   49.629
 4206     15.285   83.803   48.463
 4206.5     15.261   84.584   48.43
 4207     15.235   84.9   49.117
 4207.5     15.209   85.216   48.82
 4208     15.183   85.345   46.973
 4208.5     15.157   85.199   44.383
 4209     15.131   85.392   41.766
 4209.5     15.105   86.436   40.13
 4210     15.078   87.527   40.346
 4210.5     15.052   88.746   41.518
 4211     15.026   88.562   39.17
 4211.5     15   87.686   35.532
 4212     14.974   87.029   35.848
 4212.5     14.948   87.031   37.919
 4213     14.922   88.163   40.85
 4213.5     14.896   89.207   43.782
 4214     14.87   90.164   46.713
 4214.5     14.844   81.743   46.237
 4215     14.818   76.88   44.224
 4215.5     14.792   75.678   42.2
 4216     14.766   76.002   40.177
 4216.5     14.74   80.571   39.295
 4217     14.733   85.898   42.32
 4217.5     14.742   86.973   45.744
 4218     14.752   86.291   48.035
 4218.5     14.761   86.096   46.699
 4219     14.77   86.516   45.362
 4219.5     14.779   85.194   44.702
 4220     14.789   85.432   44.472
 4220.5     14.798   87.09   47.841
 4221     14.807   87.091   51.209
 4221.5     14.816   86.65   49.375
 4222     14.826   85.504   44.136
 4222.5     14.801   85.116   40.723
 4223     14.774   85.356   41.88
 4223.5     14.746   86.368   44.269
 4224     14.718   87.954   46.658
 4224.5     14.69   87.108   46.275
 4225     14.663   86.262   44.393
 4225.5     14.635   85.692   42.511
 4226     14.607   85.259   41.497
 4226.5     14.579   85.977   41.006
 4227     14.552   85.121   40.516
 4227.5     14.524   84.394   40.575
 4228     14.496   84.347   44.599
 4228.5     14.468   83.479   45.43
 4229     14.441   82.64   44.337
 4229.5     14.413   82.641   43.245
 4230     14.385   82.916   43.771
 4230.5     14.368   84.705   44.552
 4231     14.361   85.864   45.334
 4231.5     14.354   85.478   45.129
 4232     14.347   83.587   44.664
 4232.5     14.34   82.148   44.2
 4233     14.333   81.773   43.166
 4233.5     14.326   81.728   41.52
 4234     14.319   82.188   39.432
 4234.5     14.312   82.447   39.511
 4235     14.305   82.201   42.248
 4235.5     14.298   82.428   43.483
 4236     14.291   83.12   41.188
 4236.5     14.284   83.182   39.329
 4237     14.277   82.86   37.537
 4237.5     14.27   81.458   39.563
 4238     14.259   80.737   41.966
 4238.5     14.248   79.847   44.369
 4239     14.237   80.247   41.739
 4239.5     14.227   81.163   38.604
 4240     14.216   82.178   36.779
 4240.5     14.205   83.546   40.685
 4241     14.194   85.093   43.106
 4241.5     14.183   85.028   40.471
 4242     14.173   84.771   37.928
 4242.5     14.169   81.114   38.444
 4243     14.171   79.738   42.055
 4243.5     14.174   79.249   45.665
 4244     14.177   79.92   46.475
 4244.5     14.18   83.135   42.918
 4245     14.183   83.891   38.798
