#--------------------------------------------------#
#-------------------ENVERUS, INC.------------------#
#------------------WWW.ENVERUS.COM-----------------#
#------------------COPYRIGHT 2020------------------#
#--------------------------------------------------#
#THIS FILE MAY BE USED ONLY IN ACCORDANCE WITH A CURRENT SUBSCRIPTION AGREEMENT BETWEEN
#THE USER AND ENVERUS, INC. NO PART OF THIS FILE MAY BE REPRODUCED, USED, COPIED,
#MODIFIED, PROPAGATED, OR DISTRIBUTED EXCEPT IN ACCORDANCE WITH THE SUBSCRIPTION
#AGREEMENT. UNAUTHORIZED USE OR DISTRIBUTION OF ALL OR ANY PART OF THIS FILE MAY VIOLATE
#COPYRIGHT, TRADEMARK, AND/OR OTHER LAWS AND IS SUBJECT TO CIVIL AS WELL AS CRIMINAL
#SANCTIONS.
#--------------------------------------------------#
#THIS FILE IS PROVIDED "AS-IS" AND ALL WARRANTIES ARE EXPRESSLY DISCLAIMED, WHETHER
#EXPRESS, ORAL, IMPLIED, STATUTORY OR OTHERWISE, INCLUDING ANY IMPLIED WARRANTY OF FITNESS
#FOR A PARTICULAR PURPOSE, MERCHANTABILITY, TITLE OR NON-INFRINGEMENT, AND ANY WARRANTIES
#ARISING BY VIRTUE OF CUSTOM OF TRADE OR COURSE OF DEALING.  FURTHER, ENVERUS, INC.
#AND ITS LICENSORS DO NOT REPRESENT OR WARRANT THAT THIS FILE WILL MEET USER'S
#REQUIREMENTS OR ARE SUITABLE FOR USER'S NEEDS OR THAT THE DATA OR RESULTS PROVIDED IN
#CONJUNCTION THEREWITH ARE CORRECT, ACCURATE, TIMELY OR RELIABLE. THESE DISCLAIMERS SHALL
#APPLY REGARDLESS OF ANY FAILURE OF ESSENTIAL PURPOSE OF ANY LIMITED REMEDY.  SOME
#JURISDICTIONS DO NOT ALLOW THE EXCLUSION OF CERTAIN WARRANTIES SO SOME OF THE ABOVE
#EXCLUSIONS MAY NOT APPLY. IN NO EVENT SHALL ENVERUS, INC. OR ANY OF ITS AFFILIATES
#BE LIABLE UNDER ANY LEGAL THEORY, WHETHER IN TORT (INCLUDING WITHOUT LIMITATION
#NEGLIGENCE), CONTRACT, STRICT LIABILITY, STATUTORY OR OTHERWISE, FOR ANY SPECIAL,
#INCIDENTAL, CONSEQUENTIAL, EXEMPLARY, PUNITIVE OR INDIRECT DAMAGE OF ANY KIND, INCLUDING
#WITHOUT LIMITATION LOSS OF REVENUE, PROFITS, GOODWILL, USE, AND/OR DATA OR THE COST OF
#PROCUREMENT OF SUBSTITUTE GOODS OR SERVICES, EVEN IF APPRISED OF THE POSSIBILITY OF SUCH
#DAMAGES IN ADVANCE.
#--------------------------------------------------#

~VERSION INFORMATION
VERS. 2.0 : CWLS LOG ASCII STANDARD - VERSION 2.0
WRAP.  NO : ONE LINE PER DEPTH STEP
~WELL INFORMATION
#MNEMONIC     .UNIT              VALUE :DESCRIPTION
STRT       .FT                145 :START DEPTH
STOP       .FT                15608 :STOP DEPTH
STEP       .FT                   0.500 :STEP
NULL       .                  -999.250 :NULL
UWI        .              42389304120000 :UNIQUE WELL ID
API        .              42389304120000 :API NUMBER
COMP       .         BTA OIL PRODUCERS :COMPANY
WELL       .        7607 JV-P ORLA  1 :WELL
DATE       .                            :LOG DATE
~CURVE INFORMATION
#MNEMONIC     .UNIT      API CODE :CURVE DESCRIPTION
DEPTH       .FT                      :MEASURED DEPTH
DT.US/FT        UNKNOWN   :DT
CAL.INCH        UNKNOWN   :CAL
GR.API        UNKNOWN   :GR
~A    DEPTH    DT    CAL    GR
# ...
 12962     74.709   9.173   72.023
 12962.5     76.837   9.181   73.379
 12963     78.109   9.189   74.735
 12963.5     77.665   9.198   76.091
 12964     77.221   9.205   76.902
 12964.5     76.778   9.212   77.478
 12965     76.393   9.219   78.054
 12965.5     76.014   9.226   78.63
 12966     75.635   9.233   77.534
 12966.5     75.401   9.24   77.145
 12967     78.061   9.247   80.686
 12967.5     80.316   9.254   84.227
 12968     80.73   9.261   87.768
 12968.5     81.145   9.254   91.668
 12969     81.559   9.238   95.778
 12969.5     83.374   9.222   99.889
 12970     85.964   9.207   103.999
 12970.5     87.995   9.191   108.109
 12971     88.272   9.175   101.908
 12971.5     88.102   9.159   94.059
 12972     85.588   9.161   86.21
 12972.5     79.419   9.175   78.36
 12973     73.249   9.189   70.511
 12973.5     68.397   9.203   62.662
 12974     65.719   9.217   60.472
 12974.5     64.477   9.231   61.597
 12975     69.055   9.245   66.746
 12975.5     74.356   9.259   71.895
 12976     79.658   9.263   77.044
 12976.5     82.204   9.262   81.891
 12977     81.353   9.261   82.649
 12977.5     79.78   9.259   83.407
 12978     78.393   9.258   84.166
 12978.5     78.943   9.257   98.261
 12979     80.663   9.255   102.367
 12979.5     83.38   9.254   106.474
 12980     86.098   9.252   110.58
 12980.5     87.762   9.251   114.687
 12981     88.264   9.25   113.163
 12981.5     88.584   9.249   111.386
 12982     88.499   9.249   109.61
 12982.5     88.414   9.249   108.922
 12983     88.329   9.249   109.413
 12983.5     88.244   9.249   109.903
 12984     88.158   9.249   112.448
 12984.5     88.271   9.249   115.295
 12985     88.454   9.249   118.142
 12985.5     88.638   9.25   120.989
 12986     88.747   9.26   123.836
 12986.5     88.736   9.269   126.085
 12987     88.725   9.278   126.624
 12987.5     88.714   9.288   127.164
 12988     88.703   9.297   117.884
 12988.5     88.581   9.307   102.961
 12989     88.458   9.316   96.442
 12989.5     86.683   9.325   89.923
 12990     80.87   9.335   83.405
 12990.5     79.594   9.344   77.73
 12991     79.364   9.354   82.439
 12991.5     81.553   9.363   87.147
 12992     83.742   9.372   91.855
 12992.5     85.931   9.348   96.564
 12993     87.726   9.297   100.075
 12993.5     88.035   9.247   103.533
 12994     87.089   9.197   106.991
 12994.5     85.55   9.146   110.449
 12995     84.273   9.106   109.112
 12995.5     82.286   9.106   105.123
 12996     76.778   9.105   101.134
 12996.5     76.372   9.104   97.146
 12997     75.966   9.104   93.854
 12997.5     75.791   9.103   96.578
 12998     80.277   9.103   99.302
 12998.5     80.684   9.102   101.786
 12999     80.45   9.101   99.964
 12999.5     80.217   9.101   98.141
 13000     80.23   9.1   96.319
 13000.5     80.539   9.1   94.629
 13001     81.315   9.099   94.511
 13001.5     82.132   9.098   94.393
 13002     82.948   9.098   94.275
 13002.5     83.466   9.097   94.157
 13003     83.906   9.097   94.039
 13003.5     84.346   9.096   93.921
 13004     84.612   9.095   93.803
 13004.5     83.998   9.095   91.828
 13005     82.736   9.094   89.585
 13005.5     81.474   9.094   87.342
 13006     80.211   9.093   86.11
 13006.5     78.949   9.092   85.705
 13007     79.354   9.092   85.299
 13007.5     80.977   9.091   89.872
 13008     84.558   9.084   94.835
 13008.5     86.102   9.067   99.797
 13009     86.937   9.05   104.76
 13009.5     87.313   9.033   109.723
 13010     87.497   9.016   113.239
 13010.5     87.68   8.999   114.487
 13011     87.863   8.982   115.735
 13011.5     88.047   8.965   116.655
 13012     88.23   8.965   115.641
 13012.5     88.414   8.967   114.627
 13013     87.977   8.969   113.613
 13013.5     87.539   8.97   112.599
 13014     87.101   8.972   111.585
 13014.5     86.978   8.973   110.654
 13015     87.273   8.975   111.286
 13015.5     87.567   8.977   111.918
 13016     87.81   8.978   112.55
 13016.5     87.865   8.98   113.182
 13017     87.92   8.982   113.305
 13017.5     87.975   8.983   112.38
 13018     88.03   8.985   111.456
 13018.5     88.085   8.987   110.532
 13019     88.14   8.988   109.607
 13019.5     88.195   8.99   105.845
 13020     87.414   8.991   100.963
 13020.5     85.724   8.993   96.08
 13021     84.035   8.995   91.198
 13021.5     83.26   9.003   87.341
 13022     82.727   9.02   84.576
 13022.5     82.364   9.038   83.824
 13023     83.169   9.055   85.242
 13023.5     83.641   9.108   85.994
 13024     83.098   9.173   85.644
 13024.5     84.306   9.237   85.294
 13025     85.054   9.415   84.944
 13025.5     85.802   9.727   84.353
 13026     87.894   10.063   81.793
 13026.5     87.934   10.398   78.737
 13027     87.974   10.734   71.719
 13027.5     88.014   11.024   64.702
 13028     88.054   10.692   57.684
 13028.5     88.094   10.36   50.667
 13029     88.134   9.636   40.334
 13029.5     88.173   8.883   29.943
 13030     87.679   8.658   19.552
 13030.5     92.494   8.587   14.212
 13031     95.502   8.516   10.1
 13031.5     95.571   8.463   7.645
 13032     95.641   8.439   6.297
 13032.5     94.227   8.416   6.553
 13033     94.419   8.392   6.808
 13033.5     95.949   8.369   7.064
 13034     96.98   8.368   7.319
 13034.5     98.012   8.383   7.575
 13035     98.364   8.397   7.83
 13035.5     97.451   8.408   8.085
 13036     96.651   8.411   8.111
 13036.5     96.772   8.414   8.069
 13037     96.893   8.416   8.028
 13037.5     98.168   8.419   7.986
 13038     98.594   8.422   7.945
 13038.5     98.667   8.473   7.904
 13039     98.122   8.578   7.862
 13039.5     97.578   8.683   7.821
 13040     97.033   8.788   7.779
 13040.5     96.586   8.893   7.738
 13041     96.468   9.01   8.554
 13041.5     96.35   9.042   10.375
 13042     96.233   9.04   12.195
 13042.5     96.054   9.038   14.092
 13043     95.838   9.036   17.062
 13043.5     95.622   9.033   20.031
 13044     95.405   9.031   22.576
 13044.5     95.189   9.029   24.299
 13045     95.807   9.025   26.022
 13045.5     97.888   8.997   27.746
 13046     99.969   8.969   29.349
 13046.5     102.05   8.94   30.191
 13047     104.131   8.912   31.032
 13047.5     106.212   8.884   26.444
 13048     106.638   8.856   20.968
 13048.5     104.459   8.828   15.493
 13049     100.246   8.799   10.018
 13049.5     96.033   8.768   8.633
 13050     95.681   8.677   8.447
 13050.5     95.546   8.587   8.261
 13051     95.412   8.497   8.076
 13051.5     95.882   8.414   7.89
 13052     96.517   8.347   7.704
 13052.5     97.153   8.28   7.518
 13053     97.789   8.237   8.039
 13053.5     98.424   8.252   8.649
 13054     98.737   8.267   9.259
 13054.5     98.727   8.282   9.868
 13055     98.717   8.298   10.478
 13055.5     98.707   8.32   11.088
 13056     98.697   8.4   11.698
 13056.5     99.168   8.48   11.778
 13057     99.753   8.594   11.43
 13057.5     99.651   8.738   11.081
 13058     99.106   8.883   10.733
 13058.5     98.282   8.972   10.385
 13059     97.457   9.034   10.037
 13059.5     96.633   9.091   9.688
 13060     96.146   9.095   9.34
 13060.5     96.301   9.1   8.992
 13061     96.456   9.105   8.968
 13061.5     96.612   9.109   9.515
 13062     96.767   9.114   10.062
 13062.5     96.404   9.119   10.608
 13063     95.89   9.124   11.155
 13063.5     95.757   9.128   11.702
 13064     98.828   9.133   12.248
 13064.5     100.784   9.138   12.121
 13065     100.801   9.142   10.738
 13065.5     100.672   9.146   9.403
 13066     99.362   9.149   9.334
 13066.5     95.959   9.153   9.265
 13067     96.268   9.157   9.197
 13067.5     96.576   9.161   9.774
 13068     96.885   9.165   10.405
 13068.5     97.193   9.169   11.036
 13069     97.22   9.173   11.667
 13069.5     97.21   9.177   12.566
 13070     97.2   9.18   14.565
 13070.5     97.191   9.184   16.563
 13071     97.166   9.188   18.562
 13071.5     96.812   9.192   20.56
 13072     96.458   9.196   22.559
 13072.5     96.319   9.2   21.647
 13073     96.393   9.203   20.285
 13073.5     96.466   9.205   18.923
