###############################################
##         ENVERUS                           ##
##         ESS - Open Hole                   ##
##         PERMIAN / DELAWARE                ##
##         Nov 04 2023  V4.0                 ##
##         42-389-32353-00-00                ##
###############################################
## Copyright 2017-2023  ENVERUS.  All Rights Reserved. 
## Confidential - Property of ENVERUS, use governed by terms and 
## conditions found within the existing Information Services Subscription Agreement 
## (as may be amended, the “ISSA”) between Customer and ENVERUS. 
## 
~VERSION INFORMATION
# MNEM.UNIT                               DATA : DESCRIPTION OF MNEMONIC
#-----.-----     ----------------------------- : -----------------------------
VERS.                                     2.00 : CWLS LOG ASCII STANDARD - VERSION 2.00
WRAP.                                       NO : MULTIPLE LINES PER DEPTH STEP
VEND.                                  ENVERUS : VENDOR
TYPE.                          ESS - OPEN HOLE : ENVERUS ESSENTIAL CURVES – ACCESSIBLE THROUGH ENVERUS PRISM(TM)
DOC.                                  31816014 : ENVERUS HEADER RAW DOCUMENT ID
#___________________________________________________________________________________________________ 
~WELL INFORMATION 
# N6wmpYeOPIEODBGNmaSz+o1WStwpnSM+Mr70h4S2k9wmNhpeTZrfoFyYX6I24xyp8IiB7B51j2C/wpla6NseZQ== 
# MNEM.UNIT                                              DATA : DESCRIPTION OF MNEMONIC 
#-----.-----                    ----------------------------- : ----------------------------- 
CNTY.                                                  REEVES : COUNTY 
STATE.                                                  TEXAS : STATE 
CNTRY.                                                    USA : COUNTRY 
API.                                             42-389-32353 : API (10 Digit) 
API_14.                                    42-389-32353-00-00 : API (14 Digits) 
API_14_std.                                 42-389-32353-0000 : API (14 Digits Standard) 
UWI.                                           42389323530000 : UNIQUE WELL ID 
WELL.                                             DORNFIELD 1 : WELL NAME
STRT.FT                                                 210.0 : START DEPTH
STOP.FT                                               13522.0 : STOP DEPTH
STEP.FT                                                   0.5 : STEP BETWEEN DEPTHS
NULL.                                                 -999.25 : NULL VALUE
LOC.                                                      UNK : LOCATION 
SRVC.                                                     UNK : SERVICE COMPANY
#___________________________________________________________________________________________________ 
~CURVE INFORMATION 
# MNEM.UNIT           : CURVE DESCRIPTION 
#-----.-----          : ----------------------------- 
 DEPT.FT               : MEASURED DEPTH 
 CALI.IN               : CALIPER (CAL - CAL) 
 GR.API                : GAMMA RAY (GR) 
 DT.US/FT              : SONIC DELTA TRANSIT TIME (DT) 
 RESS.OHMM             : SHALLOW INDUCTION RESISTIVITY (ILS - ILS) 
 RESD.OHMM             : DEEP INDUCTION RESISTIVITY (ILD - ILD) 
 DPHI.V/V              : DENSITY POROSITY (DPHI) 
 NPHI.V/V              : NEUTRON POROSITY (NPHI) 
 RHOB.G/CC             : BULK DENSITY (RHOB) 
 #___________________________________________________________________________________________________ 
~A         DEPT           CALI             GR             DT           RESS           RESD           DPHI           NPHI           RHOB
# ...
        13455.5          8.792         66.332       -999.250       1578.385       2302.350       -0.10600        0.04458         2.8052
        13456.0          8.797         65.222       -999.250       1830.327       2871.823       -0.10823        0.04634         2.8093
        13456.5          8.802         64.111       -999.250       1930.263       3692.191       -0.10471        0.04610         2.8110
        13457.0          8.827         63.397       -999.250       1721.004       3834.683       -0.10118        0.04427         2.8127
        13457.5          8.857         63.041       -999.250       1516.207       3848.955       -0.10714        0.04243         2.8143
        13458.0          8.888         62.686       -999.250       1369.826       3847.210       -0.11657        0.04060         2.8163
        13458.5          8.910         59.755       -999.250       1223.445       2479.674       -0.11758        0.04142         2.8260
        13459.0          8.854         52.272       -999.250       1153.504       1488.065       -0.11859        0.04284         2.8358
        13459.5          8.767         44.789       -999.250       1301.916       1861.587       -0.11960        0.04427         2.8347
        13460.0          8.679         43.865       -999.250       1962.465       2235.110       -0.12060        0.04569         2.8247
        13460.5          8.668         48.058       -999.250       2348.639       2412.834       -0.10643        0.04712         2.8147
        13461.0          8.680         56.743       -999.250       1698.574       2482.247       -0.10905        0.04855         2.8168
        13461.5          8.693         63.664       -999.250       1495.445       2394.617       -0.10905        0.05012         2.8320
        13462.0          8.705         66.683       -999.250       1771.483       2419.723       -0.11331        0.05645         2.8172
        13462.5          8.717         68.729       -999.250       1708.020       2405.245       -0.08889        0.06277         2.8048
        13463.0          8.729         70.775       -999.250       1644.558       2170.855       -0.08064        0.06910         2.7925
        13463.5          8.741         72.822       -999.250       1666.770       1982.670       -0.08409        0.07183         2.7806
        13464.0          8.754         72.062       -999.250       1756.035       1884.594       -0.09775        0.07264         2.7959
        13464.5          8.766         67.830       -999.250       1493.069       1783.741       -0.11186        0.07075         2.8111
        13465.0          8.778         63.599       -999.250       1090.531       1645.914       -0.11387        0.05871         2.8141
        13465.5          8.790         59.367       -999.250        969.757       1508.087       -0.10334        0.04893         2.7998
        13466.0          8.802         55.136       -999.250        788.291       1370.890       -0.08732        0.04729         2.7855
        13466.5          8.815         51.479       -999.250        912.872       1219.679       -0.07059        0.04565         2.7711
        13467.0          8.827         49.772       -999.250        995.513       1068.468       -0.06900        0.04401         2.7568
        13467.5          8.833         52.230       -999.250       1017.966       1106.523       -0.06741        0.04237         2.7737
        13468.0          8.830         59.084       -999.250       1409.798       1424.872       -0.07830        0.04073         2.7874
        13468.5          8.827         65.938       -999.250       1287.342       1693.090       -0.09022        0.04193         2.8011
        13469.0          8.824         69.053       -999.250       1164.887       1813.801       -0.10588        0.04397         2.8149
        13469.5          8.821         67.868       -999.250       1115.258       1731.481       -0.11372        0.04600         2.8286
        13470.0          8.817         65.614       -999.250       1170.873       1761.664       -0.11414        0.04565         2.8250
        13470.5          8.814         59.603       -999.250       1243.610       1957.049       -0.11265        0.04437         2.8188
        13471.0          8.811         53.591       -999.250       1242.692       1742.407       -0.10629        0.04308         2.8125
        13471.5          8.808         47.580       -999.250       1198.206       1452.366       -0.09852        0.04180         2.8063
        13472.0          8.805         41.568       -999.250       1124.886       1284.521       -0.09141        0.04178         2.8001
        13472.5          8.802         36.031       -999.250       1012.476       1240.227       -0.10397        0.04178         2.8243
        13473.0          8.799         31.502       -999.250        900.066       1214.475       -0.11653        0.04179         2.8086
        13473.5          8.794         27.487       -999.250        716.031       1553.950       -0.10491        0.04179      -999.2500
        13474.0          8.781         27.995       -999.250        584.564       1630.945       -0.08342        0.04180      -999.2500
        13474.5          8.769         28.502       -999.250        665.869        883.248       -0.08582        0.04180      -999.2500
        13475.0          8.742         35.509       -999.250        747.174       1003.233       -0.09857        0.04296      -999.2500
        13475.5          8.683         43.087       -999.250        828.479       1123.218       -0.10376        0.04517      -999.2500
        13476.0          8.625         48.094       -999.250        909.784       1188.707       -0.09458        0.04737      -999.2500
        13476.5          8.654         53.100       -999.250        845.026       1088.070       -0.08190        0.04958      -999.2500
        13477.0          8.699         58.106       -999.250        755.692       1000.145       -0.08628        0.05078      -999.2500
        13477.5          8.744         57.616       -999.250        666.359       1007.223       -0.09730        0.05009      -999.2500
        13478.0          8.758         54.434       -999.250        577.026        925.428       -0.11451        0.04866      -999.2500
        13478.5          8.758         51.068       -999.250        487.692       -999.250       -0.13237        0.04677      -999.2500
        13479.0          8.753         50.200       -999.250        484.670       -999.250       -0.13405        0.04488      -999.2500
        13479.5          8.749         50.367       -999.250        479.129       -999.250       -0.11333        0.04299      -999.2500
        13480.0          8.744         54.306       -999.250        479.257       -999.250       -0.09836        0.04110      -999.2500
        13480.5          8.740         61.743       -999.250        479.720       -999.250       -0.09091        0.04107      -999.2500
        13481.0          8.735         69.181       -999.250        480.184       -999.250       -0.08306        0.04514      -999.2500
        13481.5          8.730         74.131       -999.250        480.647       -999.250       -0.07063        0.04854      -999.2500
        13482.0          8.726         72.335       -999.250        481.111       -999.250       -0.07188        0.05024      -999.2500
        13482.5       -999.250         70.358       -999.250        481.574       -999.250       -0.09631        0.05194      -999.2500
        13483.0       -999.250         68.380       -999.250        482.038       -999.250       -0.10387        0.05363      -999.2500
        13483.5       -999.250         69.450       -999.250        482.501       -999.250       -0.11673        0.05574      -999.2500
        13484.0       -999.250         71.497       -999.250        482.965       -999.250       -0.11995        0.05938      -999.2500
        13484.5       -999.250         73.544       -999.250        483.428       -999.250       -0.12129        0.06301      -999.2500
