###############################################
##         ENVERUS                           ##
##         ESS - Open Hole                   ##
##         PERMIAN / DELAWARE                ##
##         Nov 04 2023  V4.0                 ##
##         42-389-32245-00-00                ##
###############################################
## Copyright 2017-2023  ENVERUS.  All Rights Reserved. 
## Confidential - Property of ENVERUS, use governed by terms and 
## conditions found within the existing Information Services Subscription Agreement 
## (as may be amended, the “ISSA”) between Customer and ENVERUS. 
## 
~VERSION INFORMATION
# MNEM.UNIT                               DATA : DESCRIPTION OF MNEMONIC
#-----.-----     ----------------------------- : -----------------------------
VERS.                                     2.00 : CWLS LOG ASCII STANDARD - VERSION 2.00
WRAP.                                       NO : MULTIPLE LINES PER DEPTH STEP
VEND.                                  ENVERUS : VENDOR
TYPE.                          ESS - OPEN HOLE : ENVERUS ESSENTIAL CURVES – ACCESSIBLE THROUGH ENVERUS PRISM(TM)
DOC.                                  31784178 : ENVERUS HEADER RAW DOCUMENT ID
#___________________________________________________________________________________________________ 
~WELL INFORMATION 
# v5kOeJgG8V8Fdrn76qwaaSXPAkEfLGq57aawfXlCwOXh55ROPeN2VCvB7JmY2/dENYnWxxZwl4Ma/Wu+4c2YGQ== 
# MNEM.UNIT                                              DATA : DESCRIPTION OF MNEMONIC 
#-----.-----                    ----------------------------- : ----------------------------- 
CNTY.                                                  REEVES : COUNTY 
STATE.                                                  TEXAS : STATE 
CNTRY.                                                    USA : COUNTRY 
API.                                             42-389-32245 : API (10 Digit) 
API_14.                                    42-389-32245-00-00 : API (14 Digits) 
API_14_std.                                 42-389-32245-0000 : API (14 Digits Standard) 
UWI.                                           42389322450000 : UNIQUE WELL ID 
WELL.                          TEXAS PACIFIC LAND TRUST 25 1H : WELL NAME
STRT.FT                                                2519.0 : START DEPTH
STOP.FT                                               10624.0 : STOP DEPTH
STEP.FT                                                   0.5 : STEP BETWEEN DEPTHS
NULL.                                                 -999.25 : NULL VALUE
#___________________________________________________________________________________________________ 
~CURVE INFORMATION 
# MNEM.UNIT           : CURVE DESCRIPTION 
#-----.-----          : ----------------------------- 
 DEPT.FT               : MEASURED DEPTH 
 CALI__B.IN            : CALIPER (CAL - CAL) 
 GR__B.API             : GAMMA RAY (GR) 
 DT__B.US/FT           : SONIC DELTA TRANSIT TIME (DT) 
 #___________________________________________________________________________________________________ 
~A         DEPT        CALI__B          GR__B          DT__B
# ...
         6809.0         12.749         96.254         83.735
         6809.5         12.749         99.099         83.617
         6810.0         12.749         94.809         82.948
         6810.5         12.749         87.658         81.840
         6811.0         12.749         83.267         80.815
         6811.5         12.749         82.490         80.745
         6812.0         12.749         78.156         80.340
         6812.5         12.749         66.363         78.419
         6813.0         12.749         58.708         76.105
         6813.5         12.749         53.119         75.412
         6814.0         12.749         59.127         76.041
         6814.5         12.749         65.136         76.562
         6815.0         12.749         67.718         75.449
         6815.5         12.751         59.899         73.384
         6816.0         12.757         52.080         72.331
         6816.5         12.763         57.649         74.126
         6817.0         12.770         67.496         77.174
         6817.5         12.776         77.343         82.201
         6818.0         12.782         82.072         85.265
         6818.5         12.788         80.507         85.421
         6819.0         12.794         78.451         85.553
         6819.5         12.788         77.869         85.493
         6820.0         12.782         83.023         85.658
         6820.5         12.775         84.908         85.120
         6821.0         12.869         80.790         82.360
         6821.5         13.098         68.167         79.581
         6822.0         13.327         64.305         81.844
         6822.5         13.366         66.193         86.404
         6823.0         13.211         88.643         90.156
         6823.5         13.060         88.510         90.663
         6824.0         12.909         85.063         89.553
         6824.5         12.838         80.895         89.794
         6825.0         12.836         80.362         91.375
         6825.5         12.834         79.828         90.695
         6826.0         12.832         79.295         88.204
         6826.5         12.830         78.343         86.013
         6827.0         12.827         74.484         84.668
         6827.5         12.825         70.743         83.111
         6828.0         12.823         69.981         82.741
         6828.5         12.821         73.556         84.319
         6829.0         12.819         80.411         85.896
         6829.5         12.817         81.383         85.864
         6830.0         12.817         81.489         82.079
         6830.5         12.817         70.788         77.906
         6831.0         12.817         55.188         71.524
         6831.5         12.817         39.588         64.229
         6832.0         12.817         31.289         62.362
         6832.5         12.817         33.607         66.208
         6833.0         12.817         48.013         72.422
         6833.5         12.817         67.034         78.637
         6834.0         12.817         86.055         83.307
         6834.5         12.817         93.033         84.290
         6835.0         12.817         90.406         84.233
         6835.5         12.817         88.832         83.994
         6836.0         12.815         92.071         85.744
         6836.5         12.812        102.208         87.787
         6837.0         12.808        102.669         88.500
         6837.5         12.805         97.737         86.808
         6838.0         12.801         92.771         84.659
         6838.5         12.798         87.167         82.444
         6839.0         12.809         81.100         80.229
         6839.5         12.943         75.033         79.355
         6840.0         12.994         74.539         80.823
         6840.5         12.938         82.058         84.088
         6841.0         12.881         97.372         87.934
         6841.5         12.825        100.301         89.088
         6842.0         12.772         97.011         87.420
         6842.5         12.779         92.828         85.216
         6843.0         12.787         85.027         84.041
         6843.5         12.794         76.058         81.355
         6844.0         12.800         67.120         77.140
         6844.5         12.806         58.671         72.924
         6845.0         12.813         49.979         69.838
         6845.5         12.819         41.232         68.818
         6846.0         12.825         43.051         71.701
         6846.5         12.831         52.554         76.134
         6847.0         12.837         66.570         81.350
         6847.5         12.844         80.587         87.472
         6848.0         12.850         94.603         91.792
         6848.5         12.856        100.085         91.406
         6849.0         12.862        100.085         90.559
         6849.5         12.869         97.003         88.899
         6850.0         12.875         91.008         85.810
         6850.5         12.881         84.190         82.651
         6851.0         12.887         77.666         80.200
         6851.5         12.893         77.149         82.212
         6852.0         12.900         81.383         84.223
         6852.5         12.906         85.617         85.303
         6853.0         12.912         91.946         84.765
         6853.5         12.918         89.561         83.481
         6854.0         12.924         85.355         82.626
         6854.5         12.931         81.645         84.236
         6855.0         12.937         92.743         88.988
         6855.5         12.943        118.614         92.508
         6856.0         12.949        123.030         93.808
         6856.5         12.951        119.358         94.202
         6857.0         12.951        114.506         94.173
         6857.5         12.951        108.749         91.794
         6858.0         12.951        102.993         87.389
         6858.5         12.951         98.579         83.295
         6859.0         12.947         94.887         83.309
         6859.5         12.944         98.998         84.675
         6860.0         12.940        105.430         86.041
         6860.5         12.936        104.911         87.047
         6861.0         12.933        100.623         86.437
         6861.5         12.929         93.814         84.291
         6862.0         12.925         86.951         81.961
         6862.5         12.921         80.088         79.631
         6863.0         12.918         75.140         78.336
         6863.5         12.914         75.727         79.944
         6864.0         12.910         83.103         82.547
         6864.5         12.907         90.479         86.123
         6865.0         12.900         97.843         88.906
         6865.5         12.893         95.492         89.691
         6866.0         12.887         93.141         88.776
         6866.5         12.953         92.707         87.861
         6867.0         13.060         92.428         86.884
         6867.5         13.113         89.815         85.905
         6868.0         13.062         86.565         84.810
         6868.5         13.010         79.150         82.980
         6869.0         12.959         71.734         79.116
         6869.5         12.908         64.318         75.335
         6870.0         12.959         64.457         76.084
         6870.5         13.122         70.550         78.915
         6871.0         13.574         83.665         81.508
         6871.5         13.857         93.809         83.230
         6872.0         13.878         91.446         83.481
         6872.5         13.764         89.083         81.024
         6873.0         13.342         86.720         79.619
         6873.5         13.066         86.778         81.046
         6874.0         13.141         95.713         83.643
         6874.5         13.216         98.510         85.047
