###############################################
##         ENVERUS                           ##
##         ESS - Open Hole                   ##
##         PERMIAN / DELAWARE                ##
##         Nov 02 2023  V4.0                 ##
##         42-301-31112-00-00                ##
###############################################
## Copyright 2017-2023  ENVERUS.  All Rights Reserved. 
## Confidential - Property of ENVERUS, use governed by terms and 
## conditions found within the existing Information Services Subscription Agreement 
## (as may be amended, the “ISSA”) between Customer and ENVERUS. 
## 
~VERSION INFORMATION
# MNEM.UNIT                               DATA : DESCRIPTION OF MNEMONIC
#-----.-----     ----------------------------- : -----------------------------
VERS.                                     2.00 : CWLS LOG ASCII STANDARD - VERSION 2.00
WRAP.                                       NO : MULTIPLE LINES PER DEPTH STEP
VEND.                                  ENVERUS : VENDOR
TYPE.                          ESS - OPEN HOLE : ENVERUS ESSENTIAL CURVES – ACCESSIBLE THROUGH ENVERUS PRISM(TM)
DOC.                                  31879965 : ENVERUS HEADER RAW DOCUMENT ID
#___________________________________________________________________________________________________ 
~WELL INFORMATION 
# p11foxtE5QnwhaJbtzBz2LJF4p4dkL7jzyXNzohJvMqLCglFSJK87xuVm3WB3m+8huK6qzS+fp5X73xeHrMy5w== 
# MNEM.UNIT                                              DATA : DESCRIPTION OF MNEMONIC 
#-----.-----                    ----------------------------- : ----------------------------- 
CNTY.                                                  LOVING : COUNTY 
STATE.                                                  TEXAS : STATE 
CNTRY.                                                    USA : COUNTRY 
API.                                             42-301-31112 : API (10 Digit) 
API_14.                                    42-301-31112-00-00 : API (14 Digits) 
API_14_std.                                 42-301-31112-0000 : API (14 Digits Standard) 
UWI.                                           42301311120000 : UNIQUE WELL ID 
WELL.                                                    JR 1 : WELL NAME
STRT.FT                                                3102.0 : START DEPTH
STOP.FT                                               15993.0 : STOP DEPTH
STEP.FT                                                   0.5 : STEP BETWEEN DEPTHS
NULL.                                                 -999.25 : NULL VALUE
LOC.                                                      UNK : LOCATION 
SRVC.                                                     UNK : SERVICE COMPANY
#___________________________________________________________________________________________________ 
~CURVE INFORMATION 
# MNEM.UNIT           : CURVE DESCRIPTION 
#-----.-----          : ----------------------------- 
 DEPT.FT               : MEASURED DEPTH 
 CALI.IN               : CALIPER (CAL - CAL) 
 GR.API                : GAMMA RAY (GR) 
 DT.US/FT              : SONIC DELTA TRANSIT TIME (DT) 
 #___________________________________________________________________________________________________ 
~A         DEPT           CALI             GR             DT
# ...
         4092.0         18.512         63.603       -999.250
         4092.5         18.516         59.173       -999.250
         4093.0         18.519         53.404       -999.250
         4093.5         18.522         47.065       -999.250
         4094.0         18.525         42.719       -999.250
         4094.5         18.529         40.052       -999.250
         4095.0         18.532         37.385       -999.250
         4095.5         18.535         35.823       -999.250
         4096.0         18.538         35.823       -999.250
         4096.5         18.541         35.964       -999.250
         4097.0         18.545         36.963       -999.250
         4097.5         18.530         37.963       -999.250
         4098.0         18.482         38.962       -999.250
         4098.5         18.434         40.221       -999.250
         4099.0         18.387         42.567       -999.250
         4099.5         18.342         44.914       -999.250
         4100.0         18.303         47.260       -999.250
         4100.5         18.264         47.629       -999.250
         4101.0         18.225         46.879       -999.250
         4101.5         18.186         44.670       -999.250
         4102.0         18.146         42.460       -999.250
         4102.5         18.107         40.923       -999.250
         4103.0         18.068         40.370       -999.250
         4103.5         18.029         39.818       -999.250
         4104.0         17.990         39.408       -999.250
         4104.5         17.951         40.515       -999.250
         4105.0         17.888         42.628       -999.250
         4105.5         17.805         45.424       -999.250
         4106.0         17.723         52.807       -999.250
         4106.5         17.640         60.576       -999.250
         4107.0         17.558         68.346       -999.250
         4107.5         17.496         74.386       -999.250
         4108.0         17.461         70.875       -999.250
         4108.5         17.427         63.077       -999.250
         4109.0         17.392         56.205       -999.250
         4109.5         17.357         52.172       -999.250
         4110.0         17.322         51.212       -999.250
         4110.5         17.287         50.756       -999.250
         4111.0         17.252         54.137       -999.250
         4111.5         17.217         58.198       -999.250
         4112.0         17.182         62.259       -999.250
         4112.5         17.147         59.189       -999.250
         4113.0         17.112         54.623       -999.250
         4113.5         17.077         49.825       -999.250
         4114.0         17.042         47.587       -999.250
         4114.5         17.007         46.756       -999.250
         4115.0         16.972         45.151       -999.250
         4115.5         16.937         42.913       -999.250
         4116.0         16.902         41.665       -999.250
         4116.5         16.867         42.197       -999.250
         4117.0         16.833         43.613       -999.250
         4117.5         16.798         45.028       -999.250
         4118.0         16.763         45.465       -999.250
         4118.5         16.728         44.934       -999.250
         4119.0         16.693         43.110       -999.250
         4119.5         16.657         41.286       -999.250
         4120.0         16.620         38.721       -999.250
         4120.5         16.583         36.056       -999.250
         4121.0         16.546         34.785       -999.250
         4121.5         16.509         35.646       -999.250
         4122.0         16.472         38.872       -999.250
         4122.5         16.440         43.286       -999.250
         4123.0         16.446         47.700       -999.250
         4123.5         16.451         49.095       -999.250
         4124.0         16.456         48.220       -999.250
         4124.5         16.462         43.542       -999.250
         4125.0         16.467         41.419       -999.250
         4125.5         16.473         42.121       -999.250
         4126.0         16.478         44.837       -999.250
         4126.5         16.425         45.507       -999.250
         4127.0         16.372         43.486       -999.250
         4127.5         16.318         40.402       -999.250
         4128.0         16.265         37.829       -999.250
         4128.5         16.211         36.316       -999.250
         4129.0         16.157         38.337       -999.250
         4129.5         16.104         40.614       -999.250
         4130.0         16.050         41.115       -999.250
         4130.5         16.023         40.203       -999.250
         4131.0         16.005         39.292       -999.250
         4131.5         15.986         38.565       -999.250
         4132.0         15.967         38.422       -999.250
         4132.5         15.949         38.834       -999.250
         4133.0         15.930         40.976       -999.250
         4133.5         15.912         45.662       -999.250
         4134.0         15.893         50.347       -999.250
         4134.5         15.830         55.033       -999.250
         4135.0         15.728         59.461       -999.250
         4135.5         15.627         61.673       -999.250
         4136.0         15.526         63.884       -999.250
         4136.5         15.424         65.698       -999.250
         4137.0         15.348         65.749       -999.250
         4137.5         15.348         62.973       -999.250
         4138.0         15.348         61.515       -999.250
         4138.5         15.348         61.934       -999.250
         4139.0         15.348         61.722       -999.250
         4139.5         15.348         59.324       -999.250
         4140.0         15.340         56.925       -999.250
         4140.5         15.330         54.527       -999.250
         4141.0         15.478         47.204       -999.250
         4141.5         15.638         39.345       -999.250
         4142.0         15.786         34.294       -999.250
         4142.5         15.878         29.500       -999.250
         4143.0         15.908         26.436       -999.250
         4143.5         15.913         23.371       -999.250
         4144.0         15.918         22.609       -999.250
         4144.5         15.920         24.805       -999.250
         4145.0         15.852         29.826       -999.250
         4145.5         15.785         35.707       -999.250
         4146.0         15.689         39.821       -999.250
         4146.5         15.564         41.857       -999.250
         4147.0         15.439         44.768       -999.250
         4147.5         15.387         48.173       -999.250
         4148.0         15.387         49.219       -999.250
         4148.5         15.387         45.778       -999.250
         4149.0         15.387         42.208        114.366
         4149.5         15.387         43.583        114.829
         4150.0         15.391         45.557        121.844
         4150.5         15.436         46.231        133.083
         4151.0         15.480         43.333        147.322
         4151.5         15.524         39.758        160.330
         4152.0         15.594         39.720        160.329
         4152.5         15.682         40.025        160.328
         4153.0         15.769         38.629        160.327
         4153.5         15.856         37.694        160.325
         4154.0         15.937         38.508        160.324
         4154.5         15.995         39.321        160.323
         4155.0         16.054         38.515        160.322
         4155.5         16.112         37.646        160.320
         4156.0         16.171         37.135        160.319
         4156.5         16.229         37.098        160.318
         4157.0         16.288         36.945        160.317
         4157.5         16.346         35.226        160.315
