#   WellGreen Tech Inc.   Digitizing Services
#   www.wellgreentech.com
#   email: sales@wellgreentech.com
#
~Version Information Block
 VERS.                2.00:     CWLS LOG ASCII STANDARD - VERSION 2.000000
 WRAP.                  NO:     One Line Per Depth Step
#
~Well Information Block
#MNEM.UNIT                     Data                         Information
#----------   ------------------------------------------   ----------------
 STRT.FT                                     4000.0000:     START DEPTH
 STOP.FT                                    15710.0000:     STOP DEPTH
 STEP.FT                                        0.5000:     STEP
 NULL.                                       -999.2500:     NULL VALUE
 COMP.                        THE SUPERIOR OIL COMPANY:     COMPANY
 WELL.                                FORTUNE STATE #1:     WELL
 FLD .                                    CHAPMAN DEEP:     FIELD
 LOC .                                                :     LOCATION
 CNTY.                                          REEVES:     COUNTY
 STAT.                                              TX:     STATE
 CTRY.                                             USA:     COUNTRY
 SRVC.                                    SCHLUMBERGER:     SERVICE COMPANY
 DATE.                                      11/10/1974:     DATE
 API .               42389302950000:    API NUMBER
 UWI .               42389302950000:    UWI NUMBER
 TVD .                                              NO:     TVD flag
 MATRIX .G/CC                  :    Matrix Density
#
~Curve Information Block
#MNEM.UNIT       API CODE      Curve Description
#----------    -------------   -------------------
 DEPT.FT                   :   Depth in Feet
 CALI.IN       70 280 01 01:   Caliper
 GR  .API      35 310 01 01:   Gamma Ray
 DT  .US/F     60 520 08 01:   Sonic transit time
#
~Parameter Information Block
#MNEM.UNIT            Value               Description
#----------    --------------------    -------------------
 RUN .                         ONE:    Run Number
 PDAT.                          GL:    Permanent Datum
 EPD .FT                  000.0000:    Elevation Of Perm. Datum
 LMF .               KELLY BUSHING:    Log Measured From
 EKB .FT                  3065.0:    Elevation Of Kelly Bushing
 DF .FT                    000.0:    Elevation Of Derrick Floor
 GL .FT                   3034.0:    Elevation Of Ground Level
 TD .FT                  15710.0000:    Total Depth
 BHT .DEGF               260.00 :  Bottom Hole Temperature
 BLI .FT               15710.0000:   Bottom Log Interval
 CSGSIZE.IN              9.6250:   Casing Size
 BITSIZE.IN               8.750 :  BitSize
 CSGD.FT                  4000.0:    Casing Bottom (Driller) 1
 CSGL.FT                  400.0:    Casing Bottom (Logger) 1
 MUD . BRINE                                :    Drilling Fluid Type
 MUDV .CP                  27.0:    Drilling Fluid Viscosity
 MUDD .LB/USG              9.25:    Drilling Fluid Density
 PH.                        6.2:    Drilling Fluid Ph
 FL .ML/30MIN              11.0:    Drilling Fluid Loss
 MUDS .FLOW LINE                        :    Mud Sample Source
 RM .OHMM                   0.09:    Resistivity Of Mud Sample
 RMT .DEGF                 60.00:    Mud Sample Temperature
 RMF .OHMM                  0.09:    Mud Filtrate Resistivity
 RMFT.DEGF                 60.00:    Mud Filtrate Sample Temperature
 RMC .OHMM                  0.00:    Mud Cake Resistivity
 RMCT.DEGF                 00.00:    Mud Cake Sample Temperature
 RMB .OHMM                 0.027:    Mud Resistivity At Bht
 TMAX .DEGF               260.00:    Bottom Hole Temperature
#
~Other Information Block
<DescLogPlotStart>   NEURALOG PLOT DEFINITION
PLOTDEFVERSION: 3
LASFILE: D:\nds\projects\G\DAVE\new work\RS Energy - Texas - May 17 - Folder 2\
DEPTHSCALE: 240.000000
RESOLUTION: 400
DEPTHLABELFREQ: 100.000000
HEAVYGRIDFREQ: 100.000000
MEDIUMGRIDFREQ: 50.000000
LIGHTGRIDFREQ: 10.000000
#
#   TRACK 1
#
STARTTRACK: 
 LEFTX: 0.500000 inch
 RIGHTX: 3.000000 inch
 SCALETYPE: Linear
 NUMCHARTDIVISIONS: 10
CURVE: CALI  6.000000   16.000000  (0,0,255)      Solid             2     N    
CURVE: GR    0.000000   125.000000 (0,131,131)    Dot               2     Y    
BACKUP: 125.000000 250.000000 (0,131,131)    Dot               2    
ENDTRACK: 
#
#   TRACK 2
#
STARTTRACK: 
 LEFTX: 3.500000 inch
 RIGHTX: 8.500000 inch
 SCALETYPE: Linear
 NUMCHARTDIVISIONS: 10
CURVE: DT    100.000000 40.000000  (255,0,255)    Solid             2     Y    
BACKUP: 160.000000 100.000000 (255,0,255)    Solid             2    
ENDTRACK: 
<DescLogPlotEnd>
~A DEPTH     CALI             GR               DT              
# ...
   10187.500 12.068           48.298           66.075          
   10188.000 12.068           43.673           65.142          
   10188.500 12.068           42.283           68.579          
   10189.000 12.069           48.798           73.812          
   10189.500 12.069           56.050           78.807          
   10190.000 12.069           64.092           78.082          
   10190.500 12.069           63.839           77.925          
   10191.000 12.070           61.626           77.736          
   10191.500 12.070           58.116           77.866          
   10192.000 12.070           60.961           78.480          
   10192.500 12.070           65.761           78.554          
   10193.000 12.070           70.427           78.985          
   10193.500 12.071           68.337           79.675          
   10194.000 12.071           67.188           79.314          
   10194.500 12.071           71.649           79.622          
   10195.000 12.071           70.325           78.984          
   10195.500 12.072           68.891           78.312          
   10196.000 12.072           71.174           77.918          
   10196.500 12.072           69.846           77.845          
   10197.000 12.072           71.748           77.896          
   10197.500 12.073           71.239           78.066          
   10198.000 12.073           70.933           78.285          
   10198.500 12.073           68.022           78.196          
   10199.000 12.073           63.869           77.904          
   10199.500 12.074           63.349           77.782          
   10200.000 12.074           66.616           77.822          
   10200.500 12.074           71.147           77.650          
   10201.000 12.074           74.977           76.860          
   10201.500 12.074           73.503           75.818          
   10202.000 12.075           66.764           71.456          
   10202.500 12.075           55.189           65.526          
   10203.000 12.075           43.619           60.143          
   10203.500 12.075           33.096           56.167          
   10204.000 12.076           25.199           56.109          
   10204.500 12.076           26.525           56.362          
   10205.000 12.076           29.054           56.226          
   10205.500 12.076           31.237           55.090          
   10206.000 12.077           32.171           58.324          
   10206.500 12.077           38.156           64.461          
   10207.000 12.077           46.123           70.599          
   10207.500 12.077           57.889           76.864          
   10208.000 12.078           66.372           76.081          
   10208.500 12.078           72.646           74.734          
   10209.000 12.078           72.560           73.906          
   10209.500 12.078           73.363           73.521          
   10210.000 12.079           75.092           73.383          
   10210.500 12.079           74.712           74.502          
   10211.000 12.079           72.549           73.911          
   10211.500 12.079           71.697           72.731          
   10212.000 12.079           70.738           71.602          
   10212.500 12.078           67.823           72.648          
   10213.000 12.078           65.886           73.704          
   10213.500 12.078           67.528           74.442          
   10214.000 12.078           69.171           73.088          
   10214.500 12.078           69.556           71.810          
   10215.000 12.078           69.357           72.608          
   10215.500 12.078           68.585           74.261          
   10216.000 12.077           66.802           76.229          
   10216.500 12.077           64.311           77.627          
   10217.000 12.077           66.301           76.686          
   10217.500 12.077           67.472           77.181          
   10218.000 12.077           64.099           77.796          
   10218.500 12.077           64.190           77.458          
   10219.000 12.077           68.710           77.845          
   10219.500 12.076           74.863           78.390          
   10220.000 12.076           73.084           76.509          
   10220.500 12.076           70.914           77.038          
   10221.000 12.076           68.752           77.786          
   10221.500 12.076           66.590           76.746          
   10222.000 12.076           64.429           77.132          
   10222.500 12.076           62.267           72.587          
   10223.000 12.076           60.104           73.156          
   10223.500 12.075           57.217           74.802          
   10224.000 12.075           59.300           76.414          
   10224.500 12.075           61.895           79.915          
   10225.000 12.075           62.043           80.305          
   10225.500 12.075           61.568           80.003          
   10226.000 12.075           58.432           79.326          
   10226.500 12.075           56.054           78.100          
   10227.000 12.074           57.117           76.995          
   10227.500 12.074           58.168           77.390          
   10228.000 12.074           58.735           79.143          
   10228.500 12.074           59.217           81.180          
   10229.000 12.074           63.022           82.339          
   10229.500 12.074           63.748           81.632          
   10230.000 12.074           62.772           78.685          
   10230.500 12.073           61.191           73.671          
   10231.000 12.073           55.564           68.657          
   10231.500 12.073           47.593           63.643          
   10232.000 12.073           41.560           59.473          
   10232.500 12.073           38.482           61.666          
   10233.000 12.073           39.010           65.144          
   10233.500 12.073           45.727           68.622          
   10234.000 12.072           51.508           72.308          
   10234.500 12.072           55.973           76.624          
   10235.000 12.072           59.665           80.939          
   10235.500 12.072           63.356           85.389          
   10236.000 12.072           66.925           83.589          
   10236.500 12.072           69.091           81.205          
   10237.000 12.072           67.616           80.540          
   10237.500 12.071           66.117           79.915          
   10238.000 12.071           65.445           81.045          
   10238.500 12.071           68.602           82.248          
   10239.000 12.071           68.900           82.086          
   10239.500 12.071           67.250           79.985          
   10240.000 12.071           66.610           77.770          
   10240.500 12.071           69.327           77.649          
   10241.000 12.070           70.649           77.660          
   10241.500 12.070           70.446           78.776          
   10242.000 12.070           71.574           80.017          
   10242.500 12.070           73.281           80.035          
   10243.000 12.070           68.445           78.300          
   10243.500 12.070           65.223           84.192          
   10244.000 12.070           64.093           76.698          
   10244.500 12.069           61.017           77.121          
   10245.000 12.069           59.407           78.001          
   10245.500 12.069           62.673           75.519          
   10246.000 12.069           61.138           71.186          
   10246.500 12.069           56.611           67.050          
   10247.000 12.069           49.715           64.272          
   10247.500 12.069           42.384           67.018          
   10248.000 12.069           45.870           72.699          
   10248.500 12.069           53.036           78.014          
   10249.000 12.069           59.801           81.154          
   10249.500 12.069           65.768           83.714          
