#--------------------------------------------------#
#-------------------ENVERUS, INC.------------------#
#------------------WWW.ENVERUS.COM-----------------#
#------------------COPYRIGHT 2020------------------#
#--------------------------------------------------#
#THIS FILE MAY BE USED ONLY IN ACCORDANCE WITH A CURRENT SUBSCRIPTION AGREEMENT BETWEEN
#THE USER AND ENVERUS, INC. NO PART OF THIS FILE MAY BE REPRODUCED, USED, COPIED,
#MODIFIED, PROPAGATED, OR DISTRIBUTED EXCEPT IN ACCORDANCE WITH THE SUBSCRIPTION
#AGREEMENT. UNAUTHORIZED USE OR DISTRIBUTION OF ALL OR ANY PART OF THIS FILE MAY VIOLATE
#COPYRIGHT, TRADEMARK, AND/OR OTHER LAWS AND IS SUBJECT TO CIVIL AS WELL AS CRIMINAL
#SANCTIONS.
#--------------------------------------------------#
#THIS FILE IS PROVIDED "AS-IS" AND ALL WARRANTIES ARE EXPRESSLY DISCLAIMED, WHETHER
#EXPRESS, ORAL, IMPLIED, STATUTORY OR OTHERWISE, INCLUDING ANY IMPLIED WARRANTY OF FITNESS
#FOR A PARTICULAR PURPOSE, MERCHANTABILITY, TITLE OR NON-INFRINGEMENT, AND ANY WARRANTIES
#ARISING BY VIRTUE OF CUSTOM OF TRADE OR COURSE OF DEALING.  FURTHER, ENVERUS, INC.
#AND ITS LICENSORS DO NOT REPRESENT OR WARRANT THAT THIS FILE WILL MEET USER'S
#REQUIREMENTS OR ARE SUITABLE FOR USER'S NEEDS OR THAT THE DATA OR RESULTS PROVIDED IN
#CONJUNCTION THEREWITH ARE CORRECT, ACCURATE, TIMELY OR RELIABLE. THESE DISCLAIMERS SHALL
#APPLY REGARDLESS OF ANY FAILURE OF ESSENTIAL PURPOSE OF ANY LIMITED REMEDY.  SOME
#JURISDICTIONS DO NOT ALLOW THE EXCLUSION OF CERTAIN WARRANTIES SO SOME OF THE ABOVE
#EXCLUSIONS MAY NOT APPLY. IN NO EVENT SHALL ENVERUS, INC. OR ANY OF ITS AFFILIATES
#BE LIABLE UNDER ANY LEGAL THEORY, WHETHER IN TORT (INCLUDING WITHOUT LIMITATION
#NEGLIGENCE), CONTRACT, STRICT LIABILITY, STATUTORY OR OTHERWISE, FOR ANY SPECIAL,
#INCIDENTAL, CONSEQUENTIAL, EXEMPLARY, PUNITIVE OR INDIRECT DAMAGE OF ANY KIND, INCLUDING
#WITHOUT LIMITATION LOSS OF REVENUE, PROFITS, GOODWILL, USE, AND/OR DATA OR THE COST OF
#PROCUREMENT OF SUBSTITUTE GOODS OR SERVICES, EVEN IF APPRISED OF THE POSSIBILITY OF SUCH
#DAMAGES IN ADVANCE.
#--------------------------------------------------#

# EXPORTED FROM DI TRANSFORM
# DI TRANSFORM - A PRODUCT OF DRILLINGINFO, INC. - WWW.DRILLINGINFO.COM
#
~VERSION INFORMATION
 VERS.        2.0 : LAS ASCII STANDARD - VERSION 2.0
 WRAP.         NO : ONE LINE PER DEPTH STEP

~WELL INFORMATION
#MNEM.UNIT       DATA TYPE       INFORMATION
#---------       ---------       -----------
 STRT.FT                3800 : START DEPTH
 STOP.FT               10654 : STOP DEPTH
 STEP.FT                 0.5 : STEP LENGTH
 NULL.               -999.25 : NULL VALUE
 UWI.         42389340250000 : UNIQUE WELL ID
 API.         42389340250000 : WELL IDENTIFIER
 COMP.                       : COMPANY
 WELL.  42389340250000_API14 : WELL NAME
 FLD.                        : FIELD NAME
 LOC.                        : WELL LOCATION
 CNTY.                       : COUNTY
 STAT.                       : STATE OR PROVINCE
 CTRY.                       : COUNTRY
 SRVC.                       : SERVICE COMPANY
 DATE.                       : DATE

~CURVE INFORMATION
#MNEM.UNIT       API CODE       CURVE DESCRIPTION
#---------       --------       -----------------
 DEPT.FT        : <MEASURED DEPTH>
 CAL.IN         : CALIPER
 DT.US/FT       : SONIC
 GR.GAPI        : GAMMA RAY

~PARAMETER INFORMATION
#MNEM.UNIT       VALUE       DESCRIPTION
#---------       -----       -----------
 EKB.FT      3120.5 : ELEVATION ABOVE MSL

~A      DEPT         CAL          DT          GR
# ...
        4210      9.7924     72.2969     58.2019
      4210.5      9.7924     72.0513       65.77
        4211      9.7924     71.8957     76.2833
      4211.5      9.7924      71.996      84.032
        4212      9.7924     72.0963     83.4404
      4212.5      9.7924      71.996     77.9977
        4213      9.7924     71.8217     64.5102
      4213.5      9.8124     71.5948     69.1656
        4214      9.8323     71.4945     72.9351
      4214.5      9.8323     71.3028     77.2366
        4215      9.8323     71.1936     85.2622
      4215.5      9.8323     71.3942       81.83
        4216      9.8323     71.4945     79.8177
      4216.5      9.8123     71.4802     78.8765
        4217      9.7712     71.1735     82.4989
      4217.5      9.7325     70.6921     90.8455
        4218      9.7325     70.3279     97.7394
      4218.5      9.7325     69.6516     98.2199
        4219      9.7325     69.3882     89.0518
      4219.5      9.7325     69.2879      79.895
        4220      9.7325     69.0873     75.2906
      4220.5      9.7325     68.4248     67.1626
        4221      9.7325     68.3852      63.824
      4221.5      9.7325      68.658       64.11
        4222      9.7325     69.1653      75.064
      4222.5      9.7325     69.5723     88.2165
        4223      9.7325     70.0796    107.6905
      4223.5      9.7325     70.8878     105.258
        4224      9.7499     71.0942    107.2827
      4224.5      9.7725     71.1936    105.4727
        4225      9.8124     71.0808    103.4245
      4225.5      9.8124      70.993     92.8775
        4226      9.7924     71.1174     82.4576
      4226.5      9.7924     71.3942     73.5851
        4227      9.7482     71.8668     65.9874
      4227.5      9.7325     73.0405     61.1778
        4228      9.7325     73.2469     58.8708
      4228.5      9.7603     73.6539     56.2729
        4229      9.8124     74.5624     49.6497
      4229.5      9.8124     75.0697     44.9729
        4230      9.9034     75.5065     46.7224
      4230.5      9.9122      75.984      47.886
        4231      9.9122     76.3089     45.8631
      4231.5      9.9122     75.9202     47.5858
        4232      9.9122     75.4129     50.3988
      4232.5      9.9122     74.7083     42.5298
        4233      9.9122     71.4895     57.0611
      4233.5      9.9122     71.3942     54.6499
        4234      9.9122     71.7116     49.5309
      4234.5      9.9106     72.1186     42.7881
        4235      9.8296     72.3972      45.158
      4235.5      9.7286     72.2969     41.8015
        4236      9.6327     72.2572     48.1609
      4236.5      9.6327     71.8957     45.6713
        4237      9.6128      71.996     43.1816
      4237.5      9.5928     71.8957     46.9841
        4238      9.5928     71.7954     42.7531
      4238.5      9.5928     71.7954     45.1805
        4239      9.5928     71.7954     47.6079
      4239.5      9.5928     71.5948     49.9812
        4240      9.5729     71.6951      52.004
      4240.5      9.5375     71.7954       48.84
        4241      9.5329     71.7954     46.8172
      4241.5      9.5329     71.8957     44.7944
        4242      9.5329     71.8957      48.154
      4242.5      9.5329     71.6803     52.9972
        4243      9.5329     71.4739     57.8403
      4243.5      9.5529     71.2939     56.2033
        4244      9.5529     71.4945     50.7419
      4244.5      9.5529     71.5948      48.771
        4245      9.5529     71.6386     47.4721
      4245.5      9.5529     72.0963     48.4573
        4246      9.5529      72.252     53.6307
      4246.5      9.5529     72.3581     54.1494
        4247      9.5329     72.7651     54.6681
      4247.5      9.5329      72.999     55.1868
        4248      9.5656     72.9772     51.1173
      4248.5      9.5867     73.0993     55.3994
        4249      9.5928       73.39     67.1499
      4249.5      9.5928     73.5049     60.4672
        4250      9.5928     73.0964     53.7845
      4250.5      9.6128     72.5149     47.1018
        4251      9.6324     73.1605     44.5154
      4251.5      9.6327     72.2969     48.1781
        4252      9.6327     72.4218     51.8407
      4252.5      9.6327     72.4975     50.8608
        4253      9.6327      72.634     48.9002
      4253.5      9.6273     73.0993     46.9396
        4254      9.5928     73.2474      44.979
      4254.5      9.5928     73.4002     48.7835
        4255      9.6128     73.4596     45.4491
      4255.5      9.6327     73.4454     48.1213
        4256      9.6838     73.3292     49.7688
      4256.5      9.7448     73.1996     47.8748
        4257      9.8059     73.0344      47.956
      4257.5      9.8124     72.4091     48.0372
        4258      9.8124     72.4914     48.1184
      4258.5      9.8124     72.3975     48.1996
        4259      9.8124     71.7899     54.4733
      4259.5      9.8124     71.1936     65.2617
        4260      9.8124     70.9759     64.6706
      4260.5      9.7924     70.5689     65.6591
        4261      9.8124     70.0616     66.6477
      4261.5      9.8124     69.7549     67.6362
        4262      9.8124     69.3479     63.2647
      4262.5      9.7924     69.0412     55.9655
        4263      9.7924     68.7864     55.9357
      4263.5      9.7725     68.7864     64.0434
        4264      9.8152     68.6595     72.1511
      4264.5      9.7595     68.5165     80.2588
        4265      9.7421     68.4104     80.5073
      4265.5      9.7229      68.466     77.6253
        4266      9.7102     69.3745     74.7433
      4266.5      9.7102     69.9742     71.8612
        4267      9.6954     71.0891      68.367
      4267.5      9.6856     71.8994     61.8317
        4268      9.6856     72.4975     61.9551
      4268.5      9.6856     73.7317     63.9181
        4269      9.6607     74.4243     65.8811
      4269.5       9.636     76.1621     67.8441
        4270      9.6204     77.1768      69.807
      4270.5      9.6117     77.7516       71.77
        4271      9.6117     77.8134      73.733
      4271.5      9.6117     77.1114     74.3589
        4272      9.6117     76.4536      57.865
      4272.5      9.6128      75.684     47.5632
        4273      9.6128     75.1381     52.2054
      4273.5      9.6128      73.026     56.8475
        4274      9.6454      72.239     61.4897
      4274.5      9.7463     71.6102     66.1318
        4275      9.7924     70.9023     70.7739
      4275.5      9.7924     69.4999     75.4161
        4276      9.7924     69.2839     77.7749
      4276.5      9.7924     68.8789     69.3724
        4277      9.7924     69.0873     71.5844
      4277.5      9.7924     69.2879     66.4495
        4278      9.8143     69.3882     74.6259
      4278.5      9.8354     69.4885     91.0975
        4279      9.8523     69.5252    107.5691
      4279.5      9.8523     69.6891    106.8535
        4280      9.8523     69.7894     93.4957
      4280.5      9.8523     69.7894     80.1378
        4281      9.8523     69.7894     72.4882
      4281.5      9.8523     69.4227     67.5393
        4282      9.8523     68.4715      63.196
      4282.5      9.8523     68.2619     58.8526
        4283      9.8857     68.2849     54.5093
      4283.5      9.9321     69.0645      50.166
        4284      9.9321     69.5832     47.8097
      4284.5      9.9321     69.9902     47.0459
        4285      9.9321     70.5095     45.2286
      4285.5      9.9122     71.8072     41.6942
        4286      9.9122     72.3145     38.1598
      4286.5      9.9122     73.1461     40.4561
        4287      9.8723     74.1607     46.4468
      4287.5      9.8523     74.7041     51.7853
        4288      9.8523     74.7041     40.7715
      4288.5      9.7863     74.5035     47.8161
        4289      9.7126     74.3508     53.8005
      4289.5      9.7126     74.1023     47.9033
        4290      9.7126     74.1023     52.5714
      4290.5      9.7126     74.1023     57.2394
        4291      9.7325     73.9017     53.3035
      4291.5      9.7725     73.9206     48.5421
