#--------------------------------------------------#
#-------------------ENVERUS, INC.------------------#
#------------------WWW.ENVERUS.COM-----------------#
#------------------COPYRIGHT 2020------------------#
#--------------------------------------------------#
#THIS FILE MAY BE USED ONLY IN ACCORDANCE WITH A CURRENT SUBSCRIPTION AGREEMENT BETWEEN
#THE USER AND ENVERUS, INC. NO PART OF THIS FILE MAY BE REPRODUCED, USED, COPIED,
#MODIFIED, PROPAGATED, OR DISTRIBUTED EXCEPT IN ACCORDANCE WITH THE SUBSCRIPTION
#AGREEMENT. UNAUTHORIZED USE OR DISTRIBUTION OF ALL OR ANY PART OF THIS FILE MAY VIOLATE
#COPYRIGHT, TRADEMARK, AND/OR OTHER LAWS AND IS SUBJECT TO CIVIL AS WELL AS CRIMINAL
#SANCTIONS.
#--------------------------------------------------#
#THIS FILE IS PROVIDED "AS-IS" AND ALL WARRANTIES ARE EXPRESSLY DISCLAIMED, WHETHER
#EXPRESS, ORAL, IMPLIED, STATUTORY OR OTHERWISE, INCLUDING ANY IMPLIED WARRANTY OF FITNESS
#FOR A PARTICULAR PURPOSE, MERCHANTABILITY, TITLE OR NON-INFRINGEMENT, AND ANY WARRANTIES
#ARISING BY VIRTUE OF CUSTOM OF TRADE OR COURSE OF DEALING.  FURTHER, ENVERUS, INC.
#AND ITS LICENSORS DO NOT REPRESENT OR WARRANT THAT THIS FILE WILL MEET USER'S
#REQUIREMENTS OR ARE SUITABLE FOR USER'S NEEDS OR THAT THE DATA OR RESULTS PROVIDED IN
#CONJUNCTION THEREWITH ARE CORRECT, ACCURATE, TIMELY OR RELIABLE. THESE DISCLAIMERS SHALL
#APPLY REGARDLESS OF ANY FAILURE OF ESSENTIAL PURPOSE OF ANY LIMITED REMEDY.  SOME
#JURISDICTIONS DO NOT ALLOW THE EXCLUSION OF CERTAIN WARRANTIES SO SOME OF THE ABOVE
#EXCLUSIONS MAY NOT APPLY. IN NO EVENT SHALL ENVERUS, INC. OR ANY OF ITS AFFILIATES
#BE LIABLE UNDER ANY LEGAL THEORY, WHETHER IN TORT (INCLUDING WITHOUT LIMITATION
#NEGLIGENCE), CONTRACT, STRICT LIABILITY, STATUTORY OR OTHERWISE, FOR ANY SPECIAL,
#INCIDENTAL, CONSEQUENTIAL, EXEMPLARY, PUNITIVE OR INDIRECT DAMAGE OF ANY KIND, INCLUDING
#WITHOUT LIMITATION LOSS OF REVENUE, PROFITS, GOODWILL, USE, AND/OR DATA OR THE COST OF
#PROCUREMENT OF SUBSTITUTE GOODS OR SERVICES, EVEN IF APPRISED OF THE POSSIBILITY OF SUCH
#DAMAGES IN ADVANCE.
#--------------------------------------------------#

~VERSION INFORMATION
VERS. 2.0 : CWLS LOG ASCII STANDARD - VERSION 2.0
WRAP.  NO : ONE LINE PER DEPTH STEP
~WELL INFORMATION
#MNEMONIC     .UNIT              VALUE :DESCRIPTION
STRT       .FT                0 :START DEPTH
STOP       .FT                13134 :STOP DEPTH
STEP       .FT                   0.500 :STEP
NULL       .                  -999.250 :NULL
UWI        .              42389303540000 :UNIQUE WELL ID
API        .              42389303540000 :API NUMBER
COMP       .         SMC OIL & GAS  INC. :COMPANY
WELL       .        TIFFANY STATE  1 :WELL
DATE       .                18-OCT-1995 :LOG DATE
~CURVE INFORMATION
#MNEMONIC     .UNIT      API CODE :CURVE DESCRIPTION
DEPTH       .FT                      :MEASURED DEPTH
DT.US/FT        UNKNOWN   :DT
CAL.INCH        UNKNOWN   :CAL
GR.API        UNKNOWN   :GR
~A    DEPTH    DT    CAL    GR
# ...
 7827     63.915   9.735   85.99
 7827.5     66.338   9.667   93.613
 7828     70.144   9.598   100.506
 7828.5     70.099   9.607   100.174
 7829     69.27   9.645   94.328
 7829.5     68.441   9.682   87.786
 7830     66.346   9.72   84.869
 7830.5     63.752   9.757   93.159
 7831     69.388   9.794   101.45
 7831.5     72.843   9.832   109.741
 7832     73.279   9.866   111.074
 7832.5     73.434   9.899   109.782
 7833     73.59   9.932   108.49
 7833.5     73.572   9.965   106.99
 7834     73.392   9.998   104.296
 7834.5     72.918   10.03   98.34
 7835     70.803   10.063   90.036
 7835.5     68.687   10.089   81.163
 7836     65.541   10.062   71.249
 7836.5     61.62   10.034   61.335
 7837     58.635   10.007   65.31
 7837.5     58.182   9.98   72.811
 7838     59.957   9.952   80.313
 7838.5     63.563   9.925   87.817
 7839     67.277   9.9   95.321
 7839.5     69.89   9.908   102.826
 7840     71.685   9.916   106.541
 7840.5     73.335   9.924   99.209
 7841     70.387   9.932   91.861
 7841.5     67.439   9.94   81.758
 7842     64.49   9.949   71.654
 7842.5     62.591   9.952   67.993
 7843     60.808   9.95   74.408
 7843.5     59.024   9.948   85.767
 7844     62.167   9.946   91.873
 7844.5     65.414   9.943   96.761
 7845     68.522   9.941   101.648
 7845.5     71.595   9.939   92.507
 7846     72.284   9.937   80.845
 7846.5     70.222   9.925   69.182
 7847     67.056   9.904   59.561
 7847.5     61.482   9.883   52.086
 7848     59.357   9.862   57.776
 7848.5     59.721   9.84   63.466
 7849     61.338   9.819   69.156
 7849.5     62.955   9.798   74.846
 7850     64.573   9.781   89.855
 7850.5     68.113   9.824   106.405
 7851     71.903   9.867   94.932
 7851.5     72.512   9.91   81.204
 7852     70.249   9.953   74.744
 7852.5     67.987   9.997   77.182
 7853     65.725   10.008   79.62
 7853.5     66.014   10.008   84.337
 7854     67.774   10.008   102.176
 7854.5     69.534   10.008   114.1
 7855     72.313   9.983   100.105
 7855.5     70.723   9.907   86.111
 7856     69.134   9.83   72.112
 7856.5     61.3   9.753   57.621
 7857     57.295   9.677   48.298
 7857.5     54.695   9.925   53.62
 7858     52.094   10.146   58.942
 7858.5     53.395   10.116   64.263
 7859     56.446   10.086   69.585
 7859.5     59.497   10.056   79.027
 7860     63.455   10.026   88.429
 7860.5     68.13   9.996   84.598
 7861     69.399   10.009   80.767
 7861.5     68.35   10.029   76.936
 7862     67.3   10.049   73.104
 7862.5     66.124   10.069   71.4
 7863     64.682   10.09   81.589
 7863.5     66.563   10.11   91.779
 7864     70.187   10.13   101.785
 7864.5     73.812   9.89   97.32
 7865     75.696   9.738   92.855
 7865.5     75.098   9.724   88.39
 7866     72.964   9.71   81.106
 7866.5     70.597   9.695   71.464
 7867     68.15   9.681   61.823
 7867.5     65.75   9.666   64.001
 7868     63.66   9.652   66.153
 7868.5     63.905   9.637   68.305
 7869     67.25   9.623   68.723
 7869.5     67.401   9.608   64.495
 7870     67.53   9.608   60.266
 7870.5     62.998   9.611   56.038
 7871     63.257   9.614   54.59
 7871.5     63.515   9.616   55.17
 7872     63.461   9.619   61.041
 7872.5     62.988   9.621   66.912
 7873     63.111   9.624   71.649
 7873.5     63.721   9.633   75.725
 7874     65.258   9.643   76.05
 7874.5     66.794   9.653   76.187
 7875     68.238   9.663   76.324
 7875.5     69.505   9.673   76.462
 7876     70.106   9.683   76.529
 7876.5     69.166   9.693   76.53
 7877     67.697   9.703   71.948
 7877.5     66.228   9.713   66.907
 7878     64.483   9.723   68.587
 7878.5     63.967   9.733   70.307
 7879     64.647   9.744   72.027
 7879.5     64.88   9.75   67.217
 7880     63.762   9.751   62.01
 7880.5     66.03   9.752   64.542
 7881     65.473   9.753   66.331
 7881.5     64.917   9.753   64.03
 7882     64.361   9.754   61.729
 7882.5     63.555   9.755   59.428
 7883     62.234   9.756   57.95
 7883.5     61.255   9.757   59.347
 7884     61.254   9.758   60.744
 7884.5     61.254   9.759   55.792
 7885     60.98   9.76   48.971
 7885.5     58.885   9.761   42.15
 7886     57.369   9.762   40.294
 7886.5     56.644   9.763   42.402
 7887     56.653   9.764   46.414
 7887.5     57.72   9.765   50.426
 7888     58.787   9.766   70.969
 7888.5     61.495   9.767   79.786
 7889     66.564   9.768   88.603
 7889.5     70.563   9.767   92.275
 7890     73.115   9.757   87.565
 7890.5     72.476   9.746   82.855
 7891     71.837   9.736   78.144
 7891.5     71.198   9.726   73.434
 7892     70.558   9.715   68.724
 7892.5     68.506   9.705   61.002
 7893     65.69   9.694   52.444
 7893.5     62.874   9.684   51.362
 7894     60.057   9.858   50.28
 7894.5     58.583   10.075   51.463
 7895     57.931   10.128   53.344
 7895.5     60.162   10.04   57.489
 7896     62.394   9.953   66.846
 7896.5     65.453   9.865   76.204
 7897     67.894   9.778   79.033
 7897.5     67.606   9.717   78.137
 7898     66.893   9.715   77.242
 7898.5     66.179   9.712   77.595
 7899     65.466   9.71   102.908
 7899.5     67.571   9.707   116.108
 7900     74.83   9.705   114.023
 7900.5     72.827   9.703   111.937
 7901     70.825   9.705   109.851
 7901.5     70.148   9.718   107.855
 7902     70.16   9.731   106.627
 7902.5     70.171   9.745   105.399
 7903     70.183   9.758   101.838
 7903.5     69.243   9.772   92.941
 7904     67.518   9.873   82.457
 7904.5     61.946   9.976   72.008
 7905     60.58   10.08   68.143
 7905.5     61.236   10.146   66.914
 7906     64.735   10.154   66.243
 7906.5     68.189   10.162   67.005
 7907     69.591   10.17   67.996
 7907.5     67.134   10.178   69.331
 7908     64.309   10.186   71.101
 7908.5     61.485   10.194   72.742
 7909     59.415   10.202   83.354
 7909.5     58.576   10.21   91.347
 7910     69.333   10.304   99.34
 7910.5     70.796   10.319   100.951
 7911     69.594   10.334   94.577
 7911.5     68.476   10.349   88.203
 7912     67.581   10.339   82.119
 7912.5     66.686   10.313   83.748
 7913     67.051   10.286   85.378
 7913.5     69.064   10.259   87.007
 7914     71.076   10.233   88.636
 7914.5     71.755   10.206   90.266
 7915     71.91   10.18   90.799
 7915.5     72.066   10.18   90.912
 7916     72.116   10.18   91.024
 7916.5     72.026   10.18   91.281
 7917     70.542   10.18   92.858
 7917.5     68.827   10.18   94.585
 7918     67.406   10.18   98.849
 7918.5     66.574   10.18   103.114
 7919     65.743   10.186   107.378
 7919.5     66.215   10.197   107.549
 7920     67.986   10.207   97.182
 7920.5     69.758   10.218   87.724
 7921     70.218   10.229   87.809
 7921.5     70.607   10.239   87.894
 7922     70.932   10.25   88.917
 7922.5     71.258   10.26   90.397
 7923     71.21   10.264   92.338
 7923.5     71.014   10.228   95.882
 7924     70.818   10.192   93.734
 7924.5     70.623   10.155   94.304
 7925     71.002   10.119   99.167
 7925.5     72.314   10.083   101.816
 7926     73.482   10.047   99.044
 7926.5     73.879   10.01   96.272
 7927     73.637   9.974   93.5
 7927.5     73.004   9.938   92.67
 7928     73.127   9.916   95.114
 7928.5     73.726   9.895   97.558
 7929     74.326   9.874   91.479
 7929.5     72.17   9.853   84.463
 7930     66.24   9.832   77.447
 7930.5     65.767   9.811   78.514
 7931     66.869   9.79   80.575
 7931.5     68.246   9.769   82.635
 7932     69.622   9.772   84.696
 7932.5     70.999   9.791   86.756
 7933     72.186   9.81   88.816
 7933.5     72.176   9.829   87.305
 7934     71.588   9.848   84.503
 7934.5     71   9.868   81.701
 7935     69.304   9.887   78.899
 7935.5     66.48   9.906   78.635
 7936     65.596   9.925   81.755
 7936.5     66.566   9.925   84.876
 7937     68.803   9.884   92.481
 7937.5     73.488   9.844   104.133
 7938     73.766   9.804   110.071
 7938.5     74.045   9.764   107.94
 7939     73.34   9.724   105.026
 7939.5     71.475   9.684   101.059
 7940     71.842   9.686   96.169
 7940.5     72.209   9.777   91.279
 7941     71.344   9.868   86.389
