#--------------------------------------------------#
#-------------------ENVERUS, INC.------------------#
#------------------WWW.ENVERUS.COM-----------------#
#------------------COPYRIGHT 2020------------------#
#--------------------------------------------------#
#THIS FILE MAY BE USED ONLY IN ACCORDANCE WITH A CURRENT SUBSCRIPTION AGREEMENT BETWEEN
#THE USER AND ENVERUS, INC. NO PART OF THIS FILE MAY BE REPRODUCED, USED, COPIED,
#MODIFIED, PROPAGATED, OR DISTRIBUTED EXCEPT IN ACCORDANCE WITH THE SUBSCRIPTION
#AGREEMENT. UNAUTHORIZED USE OR DISTRIBUTION OF ALL OR ANY PART OF THIS FILE MAY VIOLATE
#COPYRIGHT, TRADEMARK, AND/OR OTHER LAWS AND IS SUBJECT TO CIVIL AS WELL AS CRIMINAL
#SANCTIONS.
#--------------------------------------------------#
#THIS FILE IS PROVIDED "AS-IS" AND ALL WARRANTIES ARE EXPRESSLY DISCLAIMED, WHETHER
#EXPRESS, ORAL, IMPLIED, STATUTORY OR OTHERWISE, INCLUDING ANY IMPLIED WARRANTY OF FITNESS
#FOR A PARTICULAR PURPOSE, MERCHANTABILITY, TITLE OR NON-INFRINGEMENT, AND ANY WARRANTIES
#ARISING BY VIRTUE OF CUSTOM OF TRADE OR COURSE OF DEALING.  FURTHER, ENVERUS, INC.
#AND ITS LICENSORS DO NOT REPRESENT OR WARRANT THAT THIS FILE WILL MEET USER'S
#REQUIREMENTS OR ARE SUITABLE FOR USER'S NEEDS OR THAT THE DATA OR RESULTS PROVIDED IN
#CONJUNCTION THEREWITH ARE CORRECT, ACCURATE, TIMELY OR RELIABLE. THESE DISCLAIMERS SHALL
#APPLY REGARDLESS OF ANY FAILURE OF ESSENTIAL PURPOSE OF ANY LIMITED REMEDY.  SOME
#JURISDICTIONS DO NOT ALLOW THE EXCLUSION OF CERTAIN WARRANTIES SO SOME OF THE ABOVE
#EXCLUSIONS MAY NOT APPLY. IN NO EVENT SHALL ENVERUS, INC. OR ANY OF ITS AFFILIATES
#BE LIABLE UNDER ANY LEGAL THEORY, WHETHER IN TORT (INCLUDING WITHOUT LIMITATION
#NEGLIGENCE), CONTRACT, STRICT LIABILITY, STATUTORY OR OTHERWISE, FOR ANY SPECIAL,
#INCIDENTAL, CONSEQUENTIAL, EXEMPLARY, PUNITIVE OR INDIRECT DAMAGE OF ANY KIND, INCLUDING
#WITHOUT LIMITATION LOSS OF REVENUE, PROFITS, GOODWILL, USE, AND/OR DATA OR THE COST OF
#PROCUREMENT OF SUBSTITUTE GOODS OR SERVICES, EVEN IF APPRISED OF THE POSSIBILITY OF SUCH
#DAMAGES IN ADVANCE.
#--------------------------------------------------#

~VERSION INFORMATION
VERS. 2.0 : CWLS LOG ASCII STANDARD - VERSION 2.0
WRAP.  NO : ONE LINE PER DEPTH STEP
~WELL INFORMATION
#MNEMONIC     .UNIT              VALUE :DESCRIPTION
STRT       .FT                145 :START DEPTH
STOP       .FT                15608 :STOP DEPTH
STEP       .FT                   0.500 :STEP
NULL       .                  -999.250 :NULL
UWI        .              42389304120000 :UNIQUE WELL ID
API        .              42389304120000 :API NUMBER
COMP       .         BTA OIL PRODUCERS :COMPANY
WELL       .        7607 JV-P ORLA  1 :WELL
DATE       .                            :LOG DATE
~CURVE INFORMATION
#MNEMONIC     .UNIT      API CODE :CURVE DESCRIPTION
DEPTH       .FT                      :MEASURED DEPTH
DT.US/FT        UNKNOWN   :DT
CAL.INCH        UNKNOWN   :CAL
GR.API        UNKNOWN   :GR
~A    DEPTH    DT    CAL    GR
# ...
 14629.5     88.924   11.153   75.94
 14630     88.028   10.934   77.032
 14630.5     89.153   10.894   78.104
 14631     90.057   11.083   79.038
 14631.5     90.576   11.207   79.795
 14632     91.433   11.136   80.354
 14632.5     90.019   11.086   80.912
 14633     87.774   11.151   81.659
 14633.5     85.924   11.191   83.418
 14634     85.084   11.021   82.751
 14634.5     85.084   10.879   81.496
 14635     89.391   10.892   83.188
 14635.5     90.298   10.905   84.162
 14636     88.91   10.81   84.162
 14636.5     87.927   10.645   79.959
 14637     87.717   10.772   75.741
 14637.5     82.827   11.026   72.907
 14638     82.762   10.845   73.509
 14638.5     86.813   10.928   74.111
 14639     88.927   11.061   75.783
 14639.5     90.645   11.082   80.948
 14640     90.618   11.257   79.241
 14640.5     89.177   11.539   77.534
 14641     87.355   11.381   76.156
 14641.5     86.581   11.223   76.3
 14642     89.104   11.065   76.395
 14642.5     91.627   10.996   75.292
 14643     87.836   11.003   75.057
 14643.5     87.898   11.009   76.369
 14644     86.797   11.28   78.037
 14644.5     87.668   11.222   79.848
 14645     87.668   10.939   78.662
 14645.5     87.668   10.941   76.889
 14646     87.188   10.956   75.117
 14646.5     85.586   10.922   74.132
 14647     85.784   10.87   73.485
 14647.5     87.537   10.855   73.447
 14648     88.782   10.879   74.759
 14648.5     89.208   10.947   76.977
 14649     88.294   11.075   80.408
 14649.5     87.095   11.05   78.903
 14650     87.456   11.029   76.221
 14650.5     89.667   11.071   80.349
 14651     89.668   11.112   80.891
 14651.5     89.486   11.104   78.526
 14652     88.403   11.075   76.16
 14652.5     88.994   11.118   74.726
 14653     88.201   11.236   75.16
 14653.5     87.543   11.125   75.594
 14654     86.845   11.015   75.622
 14654.5     86.348   10.981   75.223
 14655     87.253   11.028   74.825
 14655.5     87.254   11.091   75.78
 14656     87.481   11.186   78.885
 14656.5     87.744   11.115   76.499
 14657     87.119   11.044   74.08
 14657.5     88.012   11.015   75.715
 14658     88.194   11   78.214
 14658.5     88.556   10.997   79.526
 14659     87.694   11.008   80.838
 14659.5     88.201   10.965   82.022
 14660     87.23   10.916   82.974
 14660.5     90.828   10.862   83.926
 14661     89.603   10.785   81.943
 14661.5     88.909   10.802   79.243
 14662     89.352   10.829   79.802
 14662.5     88.908   10.872   80.137
 14663     89.577   10.928   79.275
 14663.5     90.545   10.976   75.742
 14664     89.765   10.976   74.076
 14664.5     88.424   10.976   72.41
 14665     89.757   10.989   72.907
 14665.5     90.991   11.012   73.888
 14666     91.732   11.035   74.869
 14666.5     92.117   10.765   69.241
 14667     91.96   10.75   68.617
 14667.5     91.086   10.872   70.279
 14668     91.606   10.807   72.258
 14668.5     92.043   10.674   74.236
 14669     90.328   10.515   74.118
 14669.5     91.92   10.566   72.043
 14670     90.65   10.679   71.598
 14670.5     89.497   10.716   72.324
 14671     91.707   10.742   73.091
 14671.5     89.656   10.768   73.907
 14672     87.891   10.785   71.535
 14672.5     87.297   10.798   66.696
 14673     82.729   10.816   64.536
 14673.5     83.713   10.766   64.276
 14674     82.854   10.552   63.642
 14674.5     81.994   10.337   61.552
 14675     81.733   10.488   59.461
 14675.5     83.765   10.914   62.941
 14676     81.818   10.566   71.084
 14676.5     81.661   10.243   74.503
 14677     80.55   10.206   73.798
 14677.5     78.716   10.169   73.093
 14678     76.914   10.134   76.934
 14678.5     75.535   10.1   81.262
 14679     74.157   10.065   80.382
 14679.5     72.488   10.081   78.698
 14680     71.462   10.099   78.762
 14680.5     72.704   10.118   81.729
 14681     73.218   10.129   80.021
 14681.5     72.781   10.123   78.241
 14682     76.909   10.117   76.322
 14682.5     80.025   10.112   75.184
 14683     81.906   10.106   75.184
 14683.5     82.636   10.1   74.704
 14684     82.075   10.168   74.058
 14684.5     82.876   10.347   73.411
 14685     84.919   10.463   72.765
 14685.5     85.585   10.47   72.118
 14686     84.709   10.476   73.074
 14686.5     85.22   10.462   74.093
 14687     83.687   10.447   75.111
 14687.5     84.599   10.489   76.13
 14688     82.904   10.445   77.907
 14688.5     81.525   10.307   79.576
 14689     82.256   10.168   76.761
 14689.5     80.622   10.16   74.215
 14690     81.455   10.202   73.11
 14690.5     81.962   10.243   74.091
 14691     85.369   10.285   75.073
 14691.5     83.485   10.327   74.537
 14692     81.471   10.368   72.889
 14692.5     81.771   10.41   73.876
 14693     80.889   10.404   74.996
 14693.5     83.698   10.365   75.517
 14694     85.793   10.405   76.039
 14694.5     88.601   10.525   72.41
 14695     91.282   10.577   68.185
 14695.5     90.477   10.466   65.237
 14696     88.287   10.404   68.569
 14696.5     85.822   10.531   71.901
 14697     85.789   10.658   70.761
 14697.5     88.804   10.735   68.842
 14698     86.552   10.621   67.833
 14698.5     84.3   10.508   67.995
 14699     85.775   10.394   68.847
 14699.5     82.538   10.281   70.294
 14700     80.291   10.246   71.734
 14700.5     79.02   10.28   73.148
 14701     77.233   10.313   74.562
 14701.5     74.878   10.346   75.456
 14702     76.218   10.315   72.909
 14702.5     77.472   10.233   70.362
 14703     80.443   10.152   71.363
 14703.5     83.309   10.175   73.845
 14704     79.338   10.296   74.244
 14704.5     82.83   10.335   74.244
 14705     79.355   10.279   74.244
 14705.5     75.88   10.223   76.955
 14706     76.886   10.167   79.623
 14706.5     77.961   10.16   75.035
 14707     75.44   10.185   70.341
 14707.5     76.952   10.209   70.511
 14708     75.811   10.233   71.21
 14708.5     77.198   10.257   74.542
 14709     75.889   10.428   75.785
 14709.5     74.579   10.47   75.785
 14710     76.121   10.462   75.785
 14710.5     78.641   10.454   77.06
 14711     80.589   10.446   78.624
 14711.5     78.297   10.443   78.786
 14712     77.019   10.443   78.592
 14712.5     77.226   10.443   77.995
 14713     83.123   10.476   77.397
 14713.5     86.241   10.532   76.849
 14714     89.753   10.655   76.386
 14714.5     93.266   10.841   75.923
 14715     92.992   11.023   75.53
 14715.5     91.375   11.023   77.844
 14716     89.576   11.023   80.158
 14716.5     90.211   10.977   81.586
 14717     91.123   10.93   79.908
 14717.5     92.437   10.972   78.231
 14718     93.911   11.007   77.044
 14718.5     93.929   10.881   80.787
 14719     92.924   10.757   83.65
 14719.5     91.225   10.726   86.452
 14720     90.231   10.777   84.408
 14720.5     90.669   10.94   81.445
 14721     93.403   10.904   81.553
 14721.5     92.576   10.783   83.308
 14722     90.898   11.044   85.064
 14722.5     88.088   11.25   86.819
 14723     91.138   11.159   86.532
 14723.5     93.093   11.173   83.517
 14724     95.048   11.217   82.858
 14724.5     96.696   11.183   84.741
 14725     96.75   11.085   84.266
 14725.5     94.742   10.988   83.343
 14726     91.462   10.952   82.421
 14726.5     88.353   11.041   79.498
 14727     89.369   11.068   75.517
 14727.5     92.202   10.938   74.514
 14728     94.628   10.808   73.634
 14728.5     92.888   10.99   73.894
 14729     90.679   11.175   72.86
 14729.5     90.21   11.093   71.701
 14730     88.902   11.034   72.884
 14730.5     91.18   10.997   76.291
 14731     93.399   11.177   77.581
 14731.5     92.629   11.417   76.039
 14732     92.608   11.658   74.538
 14732.5     92.608   11.7   74.781
 14733     90.337   11.609   75.025
 14733.5     90.668   11.518   75.269
 14734     90.147   11.465   75.231
 14734.5     89.626   11.457   74.228
 14735     91.245   11.449   73.348
 14735.5     91.626   11.441   74.132
 14736     92.462   11.417   74.916
 14736.5     94.558   11.405   75.146
 14737     94.548   11.595   75.146
 14737.5     92.179   11.786   72.929
 14738     90.967   11.515   69.016
