#--------------------------------------------------#
#-------------------ENVERUS, INC.------------------#
#------------------WWW.ENVERUS.COM-----------------#
#------------------COPYRIGHT 2020------------------#
#--------------------------------------------------#
#THIS FILE MAY BE USED ONLY IN ACCORDANCE WITH A CURRENT SUBSCRIPTION AGREEMENT BETWEEN
#THE USER AND ENVERUS, INC. NO PART OF THIS FILE MAY BE REPRODUCED, USED, COPIED,
#MODIFIED, PROPAGATED, OR DISTRIBUTED EXCEPT IN ACCORDANCE WITH THE SUBSCRIPTION
#AGREEMENT. UNAUTHORIZED USE OR DISTRIBUTION OF ALL OR ANY PART OF THIS FILE MAY VIOLATE
#COPYRIGHT, TRADEMARK, AND/OR OTHER LAWS AND IS SUBJECT TO CIVIL AS WELL AS CRIMINAL
#SANCTIONS.
#--------------------------------------------------#
#THIS FILE IS PROVIDED "AS-IS" AND ALL WARRANTIES ARE EXPRESSLY DISCLAIMED, WHETHER
#EXPRESS, ORAL, IMPLIED, STATUTORY OR OTHERWISE, INCLUDING ANY IMPLIED WARRANTY OF FITNESS
#FOR A PARTICULAR PURPOSE, MERCHANTABILITY, TITLE OR NON-INFRINGEMENT, AND ANY WARRANTIES
#ARISING BY VIRTUE OF CUSTOM OF TRADE OR COURSE OF DEALING.  FURTHER, ENVERUS, INC.
#AND ITS LICENSORS DO NOT REPRESENT OR WARRANT THAT THIS FILE WILL MEET USER'S
#REQUIREMENTS OR ARE SUITABLE FOR USER'S NEEDS OR THAT THE DATA OR RESULTS PROVIDED IN
#CONJUNCTION THEREWITH ARE CORRECT, ACCURATE, TIMELY OR RELIABLE. THESE DISCLAIMERS SHALL
#APPLY REGARDLESS OF ANY FAILURE OF ESSENTIAL PURPOSE OF ANY LIMITED REMEDY.  SOME
#JURISDICTIONS DO NOT ALLOW THE EXCLUSION OF CERTAIN WARRANTIES SO SOME OF THE ABOVE
#EXCLUSIONS MAY NOT APPLY. IN NO EVENT SHALL ENVERUS, INC. OR ANY OF ITS AFFILIATES
#BE LIABLE UNDER ANY LEGAL THEORY, WHETHER IN TORT (INCLUDING WITHOUT LIMITATION
#NEGLIGENCE), CONTRACT, STRICT LIABILITY, STATUTORY OR OTHERWISE, FOR ANY SPECIAL,
#INCIDENTAL, CONSEQUENTIAL, EXEMPLARY, PUNITIVE OR INDIRECT DAMAGE OF ANY KIND, INCLUDING
#WITHOUT LIMITATION LOSS OF REVENUE, PROFITS, GOODWILL, USE, AND/OR DATA OR THE COST OF
#PROCUREMENT OF SUBSTITUTE GOODS OR SERVICES, EVEN IF APPRISED OF THE POSSIBILITY OF SUCH
#DAMAGES IN ADVANCE.
#--------------------------------------------------#

# EXPORTED FROM TRANSFORM SOFTWARE 5.2.0 ON 31-MAY-2019 BY USER BRIAN.UMLANG
# DI TRANSFORM - A PRODUCT OF DRILLINGINFO, INC. - WWW.DRILLINGINFO.COM
#
~VERSION INFORMATION
 VERS.        2.0 : LAS ASCII STANDARD - VERSION 2.0
 WRAP.         NO : ONE LINE PER DEPTH STEP

~WELL INFORMATION
#MNEM.UNIT       DATA TYPE       INFORMATION
#---------       ---------       -----------
 STRT.FT                 256 : START DEPTH
 STOP.FT                4706 : STOP DEPTH
 STEP.FT                 0.5 : STEP LENGTH
 NULL.               -999.25 : NULL VALUE
 UWI.         42301312890000 : UNIQUE WELL ID
 API.         42301312890000 : WELL IDENTIFIER
 COMP.                       : COMPANY
 WELL.  42301312890000_API14 : WELL NAME
 FLD.                        : FIELD NAME
 LOC.                        : WELL LOCATION
 CNTY.                       : COUNTY
 STAT.                       : STATE OR PROVINCE
 CTRY.                       : COUNTRY
 SRVC.                       : SERVICE COMPANY
 DATE.                       : DATE

~CURVE INFORMATION
#MNEM.UNIT       API CODE       CURVE DESCRIPTION
#---------       --------       -----------------
 DEPT.FT          : <MEASURED DEPTH>
 CAL.IN           : CALIPER
 DPHI.%           : DENSITY POROSITY
 DT.US/FT         : SONIC
 GR.GAPI          : GAMMA RAY
 ILD.OHMM         : DEEP RESISTIVITY
 ILS.OHMM         : SHALLOW RESISTIVITY
 NPHI.%           : NEUTRON POROSITY
 PE.B/ELEC        : PHOTOELECTRIC FACTOR
 RHOB.G/CM3       : DENSITY

~PARAMETER INFORMATION
#MNEM.UNIT       VALUE       DESCRIPTION
#---------       -----       -----------
 EKB.FT      2822 : ELEVATION ABOVE MSL

~A      DEPT         CAL        DPHI          DT          GR         ILD         ILS        NPHI          PE        RHOB
# ...
        4343         8.3      5.0271     57.9707     67.3404    122.7646     73.5993      7.2334      3.3217      2.6289
      4343.5         8.3      4.7043     58.1674     66.7735    107.3239     64.6738      7.7455      3.5268      2.6326
        4344         8.3      4.0496      57.714      63.729    110.4149     65.1106      7.7867      3.6644       2.639
      4344.5        8.32      2.5433     56.7283     57.3988    122.0252      72.798      7.3967      3.8064      2.6609
        4345        8.32      1.7537     55.8053     53.2002    148.5424     83.6875      7.0096      3.9123      2.6799
      4345.5        8.32      1.5027     55.1178     52.0958    163.2157     89.5672      6.8209      4.1595      2.6819
        4346        8.32      1.6618     55.2285     52.5187    166.9395     89.2651      6.9235      4.2584      2.6816
      4346.5        8.34      2.3182     55.8113     58.5856    157.0276     81.3321      7.5992      4.3361      2.6742
        4347        8.38      2.9908     56.7907     66.4588    132.5803     68.2954      8.7673      4.2487      2.6627
      4347.5      8.3832      3.8084     58.7428     74.4417     98.0296     50.9117      9.8628      4.0858      2.6516
        4348      8.4244       4.554      59.098     79.5076     72.0542     36.3743     10.6874      3.8502      2.6302
      4348.5        8.48      6.2729     63.2786     81.7365     46.2329      25.342     11.4691      3.3895      2.6122
        4349      8.5669      8.0188     66.0897     80.9481     27.7676     15.6198     12.1998      3.0532      2.6084
      4349.5      8.6919      9.9097     68.5179     81.0458     19.1033     11.2402     13.7798      2.8993      2.5902
        4350        8.62     10.8055     70.1282     82.2613     14.0116      9.2659     14.2965      2.7977      2.5239
      4350.5        8.58      11.788      71.186      85.666     11.2679      7.7009     15.2125      2.6854      2.5155
        4351        8.58     12.3029     71.5877     86.8263     10.2628      6.8266     15.7896      2.6854      2.5099
      4351.5        8.58     12.5868     71.9184     84.6115      9.3465      6.3953      16.071      2.6453      2.5051
        4352        8.58      13.054     72.3247     81.2965        8.76      6.1654      16.418      2.6321      2.4928
      4352.5        8.58     13.8101     72.9697     79.9401      8.2064      5.7176     17.1511      2.6052      2.4829
        4353      8.6167     14.7255     73.4981     80.2395      7.7726      5.5166      18.046      2.5852      2.4743
      4353.5        8.62     15.1332      73.786     81.1377      7.5756      5.3047     18.4909      2.5651      2.4678
        4354        8.62     15.1556     73.6726     81.1377      7.6816       5.379     18.5815      2.5651      2.4653
      4354.5        8.62     14.6521      72.641     80.4521      8.2656      5.6878      17.766      2.5651      2.4715
        4355        8.66     13.6689     71.5636     78.6379      9.1912      6.1654     16.7848      2.5852      2.4839
      4355.5        8.66     12.5786     70.6685     78.1437       9.745      6.7269     15.7381      2.6453      2.4964
        4356        8.66     11.9766     70.1456     78.5835      11.307      7.2413     14.7478      2.6453      2.5131
      4356.5         8.7     11.6448     69.8632     79.4996     12.2382      7.5943     14.2443      2.6453      2.5189
        4357        8.72     11.5879     69.8196     81.3139      13.069      7.9977     14.4455      2.6453      2.5216
      4357.5      8.7485     11.5879     69.7393     85.1712     14.5624      8.7387     15.3901      2.6532      2.5226
        4358        8.74     11.3441     69.4108      89.339     17.0677      9.4422     16.2071      2.6946      2.5246
      4358.5        8.74     10.4494     68.6219     95.5298     19.8196     10.7175     16.9384      2.7561      2.5352
        4359        8.74      9.2853     68.2565    101.7131     22.8029     12.0944     18.0023      2.8056      2.5551
      4359.5        8.76      7.7551     68.6247    107.1348     24.2961     12.6731     19.6815      2.8457      2.5749
        4360        8.78      6.9601     69.3019    107.1856      24.981     12.9624     19.8628      2.9058      2.5892
      4360.5        8.78       6.936     69.7162    103.1373     24.1403     12.6019      18.107      2.9459      2.5934
        4361         8.8      7.6333     69.8066     98.0046     23.0052     11.8056     16.4013      2.9659      2.5894
      4361.5        8.82      8.3112     69.5769      97.006      21.778     11.3713     15.9986      2.9659       2.579
        4362        8.86      8.4799     69.4756     99.8115     21.3402     10.9531     16.7703       2.985      2.5747
      4362.5         8.9      8.2284     69.6007    102.4685      21.544     11.1587     17.3338      2.9659      2.5748
        4363         8.9      7.4297     69.3581     102.994     22.5749     11.4779     17.4044      2.9032      2.5823
      4363.5         8.9      7.1953     68.8513    102.2861     22.7703      11.685     17.1081      2.8417      2.5897
        4364      8.9439      7.3846     68.4008     99.1929     22.5602     11.5603     16.6838      2.8257      2.5939
      4364.5           9      8.6059     68.2022     93.8818     20.6778      10.533     16.1583      2.8657      2.5831
        4365           9     10.3738     68.5462     87.3049     17.9799      9.3444      15.835      2.8657      2.5586
      4365.5           9     11.6769     69.3513     80.7172     15.1469      8.0602     15.7545      2.8257      2.5293
        4366           9     12.3189     69.9834     77.3465     12.6245       6.956     15.8214      2.7549      2.5138
      4366.5        9.05      12.549     70.9911     77.7612     11.1812      6.1902     16.3213      2.6854      2.5098
        4367         9.1     12.9119      71.756     81.0073     10.2782      5.5462     17.4725      2.6854      2.5055
      4367.5      9.1325     13.5602      72.582     84.9826      9.4076      5.2476     18.5121      2.6854      2.4952
        4368        9.14     14.5588      73.279     85.6582      8.3297      4.5607     19.3301      2.6653      2.4811
      4368.5        9.14     15.8339     74.3922     81.1842      6.9059      3.8238     19.4567      2.6279      2.4644
        4369        9.14     17.1338     75.7287     73.3002      5.4577      3.2009      19.497      2.5852       2.445
      4369.5        9.14     18.0166     77.0824     65.2453      4.3128      2.3655     19.5405      2.5251      2.4327
        4370        9.14     18.6931     77.6702     60.3531      3.6125      2.2313     19.7441       2.505      2.4225
      4370.5        9.14     18.9272      77.908     58.0838      3.4158      2.0903     19.6579       2.485      2.4107
        4371        9.14     18.6128     77.6216     58.3832      3.4074      2.1046     19.5268       2.485       2.407
      4371.5        9.14     18.0433     76.9853     58.6826      3.5574      2.2419     19.2765       2.485      2.4111
        4372        9.14     17.8191     76.5666     58.6826      3.7037      2.3492     18.8629       2.505      2.4177
      4372.5        9.14     18.5307     76.4957     58.3832       3.773      2.3521     18.6371      2.5451      2.4196
        4373        9.14     19.5954     77.2731     58.3832      3.6036      2.3521      19.698      2.5651      2.4097
      4373.5        9.14     19.8693     78.7927     58.3832      3.4073      2.2875     20.0023      2.6052      2.3898
        4374        9.14     20.2854     79.4304     58.3832      3.1626      2.1233     20.3438      2.6052      2.3823
      4374.5        9.14     20.1923     79.5767     58.3832      3.0772      2.0659     21.1553      2.6052      2.3825
        4375        9.14     19.5251     78.9723     58.3832      3.0772      2.0685     21.5895      2.5852       2.389
      4375.5        9.14     19.2222     77.8496     57.7844      3.1058      2.0852     21.3082      2.5651      2.3943
        4376        9.14      19.236     77.1324      57.485      3.1058      2.0852     20.5894      2.5651      2.3973
