###############################################
##         ENVERUS                           ##
##         ESS - Open Hole                   ##
##         PERMIAN / DELAWARE                ##
##         Nov 04 2023  V4.0                 ##
##         42-389-32421-01-00                ##
###############################################
## Copyright 2017-2023  ENVERUS.  All Rights Reserved. 
## Confidential - Property of ENVERUS, use governed by terms and 
## conditions found within the existing Information Services Subscription Agreement 
## (as may be amended, the “ISSA”) between Customer and ENVERUS. 
## 
~VERSION INFORMATION
# MNEM.UNIT                               DATA : DESCRIPTION OF MNEMONIC
#-----.-----     ----------------------------- : -----------------------------
VERS.                                     2.00 : CWLS LOG ASCII STANDARD - VERSION 2.00
WRAP.                                       NO : MULTIPLE LINES PER DEPTH STEP
VEND.                                  ENVERUS : VENDOR
TYPE.                          ESS - OPEN HOLE : ENVERUS ESSENTIAL CURVES – ACCESSIBLE THROUGH ENVERUS PRISM(TM)
DOC.                                  51227099 : ENVERUS HEADER RAW DOCUMENT ID
#___________________________________________________________________________________________________ 
~WELL INFORMATION 
# zrraAS4ibxVPgm4F4FjILRFQbgMcjf5VKWH9QXz9oP+5l3DBeEvHFHP9dTNjNwXm2+WMaTXZz7qhRLDoyN0AVg== 
# MNEM.UNIT                                              DATA : DESCRIPTION OF MNEMONIC 
#-----.-----                    ----------------------------- : ----------------------------- 
CNTY.                                                  REEVES : COUNTY 
STATE.                                                  TEXAS : STATE 
CNTRY.                                                    USA : COUNTRY 
API.                                             42-389-32421 : API (10 Digit) 
API_14.                                    42-389-32421-01-00 : API (14 Digits) 
API_14_std.                                 42-389-32421-0100 : API (14 Digits Standard) 
UWI.                                           42389324210100 : UNIQUE WELL ID 
WELL.                                      ARMSTRONG STATE #1 : WELL NAME
STRT.FT                                                2000.0 : START DEPTH
STOP.FT                                               14700.0 : STOP DEPTH
STEP.FT                                                   0.5 : STEP BETWEEN DEPTHS
NULL.                                                 -999.25 : NULL VALUE
COMP.                                   BULLDOG OPERATING CO. : COMPANY 
FLD.                                                  WILDCAT : FIELD 
LOC.                                                3-59-2778 : LOCATION 
SRVC.                                            SCHLUMBERGER : SERVICE COMPANY 
DATE.                                              08/28/2006 : DATE 
PREV_APII.                                       423893242100 : API NUMBER 
PREV_UWI.                                        423893242100 : UWI NUMBER 
TVD.                                                       NO : TVD FLAG
#___________________________________________________________________________________________________ 
~PARAMETER INFORMATION 
# MNEM.UNIT                                              DATA : DESCRIPTION OF MNEMONIC 
#-----.-----                    ----------------------------- : ----------------------------- 
RUN.                                                      ONE : RUN NUMBER 
PDAT.                                                      GL : PERMANENT DATUM 
EPD.FT                                              3134.8000 : ELEVATION OF PERM. DATUM 
LMF.                                            KELLY BUSHING : LOG MEASURED FROM 
EKB.FT                                              3157.8000 : ELEVATION OF KELLY BUSHING 
DF.FT                                               3156.8000 : ELEVATION OF DERRICK FLOOR 
GL.FT                                               3134.8000 : ELEVATION OF GROUND LEVEL 
TD.FT                                              14700.0000 : TOTAL DEPTH 
BHT.DEGF                                               230.00 : BOTTOM HOLE TEMPERATURE 
BLI.FT                                             14700.0000 : BOTTOM LOG INTERVAL 
CSGSIZE.IN                                             9.6250 : CASING SIZE 
BITSIZE.IN                                              8.750 : BITSIZE 
CSGD.FT                                                  2014 : CASING BOTTOM (DRILLER) 1 
CSGL.FT                                                  2014 : CASING BOTTOM (LOGGER) 1 
MUD.                                                    BRINE : DRILLING FLUID TYPE 
MUDV.CP                                               31.0000 : DRILLING FLUID VISCOSITY 
MUDD.LB/USG                                            9.3000 : DRILLING FLUID DENSITY 
FL.ML/30MIN                                           13.0000 : DRILLING FLUID LOSS 
PH.                                                   10.0000 : DRILLING FLUID PH 
MUDS.                                        CIRCULATION TANK : MUD SAMPLE SOURCE 
RM.OHMM                                                0.0540 : RESISTIVITY OF MUD SAMPLE 
RMT.DEGF                                              90.0000 : MUD SAMPLE TEMPERATURE 
RMF.OHMM                                               0.0640 : MUD FILTRATE RESISTIVITY 
RMFT.DEGF                                             80.0000 : MUD FILTRATE SAMPLE TEMPERATURE
#___________________________________________________________________________________________________ 
~CURVE INFORMATION 
# MNEM.UNIT           : CURVE DESCRIPTION 
#-----.-----          : ----------------------------- 
 DEPT.FT               : MEASURED DEPTH 
 DT.US/FT              : SONIC DELTA TRANSIT TIME (DELTA T) 
 SPHI.V/V              : SONIC POROSITY (SONIC POROSITY) 
 #___________________________________________________________________________________________________ 
~A         DEPT             DT           SPHI
# ...
        11222.0         70.497        0.16800
        11222.5         70.857        0.17100
        11223.0         71.288        0.17300
        11223.5         71.019        0.17200
        11224.0         70.684        0.17100
        11224.5         69.712        0.16600
        11225.0         67.783        0.15100
        11225.5         65.855        0.13700
        11226.0         65.855        0.13600
        11226.5         67.264        0.14600
        11227.0         68.672        0.16300
        11227.5         71.019        0.18100
        11228.0         73.954        0.20200
        11228.5         75.664        0.20700
        11229.0         75.513        0.20500
        11229.5         75.168        0.20200
        11230.0         74.737        0.19900
        11230.5         74.306        0.19700
        11231.0         74.306        0.19700
        11231.5         74.050        0.19600
        11232.0         73.730        0.19300
        11232.5         73.410        0.19000
        11233.0         73.089        0.18900
        11233.5         72.581        0.18700
        11234.0         71.803        0.18300
        11234.5         71.011        0.17600
        11235.0         69.483        0.16800
        11235.5         67.341        0.15900
        11236.0         65.010        0.13700
        11236.5         62.677        0.11400
        11237.0         60.803        0.10200
        11237.5         62.845        0.12500
        11238.0         66.515        0.15300
        11238.5         70.148        0.18100
        11239.0         74.507        0.19600
        11239.5         75.111        0.20100
        11240.0         73.853        0.19200
        11240.5         72.596        0.18400
        11241.0         71.489        0.17300
        11241.5         70.483        0.16900
        11242.0         69.678        0.16600
        11242.5         69.728        0.16400
        11243.0         69.770        0.16300
        11243.5         69.812        0.16300
        11244.0         69.854        0.16400
        11244.5         69.448        0.16400
        11245.0         68.370        0.15500
        11245.5         67.292        0.14900
        11246.0         63.491        0.11800
        11246.5         57.874        0.08600
        11247.0         53.380        0.03500
        11247.5         52.173        0.04400
        11248.0         54.688        0.06700
        11248.5         58.187        0.08900
        11249.0         63.161        0.12400
        11249.5         68.069        0.16800
        11250.0         74.040        0.18900
        11250.5         73.920        0.19600
        11251.0         73.525        0.19200
        11251.5         72.961        0.18800
        11252.0         72.503        0.18400
        11252.5         74.111        0.20300
        11253.0         76.313        0.21800
        11253.5         78.513        0.22700
        11254.0         78.301        0.22700
        11254.5         76.732        0.21800
        11255.0         75.432        0.20700
        11255.5         74.136        0.19600
        11256.0         73.099        0.19000
        11256.5         73.192        0.18800
        11257.0         73.265        0.18800
        11257.5         73.007        0.18900
        11258.0         72.275        0.18300
        11258.5         71.544        0.17700
        11259.0         70.812        0.17100
        11259.5         70.080        0.16700
        11260.0         69.745        0.16500
        11260.5         69.410        0.16200
        11261.0         69.074        0.16000
        11261.5         68.739        0.15700
        11262.0         68.471        0.15500
        11262.5         66.615        0.15300
        11263.0         64.491        0.12300
        11263.5         62.368        0.10200
        11264.0         60.121        0.09200
        11264.5         60.624        0.10800
        11265.0         63.516        0.12700
        11265.5         67.666        0.14600
        11266.0         68.471        0.15500
        11266.5         67.505        0.14800
        11267.0         66.700        0.13900
        11267.5         65.895        0.13400
        11268.0         65.553        0.13600
        11268.5         66.056        0.14500
        11269.0         68.131        0.16300
        11269.5         70.206        0.18100
        11270.0         72.696        0.18600
        11270.5         72.517        0.18400
        11271.0         72.294        0.18200
        11271.5         72.070        0.18000
        11272.0         71.891        0.17900
        11272.5         72.133        0.18000
        11273.0         72.294        0.18100
        11273.5         71.992        0.18200
        11274.0         72.072        0.18400
        11274.5         72.374        0.18100
        11275.0         72.193        0.17800
        11275.5         71.690        0.17500
        11276.0         71.187        0.17300
        11276.5         70.952        0.17300
        11277.0         71.120        0.17600
        11277.5         71.288        0.17900
        11278.0         72.696        0.18200
        11278.5         72.562        0.18300
        11279.0         72.394        0.18200
        11279.5         72.227        0.18100
        11280.0         72.093        0.18900
        11280.5         73.629        0.19800
        11281.0         74.909        0.20700
        11281.5         76.190        0.21600
        11282.0         77.425        0.21800
        11282.5         76.922        0.20500
        11283.0         73.954        0.17400
        11283.5         69.678        0.14300
        11284.0         65.402        0.11200
        11284.5         61.127        0.09200
        11285.0         59.618        0.09000
        11285.5         60.288        0.09800
        11286.0         61.462        0.10500
        11286.5         62.636        0.11100
        11287.0         62.636        0.10900
        11287.5         61.170        0.10000
        11288.0         59.948        0.09000
        11288.5         59.356        0.08800
        11289.0         59.708        0.09000
        11289.5         60.060        0.09300
        11290.0         60.412        0.09600
        11290.5         60.255        0.09000
        11291.0         59.333        0.08300
        11291.5         58.410        0.08400
        11292.0         58.854        0.08600
        11292.5         59.280        0.08700
        11293.0         59.621        0.08800
        11293.5         59.359        0.08700
        11294.0         59.144        0.08600
        11294.5         58.979        0.08500
        11295.0         58.884        0.08400
        11295.5         58.256        0.07700
        11296.0         56.818        0.06900
        11296.5         55.392        0.06000
        11297.0         55.694        0.06900
        11297.5         57.404        0.07800
        11298.0         59.819        0.08700
        11298.5         60.523        0.09600
        11299.0         61.403        0.10500
        11299.5         62.284        0.11200
        11300.0         62.757        0.11400
        11300.5         62.958        0.11600
        11301.0         63.159        0.11700
        11301.5         63.360        0.11600
        11302.0         61.906        0.10400
        11302.5         59.349        0.08600
        11303.0         56.792        0.06700
        11303.5         54.235        0.04800
        11304.0         51.167        0.03100
        11304.5         51.328        0.03200
        11305.0         51.569        0.03300
        11305.5         52.374        0.03500
        11306.0         53.380        0.04600
        11306.5         54.645        0.05800
        11307.0         56.298        0.07000
        11307.5         57.951        0.08200
        11308.0         58.272        0.08400
        11308.5         57.706        0.07700
