###############################################
##         ENVERUS                           ##
##         ESS - Open Hole                   ##
##         PERMIAN / DELAWARE                ##
##         Nov 04 2023  V4.0                 ##
##         42-389-32730-00-00                ##
###############################################
## Copyright 2017-2023  ENVERUS.  All Rights Reserved. 
## Confidential - Property of ENVERUS, use governed by terms and 
## conditions found within the existing Information Services Subscription Agreement 
## (as may be amended, the “ISSA”) between Customer and ENVERUS. 
## 
~VERSION INFORMATION
# MNEM.UNIT                               DATA : DESCRIPTION OF MNEMONIC
#-----.-----     ----------------------------- : -----------------------------
VERS.                                     2.00 : CWLS LOG ASCII STANDARD - VERSION 2.00
WRAP.                                       NO : MULTIPLE LINES PER DEPTH STEP
VEND.                                  ENVERUS : VENDOR
TYPE.                          ESS - OPEN HOLE : ENVERUS ESSENTIAL CURVES – ACCESSIBLE THROUGH ENVERUS PRISM(TM)
DOC.                                  19552736 : ENVERUS HEADER RAW DOCUMENT ID
#___________________________________________________________________________________________________ 
~WELL INFORMATION 
# Emv0q1Fc4UOVqi1FEPTQ50pHgS2U6oO6A9wxQf5ozJtTAVTQXtUhuyCOytio7eHVwvke0CQF/LYkoyLsbhUTsQ== 
# MNEM.UNIT                                              DATA : DESCRIPTION OF MNEMONIC 
#-----.-----                    ----------------------------- : ----------------------------- 
CNTY.                                                  REEVES : COUNTY 
STATE.                                                  TEXAS : STATE 
CNTRY.                                                    USA : COUNTRY 
API.                                             42-389-32730 : API (10 Digit) 
API_14.                                    42-389-32730-00-00 : API (14 Digits) 
API_14_std.                                 42-389-32730-0000 : API (14 Digits Standard) 
UWI.                                           42389327300000 : UNIQUE WELL ID 
WELL.                                  BIG SKY 55 - 16 NO. 1H : WELL NAME
STRT.FT                                                3850.0 : START DEPTH
STOP.FT                                               12070.5 : STOP DEPTH
STEP.FT                                                   0.5 : STEP BETWEEN DEPTHS
NULL.                                                 -999.25 : NULL VALUE
COMP.                                      CIMAREX ENERGY CO. : COMPANY 
FLD.                                                  WILDCAT : FIELD 
SRVC.                                             HALLIBURTON : SERVICE COMPANY 
DATE.                                              03/23/2011 : DATE 
TVD.                                                       NO : TVD FLAG 
WSTA.                                                     LOC : WELL STATUS
#___________________________________________________________________________________________________ 
~PARAMETER INFORMATION 
# MNEM.UNIT                                              DATA : DESCRIPTION OF MNEMONIC 
#-----.-----                    ----------------------------- : ----------------------------- 
RUN.                                                      ONE : RUN NUMBER 
PDAT.                                                      GL : PERMANENT DATUM 
EPD.FT                                              2996.0000 : ELEVATION OF PERM. DATUM 
LMF.                                            KELLY BUSHING : LOG MEASURED FROM 
EKB.FT                                              3021.0000 : ELEVATION OF KELLY BUSHING 
DF.FT                                               3020.0000 : ELEVATION OF DERRICK FLOOR 
GL.FT                                               2996.0000 : ELEVATION OF GROUND LEVEL 
TD.FT                                              12100.0000 : TOTAL DEPTH 
CSGD.FT                                                  3861 : CASING BOTTOM (DRILLER) 1 
CSGL.FT                                                  3855 : CASING BOTTOM (LOGGER) 1 
MUD.                                                    BRINE : DRILLING FLUID TYPE 
MUDV.CP                                               36.0000 : DRILLING FLUID VISCOSITY 
MUDD.LB/USG                                           10.1000 : DRILLING FLUID DENSITY 
PH.                                                   10.0000 : DRILLING FLUID PH 
MUDS.                                                FLOWLINE : MUD SAMPLE SOURCE 
RM.OHMM                                                0.0600 : RESISTIVITY OF MUD SAMPLE 
RMT.DEGF                                              75.0000 : MUD SAMPLE TEMPERATURE 
RMF.OHMM                                               0.0400 : MUD FILTRATE RESISTIVITY 
RMFT.DEGF                                             75.0000 : MUD FILTRATE SAMPLE TEMPERATURE 
RMC.OHMM                                               0.0600 : MUD CAKE RESISTIVITY 
RMCT.DEGF                                             75.0000 : MUD CAKE SAMPLE TEMPERATURE 
RMB.OHMM                                               0.0240 : MUD RESISTIVITY AT BHT 
TMAX.DEGF                                            200.0000 : BOTTOM HOLE TEMPERATURE
#___________________________________________________________________________________________________ 
~CURVE INFORMATION 
# MNEM.UNIT           : CURVE DESCRIPTION 
#-----.-----          : ----------------------------- 
 DEPT.FT               : MEASURED DEPTH 
 GR.API                : GAMMA RAY (GAMMA RAY) 
 DT.US/FT              : SONIC DELTA TRANSIT TIME (DELTA T) 
 RESD_LL.OHMM          : DEEP LATEROLOG (LLD - DEEP LATEROLOG) 
 DPHI.V/V              : DENSITY POROSITY (DENSITY POROSITY) 
 NPHI.V/V              : NEUTRON POROSITY (NEUTRON POROSITY) 
 #___________________________________________________________________________________________________ 
~A         DEPT             GR             DT        RESD_LL           DPHI           NPHI
# ...
         8734.0         28.144         69.651       178.1200        0.09800        0.15500
         8734.5         23.868         67.089       172.8500        0.08600        0.14000
         8735.0         19.646         63.746       170.2040        0.07300        0.11700
         8735.5         16.661         61.752       181.0170        0.06100        0.09500
         8736.0         16.951         61.206       191.7110        0.05900        0.07800
         8736.5         18.717         62.263       211.4910        0.06700        0.08200
         8737.0         20.613         63.423       233.3120        0.09100        0.08800
         8737.5         17.839         63.101       257.3850        0.11400        0.08500
         8738.0         13.713         61.119       278.8340        0.12200        0.07700
         8738.5          9.457         58.569       299.7560        0.09800        0.06900
         8739.0          8.046         56.923       322.2490        0.05300        0.05900
         8739.5          7.322         55.799       343.1620        0.00800        0.04700
         8740.0          6.574         55.180       330.3860       -0.00100        0.03700
         8740.5          7.924         54.970       312.9100        0.00300        0.03900
         8741.0          9.789         55.932       290.5040        0.01000        0.04300
         8741.5         12.335         57.889       268.6150        0.04000        0.05200
         8742.0         18.064         61.434       248.3750        0.09300        0.07700
         8742.5         23.739         65.498       232.9570        0.16500        0.13600
         8743.0         29.382         69.543       235.2020        0.23600        0.17900
         8743.5         33.302         73.367       237.2950        0.27600        0.19800
         8744.0         32.195         74.088       250.1340        0.26300        0.18900
         8744.5         27.410         70.913       255.4130        0.21000        0.17400
         8745.0         22.686         68.209       233.7570        0.14800        0.15800
         8745.5         19.674         65.542       214.1610        0.08600        0.14300
         8746.0         20.806         65.674       196.2080        0.08900        0.13400
         8746.5         23.893         68.210       185.3210        0.12100        0.15900
         8747.0         26.971         70.601       178.4720        0.15100        0.17600
         8747.5         30.055         70.033       173.0230        0.16200        0.18600
         8748.0         33.136         69.519       167.7400        0.14200        0.16000
         8748.5         36.251         69.733       162.5500        0.11200        0.15500
         8749.0         38.252         69.543       158.1160        0.09700        0.16900
         8749.5         31.325         68.437       168.6680        0.12700        0.18700
         8750.0         23.666         63.680       179.2390        0.13300        0.16600
         8750.5         16.086         59.439       190.3890        0.12300        0.14400
         8751.0         10.117         56.930       200.9250        0.07500        0.12300
         8751.5          8.591         56.101       189.2500        0.05400        0.11100
         8752.0          6.962         55.597       179.2920        0.05400        0.11500
         8752.5          5.631         55.829       169.8590        0.05400        0.11000
         8753.0          7.405         57.284       160.9220        0.04600        0.09800
         8753.5         10.931         59.419       155.1710        0.05900        0.09200
         8754.0         18.542         63.939       159.4680        0.07900        0.12100
         8754.5         27.589         68.666       161.0060        0.11300        0.14500
         8755.0         36.086         73.487       154.4900        0.14400        0.17000
         8755.5         37.916         73.487       147.8220        0.13900        0.20000
         8756.0         33.216         70.079       141.4410        0.12100        0.18400
         8756.5         27.101         67.207       133.9240        0.07000        0.16400
         8757.0         21.003         64.335       140.7900        0.05200        0.14800
         8757.5         16.393         61.463       147.0790        0.04900        0.13200
         8758.0         14.827         59.652       148.0690        0.04500        0.12200
         8758.5         13.188         58.493       148.9740        0.04000        0.11200
         8759.0         12.589         58.069       149.8900        0.03400        0.10300
         8759.5         12.795         58.880       150.8180        0.03700        0.10100
         8760.0         13.014         60.092       151.7530        0.04800        0.10300
         8760.5         13.116         60.982       152.6970        0.05600        0.10500
         8761.0         12.507         59.476       153.6600        0.05800        0.09500
         8761.5         11.748         57.768       154.6360        0.05600        0.08200
         8762.0         11.028         56.968       155.1940        0.04500        0.07200
         8762.5         11.847         58.108       146.3200        0.03500        0.06800
         8763.0         14.026         61.429       131.1440        0.03100        0.08100
         8763.5         18.176         65.489       117.6440        0.04400        0.09800
         8764.0         23.528         68.188       118.4920        0.06400        0.12200
         8764.5         28.703         69.416       119.3400        0.07900        0.15200
         8765.0         29.988         68.087       124.3700        0.06700        0.13500
         8765.5         26.533         66.084       135.9190        0.05800        0.11300
         8766.0         23.190         62.291       148.5410        0.04900        0.09700
         8766.5         19.856         59.440       162.3340        0.04300        0.08400
         8767.0         16.555         58.168       177.4080        0.03800        0.06800
         8767.5         13.860         57.375       190.5700        0.03400        0.05100
         8768.0         15.230         58.006       202.7130        0.03000        0.04800
         8768.5         18.110         59.053       204.6680        0.02500        0.04500
         8769.0         24.061         61.237       196.7780        0.03400        0.06400
         8769.5         29.988         64.873       187.8690        0.05300        0.08300
         8770.0         35.863         67.657       179.3640        0.07100        0.10200
         8770.5         40.478         69.248       171.2440        0.08000        0.11700
         8771.0         41.178         70.113       163.4910        0.07800        0.10800
         8771.5         41.947         70.829       156.2410        0.08400        0.09900
         8772.0         42.524         71.317       149.7000        0.09300        0.11000
         8772.5         40.614         70.878       143.4330        0.09200        0.11700
         8773.0         37.254         68.685       137.4280        0.07000        0.09200
         8773.5         32.336         66.487       131.6140        0.05000        0.07600
         8774.0         27.444         64.967       126.7190        0.04400        0.07200
         8774.5         22.571         63.962       131.6880        0.04000        0.06700
         8775.0         19.524         63.507       136.4290        0.03900        0.06300
         8775.5         21.510         65.505       145.3590        0.04200        0.06200
         8776.0         28.548         68.366       154.8720        0.05300        0.08100
         8776.5         40.759         72.169       170.1730        0.07500        0.10100
         8777.0         53.208         76.029       169.6970        0.09900        0.12200
         8777.5         54.839         77.794       168.7740        0.10800        0.14400
