###############################################
##         ENVERUS                           ##
##         ESS - Open Hole                   ##
##         PERMIAN / DELAWARE                ##
##         Nov 04 2023  V4.0                 ##
##         42-389-31270-00-00                ##
###############################################
## Copyright 2017-2023  ENVERUS.  All Rights Reserved. 
## Confidential - Property of ENVERUS, use governed by terms and 
## conditions found within the existing Information Services Subscription Agreement 
## (as may be amended, the “ISSA”) between Customer and ENVERUS. 
## 
~VERSION INFORMATION
# MNEM.UNIT                               DATA : DESCRIPTION OF MNEMONIC
#-----.-----     ----------------------------- : -----------------------------
VERS.                                     2.00 : CWLS LOG ASCII STANDARD - VERSION 2.00
WRAP.                                       NO : MULTIPLE LINES PER DEPTH STEP
VEND.                                  ENVERUS : VENDOR
TYPE.                          ESS - OPEN HOLE : ENVERUS ESSENTIAL CURVES – ACCESSIBLE THROUGH ENVERUS PRISM(TM)
DOC.                                  31950282 : ENVERUS HEADER RAW DOCUMENT ID
#___________________________________________________________________________________________________ 
~WELL INFORMATION 
# 0CODbT4LMl4UGLa7W4QP9cEC157HhgZEtdKI2U+cm8ET/zLKkJfEe4mvdgudHboWMGmWziBYTrzgVEWtCsCjWg== 
# MNEM.UNIT                                              DATA : DESCRIPTION OF MNEMONIC 
#-----.-----                    ----------------------------- : ----------------------------- 
CNTY.                                                  REEVES : COUNTY 
STATE.                                                  TEXAS : STATE 
CNTRY.                                                    USA : COUNTRY 
API.                                             42-389-31270 : API (10 Digit) 
API_14.                                    42-389-31270-00-00 : API (14 Digits) 
API_14_std.                                 42-389-31270-0000 : API (14 Digits Standard) 
UWI.                                           42389312700000 : UNIQUE WELL ID 
WELL.                                        FORTUNE UNIT  2R : WELL NAME
STRT.FT                                                3825.0 : START DEPTH
STOP.FT                                               13654.0 : STOP DEPTH
STEP.FT                                                   0.5 : STEP BETWEEN DEPTHS
NULL.                                                 -999.25 : NULL VALUE
COMP.                          SANDRIDGE EXPL. AND PROD.  LLC : COMPANY 
DATE.                                             19-AUG-2004 : LOG DATE
#___________________________________________________________________________________________________ 
~CURVE INFORMATION 
# MNEM.UNIT           : CURVE DESCRIPTION 
#-----.-----          : ----------------------------- 
 DEPT.FT               : MEASURED DEPTH 
 CALI__B.IN            : CALIPER (CAL - CAL) 
 GR__B.API             : GAMMA RAY (GR) 
 DT__B.US/FT           : SONIC DELTA TRANSIT TIME (DT) 
 #___________________________________________________________________________________________________ 
~A         DEPT        CALI__B          GR__B          DT__B
# ...
         6399.0         11.015         53.962         66.938
         6399.5         11.038         62.575         67.985
         6400.0         11.062         88.573         69.033
         6400.5         11.086         97.502         69.897
         6401.0         11.110         91.827         70.590
         6401.5         11.133         86.152         71.283
         6402.0         11.157         80.478         71.176
         6402.5         11.165         48.215         69.856
         6403.0         11.170         46.639         68.535
         6403.5         11.175         45.063         67.214
         6404.0         11.179         43.575         65.893
         6404.5         11.184         42.377         64.572
         6405.0         11.189         41.179         63.251
         6405.5         11.194         39.981         64.140
         6406.0         11.199         39.980         65.716
         6406.5         11.204         41.532         67.292
         6407.0         11.209         43.084         68.868
         6407.5         11.214         45.264         69.794
         6408.0         11.216         47.735         69.624
         6408.5         11.212         50.207         69.455
         6409.0         11.207         49.879         69.285
         6409.5         11.202         49.299         69.116
         6410.0         11.198         48.719         68.946
         6410.5         11.193         48.139         68.777
         6411.0         11.189         47.602         68.422
         6411.5         11.184         49.360         68.015
         6412.0         11.180         51.118         67.607
         6412.5         11.175         54.082         67.199
         6413.0         11.170         63.185         66.792
         6413.5         11.166         89.864         66.384
         6414.0         11.163        154.047         65.977
         6414.5         11.163        154.049         65.750
         6415.0         11.163        154.051         65.688
         6415.5         11.163        146.793         65.193
         6416.0         11.163        119.811         64.665
         6416.5         11.163        103.647         64.137
         6417.0         11.163         90.536         63.609
         6417.5         11.163         77.426         63.161
         6418.0         11.163         64.316         63.662
         6418.5         11.170         55.394         64.163
         6419.0         11.186         59.386         64.663
         6419.5         11.203         63.378         63.467
         6420.0         11.219         68.510         62.155
         6420.5         11.235         74.963         60.842
         6421.0         11.252         76.583         59.530
         6421.5         11.268         60.303         60.529
         6422.0         11.285         47.212         62.072
         6422.5         11.296         48.251         62.853
         6423.0         11.298         54.337         62.915
         6423.5         11.301         61.020         62.976
         6424.0         11.304         61.866         63.444
         6424.5         11.307         62.711         64.721
         6425.0         11.309         63.556         64.251
         6425.5         11.312         64.375         63.325
         6426.0         11.315         61.291         62.766
         6426.5         11.317         58.207         62.900
         6427.0         11.320         55.123         63.034
         6427.5         11.323         56.373         63.167
         6428.0         11.326         58.868         63.301
         6428.5         11.328         61.363         63.435
         6429.0         11.331         61.900         63.569
         6429.5         11.335         60.194         63.703
         6430.0         11.347         59.918         63.837
         6430.5         11.358         63.008         63.971
         6431.0         11.370         66.098         63.873
         6431.5         11.381         69.188         63.724
         6432.0         11.393         68.867         63.576
         6432.5         11.404         68.476         63.428
         6433.0         11.416         68.085         63.279
         6433.5         11.427         67.694         63.131
         6434.0         11.439         67.304         62.983
         6434.5         11.450         66.913         62.835
         6435.0         11.462         68.508         64.083
         6435.5         11.473         72.612         65.622
         6436.0         11.485         76.716         66.292
         6436.5         11.496         75.898         66.178
         6437.0         11.508         72.608         66.065
         6437.5         11.519         69.317         65.951
         6438.0         11.531         66.027         65.838
         6438.5         11.542         62.736         65.724
         6439.0         11.554         65.310         65.611
         6439.5         11.567         69.163         65.497
         6440.0         11.581         73.017         65.384
         6440.5         11.595         50.605         65.270
         6441.0         11.609         47.300         66.055
         6441.5         11.623         43.996         66.895
         6442.0         11.637         43.001         66.388
         6442.5         11.651         42.283         64.984
         6443.0         11.665         41.564         63.579
         6443.5         11.679         40.846         63.042
         6444.0         11.693         40.563         64.478
         6444.5         11.707         40.650         65.915
         6445.0         11.722         40.738         67.351
         6445.5         11.737         48.043         68.788
         6446.0         11.753         52.148         70.224
         6446.5         11.768         55.849         71.619
         6447.0         11.783         59.249         72.199
         6447.5         11.798         62.649         71.801
         6448.0         11.813         63.120         71.403
         6448.5         11.828         62.889         71.165
         6449.0         11.844         62.658         71.855
         6449.5         11.859         62.427         71.435
         6450.0         11.874         62.196         70.209
         6450.5         11.890         57.383         68.984
         6451.0         11.906         52.059         67.758
         6451.5         11.922         48.272         67.282
         6452.0         11.939         44.971         67.614
         6452.5         11.955         43.927         67.945
         6453.0         11.971         44.362         68.277
         6453.5         11.987         44.797         68.608
         6454.0         12.003         45.651         68.939
         6454.5         12.020         47.380         69.271
         6455.0         12.036         49.109         69.481
         6455.5         12.052         50.695         69.481
         6456.0         12.060         47.127         69.480
         6456.5         12.029         43.559         69.480
         6457.0         11.999         43.423         69.479
         6457.5         11.969         43.788         69.479
         6458.0         11.939         44.154         69.478
         6458.5         11.908         44.520         68.682
         6459.0         11.878         44.886         65.899
         6459.5         11.848         48.500         65.793
         6460.0         11.813         62.401         65.687
         6460.5         11.756         89.297         65.580
         6461.0         11.700        101.327         65.474
         6461.5         11.644        109.015         65.368
         6462.0         11.588        109.049         64.772
         6462.5         11.532        107.475         64.001
         6463.0         11.476        105.901         63.230
         6463.5         11.420         78.844         62.459
         6464.0         11.364         61.220         61.688
         6464.5         11.308         59.420         61.315
