###############################################
##         ENVERUS                           ##
##         ESS - Open Hole                   ##
##         PERMIAN / DELAWARE                ##
##         Nov 04 2023  V4.0                 ##
##         42-389-32245-00-00                ##
###############################################
## Copyright 2017-2023  ENVERUS.  All Rights Reserved. 
## Confidential - Property of ENVERUS, use governed by terms and 
## conditions found within the existing Information Services Subscription Agreement 
## (as may be amended, the “ISSA”) between Customer and ENVERUS. 
## 
~VERSION INFORMATION
# MNEM.UNIT                               DATA : DESCRIPTION OF MNEMONIC
#-----.-----     ----------------------------- : -----------------------------
VERS.                                     2.00 : CWLS LOG ASCII STANDARD - VERSION 2.00
WRAP.                                       NO : MULTIPLE LINES PER DEPTH STEP
VEND.                                  ENVERUS : VENDOR
TYPE.                          ESS - OPEN HOLE : ENVERUS ESSENTIAL CURVES – ACCESSIBLE THROUGH ENVERUS PRISM(TM)
DOC.                                  31784178 : ENVERUS HEADER RAW DOCUMENT ID
#___________________________________________________________________________________________________ 
~WELL INFORMATION 
# v5kOeJgG8V8Fdrn76qwaaSXPAkEfLGq57aawfXlCwOXh55ROPeN2VCvB7JmY2/dENYnWxxZwl4Ma/Wu+4c2YGQ== 
# MNEM.UNIT                                              DATA : DESCRIPTION OF MNEMONIC 
#-----.-----                    ----------------------------- : ----------------------------- 
CNTY.                                                  REEVES : COUNTY 
STATE.                                                  TEXAS : STATE 
CNTRY.                                                    USA : COUNTRY 
API.                                             42-389-32245 : API (10 Digit) 
API_14.                                    42-389-32245-00-00 : API (14 Digits) 
API_14_std.                                 42-389-32245-0000 : API (14 Digits Standard) 
UWI.                                           42389322450000 : UNIQUE WELL ID 
WELL.                          TEXAS PACIFIC LAND TRUST 25 1H : WELL NAME
STRT.FT                                                2519.0 : START DEPTH
STOP.FT                                               10624.0 : STOP DEPTH
STEP.FT                                                   0.5 : STEP BETWEEN DEPTHS
NULL.                                                 -999.25 : NULL VALUE
#___________________________________________________________________________________________________ 
~CURVE INFORMATION 
# MNEM.UNIT           : CURVE DESCRIPTION 
#-----.-----          : ----------------------------- 
 DEPT.FT               : MEASURED DEPTH 
 CALI__B.IN            : CALIPER (CAL - CAL) 
 GR__B.API             : GAMMA RAY (GR) 
 DT__B.US/FT           : SONIC DELTA TRANSIT TIME (DT) 
 #___________________________________________________________________________________________________ 
~A         DEPT        CALI__B          GR__B          DT__B
# ...
         7337.0         12.806         86.990         68.411
         7337.5         12.828         82.305         67.458
         7338.0         12.849         76.483         65.857
         7338.5         12.871         67.189         64.257
         7339.0         12.892         57.894         62.747
         7339.5         12.914         53.228         62.249
         7340.0         12.935         52.250         63.306
         7340.5         12.957         61.479         64.511
         7341.0         12.978         70.707         65.716
         7341.5         13.000         79.935         67.027
         7342.0         13.021         84.251         69.373
         7342.5         13.043         83.185         71.718
         7343.0         13.060         70.752         74.063
         7343.5         13.077         57.447         76.434
         7344.0         13.093         52.070         78.889
         7344.5         13.110         50.712         79.081
         7345.0         13.127         54.113         77.451
         7345.5         13.144         61.645         75.223
         7346.0         13.147         65.969         72.898
         7346.5         13.098         64.835         70.574
         7347.0         13.049         63.701         68.258
         7347.5         13.000         63.898         66.092
         7348.0         12.951         67.597         65.338
         7348.5         12.932         71.295         66.233
         7349.0         12.930         74.993         66.762
         7349.5         12.929         78.692         66.634
         7350.0         12.927         80.115         65.662
         7350.5         12.926         77.449         63.890
         7351.0         12.924         71.385         62.119
         7351.5         12.923         65.321         60.620
         7352.0         12.921         65.686         60.646
         7352.5         12.920         77.543         62.914
         7353.0         12.918         89.400         66.247
         7353.5         12.917        113.741         67.951
         7354.0         12.915        110.218         68.754
         7354.5         12.914        105.312         67.993
         7355.0         12.912        100.405         66.432
         7355.5         12.911         90.031         64.872
         7356.0         12.911         78.926         64.267
         7356.5         12.911         78.287         63.852
         7357.0         12.911         77.796         63.438
         7357.5         12.911         75.045         63.023
         7358.0         12.911         69.721         62.531
         7358.5         12.911         64.398         61.708
         7359.0         12.911         59.074         60.799
         7359.5         12.913         52.339         61.351
         7360.0         12.939         55.629         63.977
         7360.5         12.964         61.595         65.982
         7361.0         12.989         73.743         66.995
         7361.5         13.015         83.236         68.009
         7362.0         13.040         85.142         68.167
         7362.5         13.066         85.475         68.279
         7363.0         13.091         85.807         68.493
         7363.5         13.117         84.249         69.532
         7364.0         13.143         76.321         70.978
         7364.5         13.169         64.004         72.425
         7365.0         13.196         51.687         73.300
         7365.5         13.222         48.684         73.801
         7366.0         13.249         47.838         74.025
         7366.5         13.275         48.218         74.090
         7367.0         13.301         48.598         73.995
         7367.5         13.328         51.516         72.402
         7368.0         13.354         58.934         69.945
         7368.5         13.380         66.352         67.090
         7369.0         13.407         63.981         65.948
         7369.5         13.433         59.172         65.554
         7370.0         13.456         54.362         67.015
         7370.5         13.473         50.541         70.011
         7371.0         13.490         52.208         72.424
         7371.5         13.507         53.876         73.500
         7372.0         13.524         56.670         72.889
         7372.5         13.541         60.965         71.936
         7373.0         13.558         65.261         69.009
         7373.5         13.575         64.376         66.082
         7374.0         13.592         56.511         63.397
         7374.5         13.609         48.237         62.686
         7375.0         13.626         40.750         61.976
         7375.5         13.643         37.813         61.272
         7376.0         13.660         37.205         61.163
         7376.5         13.675         36.596         61.585
         7377.0         13.685         39.225         64.075
         7377.5         13.695         42.806         66.564
         7378.0         13.705         46.386         67.893
         7378.5         13.714         49.816         66.696
         7379.0         13.724         52.524         65.855
         7379.5         13.734         52.144         65.928
         7380.0         13.727         51.763         67.258
         7380.5         13.693         52.929         68.588
         7381.0         13.659         56.684         69.918
         7381.5         13.625         57.435         71.096
         7382.0         13.603         56.306         71.620
         7382.5         13.598         55.176         72.143
         7383.0         13.594         55.276         72.532
         7383.5         13.589         57.924         72.899
         7384.0         13.584         59.375         73.156
         7384.5         13.615         57.913         73.256
         7385.0         13.653         54.024         73.304
         7385.5         13.691         51.801         72.784
         7386.0         13.729         54.688         71.939
         7386.5         13.767         63.180         70.975
         7387.0         13.805         73.044         70.012
         7387.5         13.832         82.909         69.242
         7388.0         13.841         84.203         68.592
         7388.5         13.849         72.203         68.253
         7389.0         13.857         60.122         68.076
         7389.5         13.865         49.945         68.263
         7390.0         13.873         43.472         69.284
         7390.5         13.881         40.810         70.469
         7391.0         13.889         41.585         71.654
         7391.5         13.897         45.426         72.477
         7392.0         13.905         49.373         72.822
         7392.5         13.913         54.173         73.167
         7393.0         13.921         57.674         73.451
         7393.5         13.929         58.737         73.549
         7394.0         13.937         58.837         73.491
         7394.5         13.945         58.925         73.215
         7395.0         13.953         58.427         72.827
         7395.5         13.961         57.627         72.440
         7396.0         13.964         58.330         72.315
         7396.5         13.964         61.969         72.297
         7397.0         13.964         63.958         72.061
         7397.5         13.964         64.754         71.696
         7398.0         13.964         66.159         71.331
         7398.5         13.964         69.407         70.966
         7399.0         13.928         72.655         70.719
         7399.5         13.869         70.068         70.834
         7400.0         13.821         61.992         72.008
         7400.5         13.794         54.230         73.468
         7401.0         13.767         54.850         74.928
         7401.5         13.740         55.470         75.595
         7402.0         13.713         59.282         75.346
         7402.5         13.686         64.812         73.949
