#--------------------------------------------------#
#-------------------ENVERUS, INC.------------------#
#------------------WWW.ENVERUS.COM-----------------#
#------------------COPYRIGHT 2020------------------#
#--------------------------------------------------#
#THIS FILE MAY BE USED ONLY IN ACCORDANCE WITH A CURRENT SUBSCRIPTION AGREEMENT BETWEEN
#THE USER AND ENVERUS, INC. NO PART OF THIS FILE MAY BE REPRODUCED, USED, COPIED,
#MODIFIED, PROPAGATED, OR DISTRIBUTED EXCEPT IN ACCORDANCE WITH THE SUBSCRIPTION
#AGREEMENT. UNAUTHORIZED USE OR DISTRIBUTION OF ALL OR ANY PART OF THIS FILE MAY VIOLATE
#COPYRIGHT, TRADEMARK, AND/OR OTHER LAWS AND IS SUBJECT TO CIVIL AS WELL AS CRIMINAL
#SANCTIONS.
#--------------------------------------------------#
#THIS FILE IS PROVIDED "AS-IS" AND ALL WARRANTIES ARE EXPRESSLY DISCLAIMED, WHETHER
#EXPRESS, ORAL, IMPLIED, STATUTORY OR OTHERWISE, INCLUDING ANY IMPLIED WARRANTY OF FITNESS
#FOR A PARTICULAR PURPOSE, MERCHANTABILITY, TITLE OR NON-INFRINGEMENT, AND ANY WARRANTIES
#ARISING BY VIRTUE OF CUSTOM OF TRADE OR COURSE OF DEALING.  FURTHER, ENVERUS, INC.
#AND ITS LICENSORS DO NOT REPRESENT OR WARRANT THAT THIS FILE WILL MEET USER'S
#REQUIREMENTS OR ARE SUITABLE FOR USER'S NEEDS OR THAT THE DATA OR RESULTS PROVIDED IN
#CONJUNCTION THEREWITH ARE CORRECT, ACCURATE, TIMELY OR RELIABLE. THESE DISCLAIMERS SHALL
#APPLY REGARDLESS OF ANY FAILURE OF ESSENTIAL PURPOSE OF ANY LIMITED REMEDY.  SOME
#JURISDICTIONS DO NOT ALLOW THE EXCLUSION OF CERTAIN WARRANTIES SO SOME OF THE ABOVE
#EXCLUSIONS MAY NOT APPLY. IN NO EVENT SHALL ENVERUS, INC. OR ANY OF ITS AFFILIATES
#BE LIABLE UNDER ANY LEGAL THEORY, WHETHER IN TORT (INCLUDING WITHOUT LIMITATION
#NEGLIGENCE), CONTRACT, STRICT LIABILITY, STATUTORY OR OTHERWISE, FOR ANY SPECIAL,
#INCIDENTAL, CONSEQUENTIAL, EXEMPLARY, PUNITIVE OR INDIRECT DAMAGE OF ANY KIND, INCLUDING
#WITHOUT LIMITATION LOSS OF REVENUE, PROFITS, GOODWILL, USE, AND/OR DATA OR THE COST OF
#PROCUREMENT OF SUBSTITUTE GOODS OR SERVICES, EVEN IF APPRISED OF THE POSSIBILITY OF SUCH
#DAMAGES IN ADVANCE.
#--------------------------------------------------#

~VERSION INFORMATION
VERS. 2.0 : CWLS LOG ASCII STANDARD - VERSION 2.0
WRAP.  NO : ONE LINE PER DEPTH STEP
~WELL INFORMATION
#MNEMONIC     .UNIT              VALUE :DESCRIPTION
STRT       .FT                0 :START DEPTH
STOP       .FT                13134 :STOP DEPTH
STEP       .FT                   0.500 :STEP
NULL       .                  -999.250 :NULL
UWI        .              42389303540000 :UNIQUE WELL ID
API        .              42389303540000 :API NUMBER
COMP       .         SMC OIL & GAS  INC. :COMPANY
WELL       .        TIFFANY STATE  1 :WELL
DATE       .                18-OCT-1995 :LOG DATE
~CURVE INFORMATION
#MNEMONIC     .UNIT      API CODE :CURVE DESCRIPTION
DEPTH       .FT                      :MEASURED DEPTH
DT.US/FT        UNKNOWN   :DT
CAL.INCH        UNKNOWN   :CAL
GR.API        UNKNOWN   :GR
~A    DEPTH    DT    CAL    GR
# ...
 6352.5     61.514   9.77   121.098
 6353     62.951   9.702   130.148
 6353.5     64.387   9.634   136.869
 6354     63.939   9.63   125.345
 6354.5     63.174   9.654   120.238
 6355     62.409   9.678   115.132
 6355.5     61.643   9.702   110.025
 6356     61.735   9.726   103.701
 6356.5     61.632   9.75   96.133
 6357     61.186   9.773   88.565
 6357.5     60.739   9.786   80.996
 6358     60.292   9.8   76.197
 6358.5     61.163   9.813   77.406
 6359     61.722   9.827   78.614
 6359.5     61.413   9.84   79.823
 6360     61.103   9.853   80.054
 6360.5     60.794   9.867   79.762
 6361     61.142   9.88   79.47
 6361.5     61.892   9.894   86.052
 6362     62.641   9.907   93.153
 6362.5     63.068   9.92   86.982
 6363     63.37   9.934   80.811
 6363.5     63.158   9.947   74.64
 6364     62.848   9.961   68.468
 6364.5     62.539   9.974   64.069
 6365     62.229   9.985   62.398
 6365.5     61.92   9.992   61.023
 6366     61.61   10   59.989
 6366.5     61.423   10.007   59.647
 6367     61.251   10.015   59.961
 6367.5     61.08   10.022   60.275
 6368     60.908   10.03   60.647
 6368.5     60.736   10.037   61.147
 6369     60.841   10.044   61.648
 6369.5     61.353   10.052   63.943
 6370     61.785   10.059   68.033
 6370.5     61.875   10.067   72.123
 6371     61.965   10.046   76.252
 6371.5     62.055   10.007   81.736
 6372     62.145   9.967   90.248
 6372.5     61.266   9.928   93.596
 6373     60.363   9.889   83.982
 6373.5     59.461   9.85   74.369
 6374     58.558   9.81   64.756
 6374.5     59.858   9.771   54.69
 6375     61.743   9.732   45.358
 6375.5     63.463   9.692   42.114
 6376     64.11   9.653   42.046
 6376.5     64.756   9.646   41.978
 6377     65.23   9.645   41.91
 6377.5     65.049   9.645   41.841
 6378     64.869   9.645   41.773
 6378.5     64.688   9.645   41.695
 6379     64.508   9.645   41.61
 6379.5     64.327   9.645   41.397
 6380     64.147   9.645   40.626
 6380.5     64.059   9.645   39.855
 6381     64.491   9.645   39.144
 6381.5     64.922   9.645   39.645
 6382     65.354   9.645   40.146
 6382.5     65.812   9.655   43.452
 6383     66.304   9.715   48.36
 6383.5     66.797   9.775   53.267
 6384     66.026   9.835   58.175
 6384.5     65.009   9.895   67.268
 6385     63.991   9.954   69.626
 6385.5     63.002   10.014   68.33
 6386     62.933   10.066   67.034
 6386.5     62.864   10.053   65.738
 6387     62.794   10.039   64.695
 6387.5     62.725   10.026   70.377
 6388     62.656   10.004   76.059
 6388.5     63.011   9.952   81.741
 6389     63.512   9.899   87.489
 6389.5     63.865   9.846   95.275
 6390     65.275   9.793   95.28
 6390.5     66.083   9.741   90.814
 6391     64.116   9.699   86.348
 6391.5     62.149   9.715   81.882
 6392     60.429   9.731   77.416
 6392.5     58.936   9.746   76.547
 6393     59.139   9.762   79.37
 6393.5     59.898   9.777   82.193
 6394     60.657   9.793   85.016
 6394.5     61.415   9.809   90.29
 6395     62.92   9.821   96.546
 6395.5     62.956   9.826   96.46
 6396     62.449   9.831   89.277
 6396.5     61.942   9.836   86.691
 6397     61.446   9.841   84.104
 6397.5     61.033   9.846   81.322
 6398     60.62   9.851   71.612
 6398.5     60.943   9.844   66.423
 6399     60.89   9.812   63.368
 6399.5     60.443   9.78   60.447
 6400     61.46   9.748   60.614
 6400.5     63.384   9.716   60.782
 6401     63.761   9.684   67.469
 6401.5     63.224   9.668   76.22
 6402     63.322   9.697   77.815
 6402.5     63.833   9.726   80.683
 6403     64.344   9.755   86.085
 6403.5     64.855   9.784   92.175
 6404     63.692   9.816   98.265
 6404.5     61.985   9.852   97.09
 6405     60.03   9.888   89.547
 6405.5     58.075   9.923   82.004
 6406     57.314   9.959   74.461
 6406.5     58.492   9.995   66.918
 6407     59.67   10.03   67.991
 6407.5     60.849   10.066   80.59
 6408     62.027   10.096   94.548
 6408.5     63.146   10.121   105.141
 6409     64.054   10.147   104.758
 6409.5     64.179   10.172   101.883
 6410     63.131   10.197   98.518
 6410.5     62.317   10.223   87.764
 6411     62.64   10.248   77.009
 6411.5     62.964   10.274   74.445
 6412     62.647   10.277   75.192
 6412.5     61.785   10.191   73.943
 6413     61.439   10.106   67.789
 6413.5     61.704   10.021   61.634
 6414     61.968   9.935   55.48
 6414.5     62.261   9.85   49.325
 6415     63.01   9.764   46.349
 6415.5     63.758   9.985   46.897
 6416     64.507   10.154   49.39
 6416.5     65.255   10.113   51.884
 6417     65.586   10.072   54.378
 6417.5     65.627   10.031   56.872
 6418     65.138   9.99   60.948
 6418.5     64.649   9.949   66.814
 6419     64.161   9.908   72.679
 6419.5     63.672   9.868   78.544
 6420     63.284   9.827   85.978
 6420.5     64.284   9.786   93.07
 6421     63.647   10.037   89.772
 6421.5     63.011   9.99   86.474
 6422     62.374   9.943   83.176
 6422.5     61.738   9.895   79.878
 6423     62.163   9.848   76.579
 6423.5     62.863   9.801   80.084
 6424     63.379   9.781   85.337
 6424.5     63.89   9.837   89.242
 6425     63.478   9.893   85.581
 6425.5     62.76   9.949   81.919
 6426     62.041   10.005   78.257
 6426.5     61.323   10.061   72.74
 6427     60.605   10.08   66.748
 6427.5     59.887   10.054   60.967
 6428     59.322   10.028   55.301
 6428.5     59.471   10.002   50.224
 6429     59.428   9.977   49.402
 6429.5     58.869   9.951   48.742
 6430     58.967   9.925   48.93
 6430.5     61.094   9.9   49.118
 6431     61.12   9.874   49.306
 6431.5     61   9.855   51.533
 6432     61.022   9.909   55.465
 6432.5     61.599   9.964   63.144
 6433     61.601   10.018   70.824
 6433.5     61.39   10.073   76.958
 6434     61.18   10.07   81.69
 6434.5     61.534   9.876   86.421
 6435     62.281   9.711   91.385
 6435.5     63.029   9.729   102.611
 6436     63.464   9.747   113.838
 6436.5     63.752   9.766   119.08
 6437     64.041   9.784   117.482
 6437.5     64.329   9.802   113.048
 6438     63.685   9.82   108.614
 6438.5     62.95   9.838   104.179
 6439     62.216   9.856   100.105
 6439.5     61.481   9.862   96.219
 6440     60.015   9.848   92.333
 6440.5     59.345   9.834   88.447
 6441     59.856   9.821   85.285
 6441.5     60.366   9.807   85.03
 6442     60.76   9.802   84.775
 6442.5     60.315   9.833   84.52
 6443     59.871   9.865   82.978
 6443.5     59.426   9.897   77.326
 6444     59.027   9.928   71.674
 6444.5     58.811   9.96   67.178
 6445     59.052   9.991   64.802
 6445.5     60.069   10.023   63.258
 6446     61.127   10.055   73.942
 6446.5     63.338   10.066   84.796
 6447     64.531   10.074   97.465
 6447.5     64.925   10.082   100.788
 6448     64.256   10.089   95.76
 6448.5     63.756   10.097   90.732
 6449     63.798   10.105   85.704
 6449.5     63.839   10.112   82.774
 6450     63.88   10.12   80.12
 6450.5     63.027   10.127   77.466
 6451     62.182   10.131   67.114
 6451.5     61.773   10.133   55.387
 6452     61.804   10.135   43.659
 6452.5     61.484   10.137   40.828
 6453     61.208   10.138   40.869
 6453.5     61.952   10.14   40.91
 6454     62.696   10.142   40.952
 6454.5     63.44   10.144   40.993
 6455     64.114   10.146   41.86
 6455.5     64.351   10.147   44.571
 6456     64.588   10.149   49.977
 6456.5     64.826   10.151   55.383
 6457     64.959   10.153   60.758
 6457.5     64.903   10.155   62.233
 6458     64.848   10.157   63.709
 6458.5     64.792   10.158   65.185
 6459     64.736   10.16   66.66
 6459.5     64.517   10.162   68.386
 6460     63.935   10.164   72.075
 6460.5     63.354   10.192   74.818
 6461     62.988   10.223   77.561
 6461.5     62.867   10.254   78.906
 6462     62.746   10.285   77.107
 6462.5     62.697   10.316   75.307
 6463     62.779   10.33   73.507
 6463.5     62.874   10.282   73.547
 6464     63.209   10.234   73.94
 6464.5     63.544   10.187   74.334
 6465     63.051   10.139   74.727
 6465.5     62.341   10.091   75.121
 6466     61.516   10.043   74.215
