#--------------------------------------------------#
#-------------------ENVERUS, INC.------------------#
#------------------WWW.ENVERUS.COM-----------------#
#------------------COPYRIGHT 2020------------------#
#--------------------------------------------------#
#THIS FILE MAY BE USED ONLY IN ACCORDANCE WITH A CURRENT SUBSCRIPTION AGREEMENT BETWEEN
#THE USER AND ENVERUS, INC. NO PART OF THIS FILE MAY BE REPRODUCED, USED, COPIED,
#MODIFIED, PROPAGATED, OR DISTRIBUTED EXCEPT IN ACCORDANCE WITH THE SUBSCRIPTION
#AGREEMENT. UNAUTHORIZED USE OR DISTRIBUTION OF ALL OR ANY PART OF THIS FILE MAY VIOLATE
#COPYRIGHT, TRADEMARK, AND/OR OTHER LAWS AND IS SUBJECT TO CIVIL AS WELL AS CRIMINAL
#SANCTIONS.
#--------------------------------------------------#
#THIS FILE IS PROVIDED "AS-IS" AND ALL WARRANTIES ARE EXPRESSLY DISCLAIMED, WHETHER
#EXPRESS, ORAL, IMPLIED, STATUTORY OR OTHERWISE, INCLUDING ANY IMPLIED WARRANTY OF FITNESS
#FOR A PARTICULAR PURPOSE, MERCHANTABILITY, TITLE OR NON-INFRINGEMENT, AND ANY WARRANTIES
#ARISING BY VIRTUE OF CUSTOM OF TRADE OR COURSE OF DEALING.  FURTHER, ENVERUS, INC.
#AND ITS LICENSORS DO NOT REPRESENT OR WARRANT THAT THIS FILE WILL MEET USER'S
#REQUIREMENTS OR ARE SUITABLE FOR USER'S NEEDS OR THAT THE DATA OR RESULTS PROVIDED IN
#CONJUNCTION THEREWITH ARE CORRECT, ACCURATE, TIMELY OR RELIABLE. THESE DISCLAIMERS SHALL
#APPLY REGARDLESS OF ANY FAILURE OF ESSENTIAL PURPOSE OF ANY LIMITED REMEDY.  SOME
#JURISDICTIONS DO NOT ALLOW THE EXCLUSION OF CERTAIN WARRANTIES SO SOME OF THE ABOVE
#EXCLUSIONS MAY NOT APPLY. IN NO EVENT SHALL ENVERUS, INC. OR ANY OF ITS AFFILIATES
#BE LIABLE UNDER ANY LEGAL THEORY, WHETHER IN TORT (INCLUDING WITHOUT LIMITATION
#NEGLIGENCE), CONTRACT, STRICT LIABILITY, STATUTORY OR OTHERWISE, FOR ANY SPECIAL,
#INCIDENTAL, CONSEQUENTIAL, EXEMPLARY, PUNITIVE OR INDIRECT DAMAGE OF ANY KIND, INCLUDING
#WITHOUT LIMITATION LOSS OF REVENUE, PROFITS, GOODWILL, USE, AND/OR DATA OR THE COST OF
#PROCUREMENT OF SUBSTITUTE GOODS OR SERVICES, EVEN IF APPRISED OF THE POSSIBILITY OF SUCH
#DAMAGES IN ADVANCE.
#--------------------------------------------------#

~VERSION INFORMATION
VERS. 2.0 : CWLS LOG ASCII STANDARD - VERSION 2.0
WRAP.  NO : ONE LINE PER DEPTH STEP
~WELL INFORMATION
#MNEMONIC     .UNIT              VALUE :DESCRIPTION
STRT       .FT                0 :START DEPTH
STOP       .FT                15770 :STOP DEPTH
STEP       .FT                   0.500 :STEP
NULL       .                  -999.250 :NULL
UWI        .              42389309020000 :UNIQUE WELL ID
API        .              42389309020000 :API NUMBER
COMP       .         WALSH & WATTS  INC. :COMPANY
WELL       .        SABRE  1WS :WELL
DATE       .                28-JAN-1987 :LOG DATE
~CURVE INFORMATION
#MNEMONIC     .UNIT      API CODE :CURVE DESCRIPTION
DEPTH       .FT                      :MEASURED DEPTH
CAL.INCH        UNKNOWN   :CAL
DT.US/FT        UNKNOWN   :DT
GR.API        UNKNOWN   :GR
~A    DEPTH    CAL    DT    GR
# ...
 109     -999.250   57.079   37.914
 109.5     -999.250   57.114   38.67
 110     -999.250   57.15   39.427
 110.5     -999.250   57.177   40.183
 111     -999.250   57.167   39.651
 111.5     -999.250   57.157   38.102
 112     -999.250   57.146   36.552
 112.5     -999.250   57.136   35.046
 113     -999.250   57.125   35.843
 113.5     -999.250   57.145   36.64
 114     -999.250   57.174   37.437
 114.5     -999.250   57.203   36.485
 115     -999.250   57.232   35.501
 115.5     -999.250   57.261   34.681
 116     -999.250   57.29   35.521
 116.5     -999.250   57.319   36.113
 117     -999.250   57.348   35.516
 117.5     -999.250   57.377   34.919
 118     -999.250   57.35   35.793
 118.5     -999.250   57.312   38.514
 119     -999.250   57.275   41.005
 119.5     -999.250   57.238   40.117
 120     -999.250   57.201   38.099
 120.5     -999.250   57.164   34.738
 121     -999.250   57.127   31.378
 121.5     -999.250   57.09   29.22
 122     -999.250   57.167   29.244
 122.5     -999.250   57.292   29.873
 123     -999.250   57.362   30.503
 123.5     -999.250   57.203   31.132
 124     -999.250   57.165   31.549
 124.5     -999.250   57.195   30.066
 125     -999.250   57.199   28.582
 125.5     -999.250   57.178   27.098
 126     -999.250   57.157   25.614
 126.5     -999.250   57.136   24.13
 127     -999.250   57.115   23.019
 127.5     -999.250   57.094   22.183
 128     -999.250   57.123   24.191
 128.5     -999.250   57.158   26.199
 129     -999.250   57.192   28.207
 129.5     -999.250   57.187   30.19
 130     -999.250   57.028   32.173
 130.5     -999.250   56.918   34.155
 131     -999.250   56.944   36.095
 131.5     -999.250   56.97   35.747
 132     -999.250   57.073   35.049
 132.5     -999.250   57.203   33.339
 133     -999.250   57.332   31.629
 133.5     -999.250   57.112   29.207
 134     -999.250   56.842   26.783
 134.5     -999.250   56.696   25.37
 135     -999.250   56.549   27.552
 135.5     -999.250   58.087   30.597
 136     -999.250   58.732   30.684
 136.5     -999.250   59.329   30.771
 137     -999.250   59.346   32.269
 137.5     -999.250   57.486   34.145
 138     -999.250   57.192   36.021
 138.5     -999.250   57.167   36.927
 139     -999.250   57.257   36.636
 139.5     -999.250   57.347   36.345
 140     -999.250   57.369   36.054
 140.5     -999.250   56.69   38.266
 141     -999.250   56.662   40.234
 141.5     -999.250   57.012   39.977
 142     -999.250   57.052   40.406
 142.5     -999.250   57.091   41.355
 143     -999.250   57.131   41.032
 143.5     -999.250   57.17   40.033
 144     -999.250   57.09   39.033
 144.5     -999.250   56.904   39.423
 145     -999.250   56.79   40.74
 145.5     -999.250   56.951   42.058
 146     -999.250   57.113   43.375
 146.5     -999.250   57.274   43.111
 147     -999.250   57.363   41.825
 147.5     -999.250   57.305   40.436
 148     -999.250   57.212   39.661
 148.5     -999.250   56.972   39.409
 149     -999.250   56.733   39.071
 149.5     -999.250   56.914   38.716
 150     -999.250   57.057   38.366
 150.5     -999.250   56.994   38.08
 151     -999.250   56.976   36.847
 151.5     -999.250   57.031   35.037
 152     -999.250   57.085   33.272
 152.5     -999.250   57.14   32.51
 153     -999.250   57.086   32.263
 153.5     -999.250   57.019   32.681
 154     -999.250   56.953   33.537
 154.5     -999.250   56.909   34.927
 155     -999.250   56.947   37.704
 155.5     -999.250   56.985   40.48
 156     -999.250   57.023   40.372
 156.5     -999.250   57.062   35.659
 157     -999.250   57.094   31.359
 157.5     -999.250   57.102   31.438
 158     -999.250   57.109   33.458
 158.5     -999.250   57.117   35.477
 159     -999.250   57.124   35.828
 159.5     -999.250   57.131   35.056
 160     -999.250   57.139   34.284
 160.5     -999.250   57.146   33.511
 161     -999.250   57.154   34.057
 161.5     -999.250   57.161   34.537
 162     -999.250   57.129   33.791
 162.5     -999.250   57.055   33.044
 163     -999.250   56.981   32.398
 163.5     -999.250   56.908   36.349
 164     -999.250   56.834   41.645
 164.5     -999.250   56.76   41.279
 165     -999.250   56.782   40.913
 165.5     -999.250   56.849   39.912
 166     -999.250   56.916   38.885
 166.5     -999.250   56.983   37.089
 167     -999.250   57.05   34.081
 167.5     -999.250   57.116   32.054
 168     -999.250   57.183   30.976
 168.5     -999.250   57.224   31.368
 169     -999.250   57.084   33.125
 169.5     -999.250   56.944   34.06
 170     -999.250   56.804   32.945
 170.5     -999.250   56.664   31.83
 171     -999.250   56.585   31.233
 171.5     -999.250   56.663   31.057
 172     -999.250   56.74   30.881
 172.5     -999.250   56.817   30.717
 173     -999.250   56.879   30.994
 173.5     -999.250   56.88   31.271
 174     -999.250   56.881   31.692
 174.5     -999.250   56.8   32.959
 175     -999.250   56.683   33.704
 175.5     -999.250   56.566   33.636
 176     -999.250   56.463   33.569
 176.5     -999.250   57.213   34.481
 177     -999.250   57.107   39.632
 177.5     -999.250   57.013   43.28
 178     -999.250   57.014   43.39
 178.5     -999.250   56.954   41.456
 179     -999.250   56.595   39.521
 179.5     -999.250   57.429   37.82
 180     -999.250   59.011   36.138
 180.5     -999.250   58.772   32.411
 181     -999.250   59.022   30.025
 181.5     -999.250   58.699   29.843
 182     -999.250   57.924   30.653
 182.5     -999.250   57.149   31.548
 183     -999.250   56.9   32.443
 183.5     -999.250   56.754   33.362
 184     -999.250   56.62   34.522
 184.5     -999.250   57.751   35.061
 185     -999.250   56.84   32.706
 185.5     -999.250   56.7   30.352
 186     -999.250   56.754   29.47
 186.5     -999.250   56.809   29.701
 187     -999.250   56.863   30.458
 187.5     -999.250   56.918   31.214
 188     -999.250   56.972   31.971
 188.5     -999.250   56.828   32.697
 189     -999.250   56.681   33.256
 189.5     -999.250   56.657   34.987
 190     -999.250   56.772   37.179
 190.5     -999.250   56.888   39.371
 191     -999.250   56.827   38.756
 191.5     -999.250   56.708   37.672
 192     -999.250   56.588   38.209
 192.5     -999.250   56.58   40.55
 193     -999.250   56.63   44.392
 193.5     -999.250   56.702   47.71
 194     -999.250   56.907   47.231
 194.5     -999.250   57.11   44.011
 195     -999.250   56.966   41.241
 195.5     -999.250   56.821   42.038
 196     -999.250   56.718   42.835
 196.5     -999.250   56.62   43.19
 197     -999.250   56.584   41.508
 197.5     -999.250   56.659   39.827
 198     -999.250   56.734   38.886
 198.5     -999.250   56.809   39.863
 199     -999.250   56.884   40.84
 199.5     -999.250   56.868   41.818
 200     -999.250   56.655   40.666
 200.5     -999.250   56.443   38.867
 201     -999.250   56.347   37.069
 201.5     -999.250   56.419   36.731
 202     -999.250   56.491   38.776
 202.5     -999.250   56.564   40.82
 203     -999.250   56.482   42.864
 203.5     -999.250   56.387   44.908
 204     -999.250   56.418   44.415
 204.5     -999.250   56.444   43.728
 205     -999.250   56.325   43.041
 205.5     -999.250   56.305   42.398
 206     -999.250   56.387   42.288
 206.5     -999.250   56.468   42.452
 207     -999.250   56.549   44.146
 207.5     -999.250   56.63   45.84
 208     -999.250   56.629   45.011
 208.5     -999.250   56.613   43.408
 209     -999.250   56.597   42.171
 209.5     -999.250   56.581   41.187
 210     -999.250   56.566   40.202
 210.5     -999.250   56.55   40.474
 211     -999.250   56.534   41.409
 211.5     -999.250   56.482   42.474
 212     -999.250   56.392   43.539
 212.5     -999.250   56.302   43.658
 213     -999.250   56.467   43.06
 213.5     -999.250   56.56   42.086
 214     -999.250   56.167   41.942
 214.5     -999.250   56.291   41.797
 215     -999.250   56.415   41.633
 215.5     -999.250   56.433   41.449
 216     -999.250   56.36   40.458
 216.5     -999.250   56.287   36.994
 217     -999.250   56.215   33.746
 217.5     -999.250   56.142   33.934
