#--------------------------------------------------#
#-------------------ENVERUS, INC.------------------#
#------------------WWW.ENVERUS.COM-----------------#
#------------------COPYRIGHT 2020------------------#
#--------------------------------------------------#
#THIS FILE MAY BE USED ONLY IN ACCORDANCE WITH A CURRENT SUBSCRIPTION AGREEMENT BETWEEN
#THE USER AND ENVERUS, INC. NO PART OF THIS FILE MAY BE REPRODUCED, USED, COPIED,
#MODIFIED, PROPAGATED, OR DISTRIBUTED EXCEPT IN ACCORDANCE WITH THE SUBSCRIPTION
#AGREEMENT. UNAUTHORIZED USE OR DISTRIBUTION OF ALL OR ANY PART OF THIS FILE MAY VIOLATE
#COPYRIGHT, TRADEMARK, AND/OR OTHER LAWS AND IS SUBJECT TO CIVIL AS WELL AS CRIMINAL
#SANCTIONS.
#--------------------------------------------------#
#THIS FILE IS PROVIDED "AS-IS" AND ALL WARRANTIES ARE EXPRESSLY DISCLAIMED, WHETHER
#EXPRESS, ORAL, IMPLIED, STATUTORY OR OTHERWISE, INCLUDING ANY IMPLIED WARRANTY OF FITNESS
#FOR A PARTICULAR PURPOSE, MERCHANTABILITY, TITLE OR NON-INFRINGEMENT, AND ANY WARRANTIES
#ARISING BY VIRTUE OF CUSTOM OF TRADE OR COURSE OF DEALING.  FURTHER, ENVERUS, INC.
#AND ITS LICENSORS DO NOT REPRESENT OR WARRANT THAT THIS FILE WILL MEET USER'S
#REQUIREMENTS OR ARE SUITABLE FOR USER'S NEEDS OR THAT THE DATA OR RESULTS PROVIDED IN
#CONJUNCTION THEREWITH ARE CORRECT, ACCURATE, TIMELY OR RELIABLE. THESE DISCLAIMERS SHALL
#APPLY REGARDLESS OF ANY FAILURE OF ESSENTIAL PURPOSE OF ANY LIMITED REMEDY.  SOME
#JURISDICTIONS DO NOT ALLOW THE EXCLUSION OF CERTAIN WARRANTIES SO SOME OF THE ABOVE
#EXCLUSIONS MAY NOT APPLY. IN NO EVENT SHALL ENVERUS, INC. OR ANY OF ITS AFFILIATES
#BE LIABLE UNDER ANY LEGAL THEORY, WHETHER IN TORT (INCLUDING WITHOUT LIMITATION
#NEGLIGENCE), CONTRACT, STRICT LIABILITY, STATUTORY OR OTHERWISE, FOR ANY SPECIAL,
#INCIDENTAL, CONSEQUENTIAL, EXEMPLARY, PUNITIVE OR INDIRECT DAMAGE OF ANY KIND, INCLUDING
#WITHOUT LIMITATION LOSS OF REVENUE, PROFITS, GOODWILL, USE, AND/OR DATA OR THE COST OF
#PROCUREMENT OF SUBSTITUTE GOODS OR SERVICES, EVEN IF APPRISED OF THE POSSIBILITY OF SUCH
#DAMAGES IN ADVANCE.
#--------------------------------------------------#

~VERSION INFORMATION
VERS. 2.0 : CWLS LOG ASCII STANDARD - VERSION 2.0
WRAP.  NO : ONE LINE PER DEPTH STEP
~WELL INFORMATION
#MNEMONIC     .UNIT              VALUE :DESCRIPTION
STRT       .FT                0 :START DEPTH
STOP       .FT                15761 :STOP DEPTH
STEP       .FT                   0.500 :STEP
NULL       .                  -999.250 :NULL
UWI        .              42389302550000 :UNIQUE WELL ID
API        .              42389302550000 :API NUMBER
COMP       .         COASTAL STATES GAS PROD. CO. :COMPANY
WELL       .        CHAPMAN  MCGUIRE & WYNNE  3B :WELL
DATE       .                            :LOG DATE
~CURVE INFORMATION
#MNEMONIC     .UNIT      API CODE :CURVE DESCRIPTION
DEPTH       .FT                      :MEASURED DEPTH
GR.API        UNKNOWN   :GR
DT.US/FT        UNKNOWN   :DT
CAL.INCH        UNKNOWN   :CAL
~A    DEPTH    GR    DT    CAL
# ...
 3950     32.598   -999.250   -999.250
 3950.5     31.035   -999.250   -999.250
 3951     29.472   -999.250   -999.250
 3951.5     32.223   -999.250   -999.250
 3952     35.494   -999.250   -999.250
 3952.5     38.766   -999.250   -999.250
 3953     41.107   -999.250   -999.250
 3953.5     38.074   -999.250   -999.250
 3954     35.041   -999.250   -999.250
 3954.5     32.008   -999.250   -999.250
 3955     29.556   -999.250   -999.250
 3955.5     27.524   -999.250   -999.250
 3956     25.493   -999.250   -999.250
 3956.5     23.523   -999.250   -999.250
 3957     23.855   -999.250   -999.250
 3957.5     25.291   -999.250   -999.250
 3958     26.795   -999.250   -999.250
 3958.5     28.299   -999.250   -999.250
 3959     29.803   -999.250   -999.250
 3959.5     32.41   -999.250   -999.250
 3960     35.659   -999.250   -999.250
 3960.5     38.908   -999.250   -999.250
 3961     42.157   -999.250   -999.250
 3961.5     44.735   -999.250   -999.250
 3962     40.038   -999.250   -999.250
 3962.5     35.341   -999.250   -999.250
 3963     32.275   -999.250   -999.250
 3963.5     32.665   -999.250   -999.250
 3964     33.055   -999.250   -999.250
 3964.5     33.445   -999.250   -999.250
 3965     33.835   -999.250   -999.250
 3965.5     32.992   -999.250   -999.250
 3966     31.667   -999.250   -999.250
 3966.5     31.295   -999.250   -999.250
 3967     31.737   -999.250   -999.250
 3967.5     30.343   -999.250   -999.250
 3968     28.779   -999.250   -999.250
 3968.5     27.215   83.568   -999.250
 3969     28.923   78.653   -999.250
 3969.5     30.933   79.613   -999.250
 3970     32.943   80.51   -999.250
 3970.5     34.62   81.353   -999.250
 3971     34.442   82.418   -999.250
 3971.5     34.263   85.368   -999.250
 3972     34.085   86.25   -999.250
 3972.5     34.152   87.843   -999.250
 3973     36.994   89.616   -999.250
 3973.5     39.835   91.389   -999.250
 3974     40.419   91.022   -999.250
 3974.5     39.901   90.026   -999.250
 3975     39.383   88.887   -999.250
 3975.5     38.865   87.498   -999.250
 3976     38.347   86.43   -999.250
 3976.5     39.54   86.871   -999.250
 3977     41.214   86.435   -999.250
 3977.5     42.888   84.745   -999.250
 3978     43.871   82.91   -999.250
 3978.5     44.293   80.894   -999.250
 3979     44.715   79.463   -999.250
 3979.5     45.138   80.816   -999.250
 3980     45.56   80.329   -999.250
 3980.5     45.982   80.394   -999.250
 3981     45.359   80.92   -999.250
 3981.5     44.035   81.447   -999.250
 3982     42.71   80.031   -999.250
 3982.5     41.386   78.642   -999.250
 3983     41.363   79.402   -999.250
 3983.5     42.586   78.056   -999.250
 3984     43.81   75.725   -999.250
 3984.5     44.577   74.032   -999.250
 3985     43.313   73.925   -999.250
 3985.5     41.081   70.91   -999.250
 3986     38.849   67.791   -999.250
 3986.5     36.616   64.672   -999.250
 3987     35.054   61.553   -999.250
 3987.5     33.565   58.434   -999.250
 3988     30.786   58.947   -999.250
 3988.5     27.691   59.529   -999.250
 3989     27.026   59.37   -999.250
 3989.5     26.36   58.609   -999.250
 3990     25.695   57.671   -999.250
 3990.5     26.168   55.637   -999.250
 3991     26.907   53.604   -999.250
 3991.5     28.013   52.84   -999.250
 3992     29.723   52.519   -999.250
 3992.5     31.434   53.916   -999.250
 3993     33.144   55.849   -999.250
 3993.5     34.855   57.781   -999.250
 3994     35.608   58.238   -999.250
 3994.5     35.523   58.479   -999.250
 3995     35.438   58.086   -999.250
 3995.5     35.353   56.107   -999.250
 3996     35.502   55.175   -999.250
 3996.5     36.631   56.134   -999.250
 3997     37.761   57.158   -999.250
 3997.5     38.89   59.332   -999.250
 3998     44.251   61.506   -999.250
 3998.5     48.296   63.435   -999.250
 3999     51.852   65.458   -999.250
 3999.5     51.544   68.25   -999.250
 4000     51.235   70.44   -999.250
 4000.5     50.927   73.15   -999.250
 4001     48.33   75.585   -999.250
 4001.5     43.44   75.942   -999.250
 4002     38.901   74.725   -999.250
 4002.5     35.232   73.508   -999.250
 4003     34.5   72.776   -999.250
 4003.5     34.055   73.138   -999.250
 4004     34.024   72.776   -999.250
 4004.5     34.467   72.012   -999.250
 4005     35.009   71.497   -999.250
 4005.5     38.772   71.465   -999.250
 4006     42.535   72.854   -999.250
 4006.5     46.297   74.244   -999.250
 4007     49.278   75.345   -999.250
 4007.5     50.39   74.809   -999.250
 4008     50.749   74.273   -999.250
 4008.5     50.747   73.738   -999.250
 4009     51.956   72.951   -999.250
 4009.5     54.342   71.901   -999.250
 4010     56.768   70.381   -999.250
 4010.5     59.607   69.353   15.71
 4011     62.445   71.459   15.666
 4011.5     64.265   72.535   15.623
 4012     64.576   71.753   15.58
 4012.5     62.813   72.575   15.541
 4013     61.05   71.752   15.504
 4013.5     59.566   69.965   15.468
 4014     62.836   71.36   15.431
 4014.5     65.432   71.275   15.394
 4015     64.988   70.61   15.357
 4015.5     62.733   69.75   15.345
 4016     59.02   69.504   15.334
 4016.5     55.308   70.94   15.322
 4017     52.126   71.756   15.311
 4017.5     50.539   71.997   15.3
 4018     48.951   72.238   15.288
 4018.5     49.031   73.414   15.277
 4019     50.199   74.661   15.266
 4019.5     49.313   77.421   15.271
 4020     46.388   80.282   15.288
 4020.5     41.749   82.895   15.305
 4021     37.471   84.057   15.323
 4021.5     39.369   85.218   15.34
 4022     41.268   83.877   15.357
 4022.5     43.167   80.846   15.374
 4023     43.05   78.908   15.411
 4023.5     42.517   78.777   15.453
 4024     42.137   81.496   15.457
 4024.5     42.985   84.216   15.433
 4025     43.834   86.936   15.41
 4025.5     44.233   88.922   15.386
 4026     41.859   88.978   15.39
 4026.5     42.027   88.024   15.412
 4027     42.95   86.969   15.434
 4027.5     43.873   86.492   15.456
 4028     44.44   86.755   15.478
 4028.5     43.996   87.03   15.5
 4029     43.551   87.314   15.517
 4029.5     42.507   87.597   15.522
 4030     41.328   88.458   15.526
 4030.5     41.168   88.837   15.53
 4031     42.736   88.543   15.534
 4031.5     42.57   88.267   15.538
 4032     42.403   87.119   15.504
 4032.5     42.075   86.258   15.456
 4033     41.719   86.65   15.408
 4033.5     41.363   87.043   15.36
 4034     41.006   86.562   15.328
 4034.5     43.016   84.317   15.33
 4035     45.706   81.794   15.331
 4035.5     48.395   79.271   15.332
 4036     52.622   77.063   15.333
 4036.5     55.599   76.78   15.334
 4037     56.111   76.497   15.335
 4037.5     56.623   76.35   15.336
 4038     57.135   76.474   15.338
 4038.5     57.747   76.598   15.339
 4039     58.36   76.722   15.34
 4039.5     58.973   76.85   15.341
 4040     58.603   77.058   15.342
 4040.5     57.113   77.267   15.343
 4041     55.624   77.476   15.344
 4041.5     54.135   77.968   15.346
 4042     52.673   78.564   15.347
 4042.5     51.436   79.16   15.348
 4043     50.199   79.756   15.349
 4043.5     48.962   80.351   15.355
 4044     47.754   80.947   15.362
 4044.5     48.238   81.333   15.368
 4045     48.722   81.654   15.375
 4045.5     49.12   81.975   15.382
 4046     47.531   81.842   15.389
 4046.5     46.772   81.585   15.395
 4047     46.408   81.584   15.402
 4047.5     46.044   82.144   15.409
 4048     45.059   81.829   15.416
 4048.5     43.797   79.674   15.422
 4049     42.535   79.445   15.429
 4049.5     41.273   80.952   15.436
 4050     40.011   82.566   15.449
 4050.5     38.749   87.985   15.486
 4051     38.709   92.495   15.523
 4051.5     39.63   92.151   15.56
 4052     42.318   91.807   15.598
 4052.5     43.407   96.262   15.635
 4053     42.669   97.138   15.672
 4053.5     41.919   88.811   15.709
 4054     40.594   88.796   15.746
 4054.5     39.269   88.278   15.787
 4055     38.034   88.854   15.833
 4055.5     40.951   87.726   15.878
 4056     43.868   84.956   15.892
 4056.5     46.785   82.05   15.843
 4057     47.345   79.4   15.794
 4057.5     47.343   78.488   15.768
