#--------------------------------------------------#
#-------------------ENVERUS, INC.------------------#
#------------------WWW.ENVERUS.COM-----------------#
#------------------COPYRIGHT 2020------------------#
#--------------------------------------------------#
#THIS FILE MAY BE USED ONLY IN ACCORDANCE WITH A CURRENT SUBSCRIPTION AGREEMENT BETWEEN
#THE USER AND ENVERUS, INC. NO PART OF THIS FILE MAY BE REPRODUCED, USED, COPIED,
#MODIFIED, PROPAGATED, OR DISTRIBUTED EXCEPT IN ACCORDANCE WITH THE SUBSCRIPTION
#AGREEMENT. UNAUTHORIZED USE OR DISTRIBUTION OF ALL OR ANY PART OF THIS FILE MAY VIOLATE
#COPYRIGHT, TRADEMARK, AND/OR OTHER LAWS AND IS SUBJECT TO CIVIL AS WELL AS CRIMINAL
#SANCTIONS.
#--------------------------------------------------#
#THIS FILE IS PROVIDED "AS-IS" AND ALL WARRANTIES ARE EXPRESSLY DISCLAIMED, WHETHER
#EXPRESS, ORAL, IMPLIED, STATUTORY OR OTHERWISE, INCLUDING ANY IMPLIED WARRANTY OF FITNESS
#FOR A PARTICULAR PURPOSE, MERCHANTABILITY, TITLE OR NON-INFRINGEMENT, AND ANY WARRANTIES
#ARISING BY VIRTUE OF CUSTOM OF TRADE OR COURSE OF DEALING.  FURTHER, ENVERUS, INC.
#AND ITS LICENSORS DO NOT REPRESENT OR WARRANT THAT THIS FILE WILL MEET USER'S
#REQUIREMENTS OR ARE SUITABLE FOR USER'S NEEDS OR THAT THE DATA OR RESULTS PROVIDED IN
#CONJUNCTION THEREWITH ARE CORRECT, ACCURATE, TIMELY OR RELIABLE. THESE DISCLAIMERS SHALL
#APPLY REGARDLESS OF ANY FAILURE OF ESSENTIAL PURPOSE OF ANY LIMITED REMEDY.  SOME
#JURISDICTIONS DO NOT ALLOW THE EXCLUSION OF CERTAIN WARRANTIES SO SOME OF THE ABOVE
#EXCLUSIONS MAY NOT APPLY. IN NO EVENT SHALL ENVERUS, INC. OR ANY OF ITS AFFILIATES
#BE LIABLE UNDER ANY LEGAL THEORY, WHETHER IN TORT (INCLUDING WITHOUT LIMITATION
#NEGLIGENCE), CONTRACT, STRICT LIABILITY, STATUTORY OR OTHERWISE, FOR ANY SPECIAL,
#INCIDENTAL, CONSEQUENTIAL, EXEMPLARY, PUNITIVE OR INDIRECT DAMAGE OF ANY KIND, INCLUDING
#WITHOUT LIMITATION LOSS OF REVENUE, PROFITS, GOODWILL, USE, AND/OR DATA OR THE COST OF
#PROCUREMENT OF SUBSTITUTE GOODS OR SERVICES, EVEN IF APPRISED OF THE POSSIBILITY OF SUCH
#DAMAGES IN ADVANCE.
#--------------------------------------------------#

# EXPORTED FROM DI TRANSFORM
# DI TRANSFORM - A PRODUCT OF DRILLINGINFO, INC. - WWW.DRILLINGINFO.COM
#
~VERSION INFORMATION
 VERS.        2.0 : LAS ASCII STANDARD - VERSION 2.0
 WRAP.         NO : ONE LINE PER DEPTH STEP

~WELL INFORMATION
#MNEM.UNIT       DATA TYPE       INFORMATION
#---------       ---------       -----------
 STRT.FT          3310 : START DEPTH
 STOP.FT         11910 : STOP DEPTH
 STEP.FT           0.5 : STEP LENGTH
 NULL.         -999.25 : NULL VALUE
 UWI.   42389328760000 : UNIQUE WELL ID
 API.   42389328760000 : WELL IDENTIFIER
 COMP.                 : COMPANY
 WELL.          DRD_55 : WELL NAME
 FLD.                  : FIELD NAME
 LOC.                  : WELL LOCATION
 CNTY.                 : COUNTY
 STAT.                 : STATE OR PROVINCE
 CTRY.                 : COUNTRY
 SRVC.                 : SERVICE COMPANY
 DATE.                 : DATE

~CURVE INFORMATION
#MNEM.UNIT       API CODE       CURVE DESCRIPTION
#---------       --------       -----------------
 DEPT.FT        : <MEASURED DEPTH>
 CAL.IN         : CALIPER
 DT.US/FT       : SONIC
 GR.GAPI        : GAMMA RAY
 ILD.OHMM       : DEEP RESISTIVITY
 ILS.OHMM       : SHALLOW RESISTIVITY

~PARAMETER INFORMATION
#MNEM.UNIT       VALUE       DESCRIPTION
#---------       -----       -----------
 EKB.FT      3168.5 : ELEVATION ABOVE MSL

~A       DEPT         CAL          DT          GR         ILD         ILS
# ...
         6689      8.4701     61.4229      90.994   1076.7293    978.2182
       6689.5      8.4701     61.4229     96.9106   1176.7027   1142.9848
         6690      8.4701     61.4229    103.0351     849.679    733.6179
       6690.5      8.4701     61.4229     98.1989    529.6448    454.5861
         6691      8.4701     61.4229     88.4143     390.605    278.1687
       6691.5      8.4701     61.4229     82.4601    277.2891    233.1942
         6692      8.4701     61.4229     80.3471    200.9454    160.4156
       6692.5      8.4701     61.4229     81.3326    168.8621    137.5326
         6693      8.4701     61.4229      82.853    135.2122    114.1851
       6693.5      8.4701     61.3443     85.3737    110.0193     95.3603
         6694      8.4701     60.7971     82.9001     96.1144     82.0174
       6694.5      8.4701     59.7762     74.8632     92.3467     75.4485
         6695      8.4701     58.9528     69.8946     90.0195     79.4101
       6695.5      8.4701     58.9528     67.3139     90.6255     86.6922
         6696      8.4701     58.9528     65.2242     93.2432     90.2544
       6696.5      8.4701      59.048     63.2424     93.4047       90.44
         6697      8.4701     59.1876     62.1502       90.03     92.0326
       6697.5      8.4701     59.3272     64.6097     90.0195     95.3336
         6698      8.4701     59.3645     72.1099      86.627     94.1672
       6698.5      8.4701     60.1879     77.2813     82.1833     86.1932
         6699      8.4701     60.4551      83.322     76.5909     79.6409
       6699.5      8.4701     60.9063     87.3364     72.5186     69.8498
         6700      8.4701     61.4297     87.6169     69.1918     64.6308
       6700.5      8.4701     61.9294     84.5579     67.0008     62.7599
         6701      8.4701      62.501     85.2869     73.1256     67.3742
       6701.5      8.4701     63.0696    100.2181      89.236     86.5673
         6702      8.4701     65.3869    122.3554    121.3748    129.5794
       6702.5      8.4701     67.0286    142.3984    163.3997    210.4817
         6703      8.4701     67.9429    146.1294    296.4177     357.413
       6703.5      8.4701        68.4    149.6107    416.9419    413.2493
         6704      8.4701        68.4    154.6028      424.31    364.7054
       6704.5      8.4701     67.0286    141.5209     410.117    339.7213
         6705      8.4701     65.6927    109.6054    429.8404    353.4181
       6705.5      8.4701     62.2126     84.8829    495.4076    542.5207
         6706      8.4701     60.6286     79.5525    557.4884    554.6087
       6706.5      8.4701     60.1714     81.3729    677.3734    900.3261
         6707      8.4701     60.2923     83.5913   1003.3078   1374.1517
       6707.5      8.4701     60.6286     83.9165   1314.9652   1793.4321
         6708      8.4701     60.6286     89.4711   1466.9136   1564.3163
       6708.5      8.4701     61.0857    100.6164   1149.5056   1128.7843
         6709      8.4701     63.8286    122.4936    971.3438     840.743
       6709.5      8.4701     64.6022    125.1414    914.4119    800.6822
         6710      8.4701     66.4698    120.2794    959.6276    886.5701
       6710.5      8.4701     68.3375    117.7291   1023.1601    945.9474
         6711      8.4701     69.7481    120.5053   1076.9871   1019.5192
       6711.5      8.4701     70.2443    130.8242   1185.4504   1173.3748
         6712      8.4429     71.1429    156.4419    1268.204   1212.4676
       6712.5      8.4701     72.0571     167.896   1374.0031   1347.7418
         6713      8.4701     71.9241    155.9594   1450.5211   1434.3438
       6713.5      8.4701     70.6857    148.3574    1359.271   1330.9997
         6714      8.4701     69.7714    138.9848   1308.1612   1290.1195
       6714.5      8.4701     68.8571    124.1213    1261.642    1254.759
         6715      8.4701     68.1105     116.159   1322.3461   1268.1222
       6715.5      8.4701     67.9429    117.6188   1487.3306   1594.2729
         6716      8.4701     67.9429    121.0192   1704.8309   1935.8797
       6716.5      8.4701     67.9429    121.7842   1784.9433    1999.685
         6717      8.4701     67.4857    118.0715    867.2124   1668.7832
       6717.5      8.4701     67.0286    119.8287    790.3468    538.0201
         6718      8.4701     67.0286    134.1684    569.8907    384.8275
       6718.5      8.4701     67.4857    148.7125    260.7465    336.3962
         6719      8.4701      67.631     156.399    218.5905    207.4448
       6719.5      8.4701     69.0415    191.8887    208.3311    205.4635
         6720        8.51     70.2286    196.6275    253.1761    256.3815
       6720.5      8.4874        71.6    206.4152    286.2902    293.2531
         6721      8.4701     72.0571    234.2996    415.2474    945.8523
       6721.5      8.4701     72.5143    249.3449   1011.6819   1401.4702
         6722      8.4701     72.0688    232.4729   1289.4029   1392.3593
       6722.5      8.4701     72.5143    196.8689   1485.0341   1558.1026
         6723        8.51     72.0571    159.4923   1635.0235   1757.2844
       6723.5      8.4701     71.1027    144.0784   1782.1261   1879.3021
         6724      8.4701      69.235    143.0535   1790.3329   1942.4612
       6724.5      8.4701     67.3674    141.1786   1854.9532    1964.388
         6725      8.4701     66.1143    113.1666   1944.1946    1990.437
       6725.5      8.4701        65.2     105.069   1960.9674   1999.1969
         6726      8.4701     64.7429     127.882   1400.0014   1599.4765
       6726.5      8.4701     65.6571    203.5643   1258.1756    615.9882
         6727      8.4701     67.3425    214.6779    219.2549    613.5498
       6727.5      8.4701      68.753    180.1807    245.0946    651.2618
         6728      8.4701     68.8571    126.3312   1042.2864   1631.2897
       6728.5      8.4701     68.8571     97.7031        2000   1973.0322
         6729      8.4701     67.9429     88.2352        2000    1976.973
       6729.5      8.4701     67.4857     99.4244        2000   1984.8691
         6730      8.5062     67.4857    123.3841        2000   1999.1969
       6730.5        8.51     66.1143    137.5831        2000   1995.2565
         6731        8.51     65.6571    127.0391   1791.6022   1639.2159
       6731.5        8.51     65.6571    125.3827   1790.3329   1339.7912
         6732        8.51     65.6571    133.0377   1790.3329   1323.0906
       6732.5        8.51     66.1143    143.5411   1651.3266   1326.7375
         6733        8.51     66.8975    147.2733   1378.3312   1999.1969
       6733.5        8.51     67.9429    153.4151   1264.7648   1986.7055
         6734        8.51     69.7186    154.9355   1415.1848   1783.4343
       6734.5        8.51     71.1429    172.0187    1456.469   1465.6147
         6735      8.5238        71.6    175.9045    915.9054    902.9411
       6735.5      8.5498     72.0571      179.62     397.185     541.222
         6736      8.5498     72.0571    187.1043    293.8816    317.1782
       6736.5      8.5498     73.4286    190.6003    210.9244    162.8177
         6737      8.5498     73.8857    209.8193    175.3554    158.0359
       6737.5      8.5498     73.8857    199.5612    197.8231    201.2594
         6738      8.5498     73.8857    194.8353    354.2454    365.3456
       6738.5        8.51     72.9714     180.277    779.3225    810.4119
         6739        8.51     71.1429    153.1986   1727.0055   1988.7502
       6739.5        8.51     67.4273    130.7151   1987.3763        2000
         6740        8.51     63.4121    106.8128   1987.3763        2000
       6740.5      8.4569        65.2     109.856   1991.5705   1996.2865
         6741       8.505     64.7429    126.3673   1845.4832   1779.7844
       6741.5      8.5267     64.7429    136.7625   1589.5581   1529.2738
         6742      8.5498     64.7429    130.3952   1377.2121   1219.1142
       6742.5      8.5498        65.2    116.4608   1287.4167   1363.9728
         6743      8.5498     64.7429     97.8658   1970.3515   1990.9424
