###############################################
##         ENVERUS                           ##
##         ESS - Open Hole                   ##
##         PERMIAN / DELAWARE                ##
##         Nov 04 2023  V4.0                 ##
##         42-389-32245-00-00                ##
###############################################
## Copyright 2017-2023  ENVERUS.  All Rights Reserved. 
## Confidential - Property of ENVERUS, use governed by terms and 
## conditions found within the existing Information Services Subscription Agreement 
## (as may be amended, the “ISSA”) between Customer and ENVERUS. 
## 
~VERSION INFORMATION
# MNEM.UNIT                               DATA : DESCRIPTION OF MNEMONIC
#-----.-----     ----------------------------- : -----------------------------
VERS.                                     2.00 : CWLS LOG ASCII STANDARD - VERSION 2.00
WRAP.                                       NO : MULTIPLE LINES PER DEPTH STEP
VEND.                                  ENVERUS : VENDOR
TYPE.                          ESS - OPEN HOLE : ENVERUS ESSENTIAL CURVES – ACCESSIBLE THROUGH ENVERUS PRISM(TM)
DOC.                                  24742630 : ENVERUS HEADER RAW DOCUMENT ID
#___________________________________________________________________________________________________ 
~WELL INFORMATION 
# u9Wg0OWXiPz858M7Kubpm0lpDPxjGuyhH3tqBPDGtvBYDDDqGrwiIchrhDPbdkpmsDZNCKsM7+2eKUVstoQO7Q== 
# MNEM.UNIT                                              DATA : DESCRIPTION OF MNEMONIC 
#-----.-----                    ----------------------------- : ----------------------------- 
CNTY.                                                  REEVES : COUNTY 
STATE.                                                  TEXAS : STATE 
CNTRY.                                                    USA : COUNTRY 
API.                                             42-389-32245 : API (10 Digit) 
API_14.                                    42-389-32245-00-00 : API (14 Digits) 
API_14_std.                                 42-389-32245-0000 : API (14 Digits Standard) 
UWI.                                           42389322450000 : UNIQUE WELL ID 
WELL.                          TEXAS PACIFIC LAND TRUST #25-1 : WELL NAME
STRT.FT                                                2530.0 : START DEPTH
STOP.FT                                               10610.0 : STOP DEPTH
STEP.FT                                                   0.5 : STEP BETWEEN DEPTHS
NULL.                                                 -999.25 : NULL VALUE
COMP.                                             CONOCO INC. : COMPANY 
FLD.                                            FORD WOLFCAMP : FIELD 
LOC.                                                 25-2S-58 : LOCATION 
SRVC.                                            SCHLUMBERGER : SERVICE COMPANY 
DATE.                                              03/21/2002 : DATE 
TVD.                                                       NO : TVD FLAG
#___________________________________________________________________________________________________ 
~PARAMETER INFORMATION 
# MNEM.UNIT                                              DATA : DESCRIPTION OF MNEMONIC 
#-----.-----                    ----------------------------- : ----------------------------- 
RUN.                                                      ONE : RUN NUMBER 
PDAT.                                                      GL : PERMANENT DATUM 
EPD.FT                                              2993.0000 : ELEVATION OF PERM. DATUM 
LMF.                                            KELLY BUSHING : LOG MEASURED FROM 
EKB.FT                                              3021.0000 : ELEVATION OF KELLY BUSHING 
DF.FT                                               3020.0000 : ELEVATION OF DERRICK FLOOR 
GL.FT                                               2993.0000 : ELEVATION OF GROUND LEVEL 
TD.FT                                              10610.0000 : TOTAL DEPTH 
BHT.DEGF                                               130.00 : BOTTOM HOLE TEMPERATURE 
BLI.FT                                             10610.0000 : BOTTOM LOG INTERVAL 
CSGSIZE.IN                                             9.6250 : CASING SIZE 
BITSIZE.IN                                              8.750 : BITSIZE 
CSGD.FT                                                  2642 : CASING BOTTOM (DRILLER) 1 
CSGL.FT                                                  2538 : CASING BOTTOM (LOGGER) 1 
MUD.                                                CUT BRINE : DRILLING FLUID TYPE 
MUDV.CP                                               28.0000 : DRILLING FLUID VISCOSITY 
MUDD.LB/USG                                           10.0000 : DRILLING FLUID DENSITY 
PH.                                                    8.5000 : DRILLING FLUID PH 
MUDS.                                        CIRCULATION TANK : MUD SAMPLE SOURCE 
RM.OHMM                                                0.0610 : RESISTIVITY OF MUD SAMPLE 
RMT.DEGF                                              75.0000 : MUD SAMPLE TEMPERATURE 
RMF.OHMM                                               0.0610 : MUD FILTRATE RESISTIVITY 
RMFT.DEGF                                             75.0000 : MUD FILTRATE SAMPLE TEMPERATURE
#___________________________________________________________________________________________________ 
~CURVE INFORMATION 
# MNEM.UNIT           : CURVE DESCRIPTION 
#-----.-----          : ----------------------------- 
 DEPT.FT               : MEASURED DEPTH 
 CALI.IN               : CALIPER (CALIPER) 
 GR.API                : GAMMA RAY (GAMMA RAY) 
 DT.US/FT              : SONIC DELTA TRANSIT TIME (DELTA T) 
 SPHI.V/V              : SONIC POROSITY (SONIC POROSITY) 
 #___________________________________________________________________________________________________ 
~A         DEPT           CALI             GR             DT           SPHI
# ...
        10533.0          8.720        121.960         84.070        0.26000
        10533.5          8.730        138.540         88.160        0.29000
        10534.0          8.740        141.180         87.710        0.28000
        10534.5          8.730        134.970         86.730        0.28000
        10535.0          8.670        129.690         88.000        0.29000
        10535.5          8.620        125.130         89.520        0.30000
        10536.0          8.610        133.710         91.030        0.30000
        10536.5          8.620        143.990         92.470        0.30000
        10537.0          8.640        154.260         92.530        0.30000
        10537.5          8.650        158.890         91.330        0.30000
        10538.0          8.660        161.650         88.700        0.29000
        10538.5          8.650        153.860         86.070        0.27000
        10539.0          8.650        147.000         84.670        0.26000
        10539.5          8.640        140.120         84.320        0.26000
        10540.0          8.640        135.010         85.050        0.27000
        10540.5          8.640        131.620         85.860        0.28000
        10541.0          8.650        128.420         87.290        0.28000
        10541.5          8.660        128.800         88.720        0.30000
        10542.0          8.670        131.400         89.990        0.30000
        10542.5          8.670        134.480         90.320        0.30000
        10543.0          8.680        137.960         89.600        0.29000
        10543.5          8.690        141.450         88.880        0.29000
        10544.0          8.700        145.020         88.650        0.29000
        10544.5          8.710        145.420         88.810        0.29000
        10545.0          8.720        145.680         89.540        0.30000
        10545.5          8.730        147.060         90.710        0.30000
        10546.0          8.730        154.320         91.950        0.30000
        10546.5          8.730        157.970         91.950        0.30000
        10547.0          8.740        154.400         90.340        0.30000
        10547.5          8.740        148.830         89.460        0.30000
        10548.0          8.740        143.230         89.720        0.30000
        10548.5          8.750        138.300         90.740        0.30000
        10549.0          8.730        143.060         91.820        0.30000
        10549.5          8.710        147.850         91.050        0.30000
        10550.0          8.700        150.880         89.730        0.29000
        10550.5          8.680        141.220         88.860        0.29000
        10551.0          8.670        133.770         89.310        0.30000
        10551.5          8.660        132.260         90.250        0.30000
        10552.0          8.650        130.540         90.320        0.30000
        10552.5          8.630        127.410         90.320        0.30000
        10553.0          8.620        124.350         88.510        0.28000
        10553.5          8.610        121.250         86.510        0.27000
        10554.0          8.600        121.170         85.100        0.28000
        10554.5          8.590        127.920         88.910        0.30000
        10555.0          8.640        135.610         92.420        0.30000
        10555.5          8.680        142.850         93.970        0.30000
        10556.0          8.720        144.340         93.480        0.30000
        10556.5          8.750        143.240         92.520        0.30000
        10557.0          8.750        142.900         91.560        0.30000
        10557.5          8.750        143.400         90.590        0.30000
        10558.0          8.750        145.560         90.400        0.30000
        10558.5          8.760        147.600         90.440        0.30000
        10559.0          8.760        149.230         89.690        0.30000
        10559.5          8.760        148.160         88.940        0.29000
        10560.0          8.760        146.020         88.550        0.29000
        10560.5          8.770        143.880         88.550        0.29000
        10561.0          8.770        141.120         88.730        0.29000
        10561.5          8.760        137.250         88.850        0.29000
        10562.0          8.760        133.400         88.670        0.29000
        10562.5          8.750        129.520         86.420        0.27000
        10563.0          8.740        127.810         84.280        0.25000
        10563.5          8.740       -999.250         82.230        0.25000
        10564.0          8.730       -999.250         82.680        0.25000
        10564.5          8.730       -999.250         83.640        0.26000
        10565.0          8.720       -999.250         84.350        0.26000
        10565.5          8.710       -999.250         85.170        0.27000
        10566.0          8.710       -999.250         86.680        0.28000
        10566.5          8.700       -999.250         87.580        0.28000
        10567.0          8.700       -999.250         84.820        0.25000
        10567.5          8.690       -999.250         82.010        0.23000
        10568.0          8.690       -999.250         80.460        0.25000
        10568.5          8.680       -999.250         84.340        0.27000
        10569.0          8.680       -999.250         86.070        0.28000
        10569.5          8.690       -999.250         86.610        0.28000
        10570.0          8.690       -999.250         88.040        0.29000
        10570.5          8.700       -999.250         88.740        0.29000
        10571.0          8.700       -999.250         85.640        0.26000
        10571.5          8.700       -999.250         81.520        0.23000
        10572.0          8.650       -999.250         79.290        0.24000
        10572.5          8.600       -999.250         82.620        0.26000
        10573.0          8.570       -999.250         85.510        0.28000
        10573.5          8.570       -999.250         87.590        0.29000
        10574.0          8.570       -999.250         89.320        0.30000
        10574.5          8.580       -999.250         91.040        0.30000
        10575.0          8.580       -999.250         91.490        0.30000
        10575.5          8.580       -999.250         92.190        0.30000
        10576.0          8.580       -999.250         92.790        0.30000
        10576.5          8.580       -999.250         90.630        0.30000
        10577.0          8.580       -999.250         87.880        0.28000
        10577.5          8.590       -999.250         86.570        0.27000
        10578.0          8.590       -999.250         84.910        0.25000
        10578.5          8.590       -999.250         82.180        0.22000
        10579.0          8.590       -999.250         76.850        0.19000
        10579.5          8.590       -999.250         73.950        0.21000
        10580.0          8.590       -999.250         79.300        0.25000
        10580.5          8.590       -999.250         85.000        0.29000
        10581.0          8.600       -999.250         88.960        0.30000
        10581.5          8.600       -999.250         89.600        0.30000
        10582.0          8.600       -999.250         89.300        0.29000
        10582.5          8.600       -999.250         88.880        0.29000
        10583.0          8.600       -999.250         88.500        0.29000
        10583.5          8.600       -999.250         89.630        0.30000
        10584.0          8.610       -999.250         90.060        0.30000
        10584.5          8.610       -999.250         89.810        0.30000
        10585.0          8.610       -999.250         89.400        0.29000
        10585.5          8.610       -999.250         88.390        0.29000
