#--------------------------------------------------#
#-------------------ENVERUS, INC.------------------#
#------------------WWW.ENVERUS.COM-----------------#
#------------------COPYRIGHT 2020------------------#
#--------------------------------------------------#
#THIS FILE MAY BE USED ONLY IN ACCORDANCE WITH A CURRENT SUBSCRIPTION AGREEMENT BETWEEN
#THE USER AND ENVERUS, INC. NO PART OF THIS FILE MAY BE REPRODUCED, USED, COPIED,
#MODIFIED, PROPAGATED, OR DISTRIBUTED EXCEPT IN ACCORDANCE WITH THE SUBSCRIPTION
#AGREEMENT. UNAUTHORIZED USE OR DISTRIBUTION OF ALL OR ANY PART OF THIS FILE MAY VIOLATE
#COPYRIGHT, TRADEMARK, AND/OR OTHER LAWS AND IS SUBJECT TO CIVIL AS WELL AS CRIMINAL
#SANCTIONS.
#--------------------------------------------------#
#THIS FILE IS PROVIDED "AS-IS" AND ALL WARRANTIES ARE EXPRESSLY DISCLAIMED, WHETHER
#EXPRESS, ORAL, IMPLIED, STATUTORY OR OTHERWISE, INCLUDING ANY IMPLIED WARRANTY OF FITNESS
#FOR A PARTICULAR PURPOSE, MERCHANTABILITY, TITLE OR NON-INFRINGEMENT, AND ANY WARRANTIES
#ARISING BY VIRTUE OF CUSTOM OF TRADE OR COURSE OF DEALING.  FURTHER, ENVERUS, INC.
#AND ITS LICENSORS DO NOT REPRESENT OR WARRANT THAT THIS FILE WILL MEET USER'S
#REQUIREMENTS OR ARE SUITABLE FOR USER'S NEEDS OR THAT THE DATA OR RESULTS PROVIDED IN
#CONJUNCTION THEREWITH ARE CORRECT, ACCURATE, TIMELY OR RELIABLE. THESE DISCLAIMERS SHALL
#APPLY REGARDLESS OF ANY FAILURE OF ESSENTIAL PURPOSE OF ANY LIMITED REMEDY.  SOME
#JURISDICTIONS DO NOT ALLOW THE EXCLUSION OF CERTAIN WARRANTIES SO SOME OF THE ABOVE
#EXCLUSIONS MAY NOT APPLY. IN NO EVENT SHALL ENVERUS, INC. OR ANY OF ITS AFFILIATES
#BE LIABLE UNDER ANY LEGAL THEORY, WHETHER IN TORT (INCLUDING WITHOUT LIMITATION
#NEGLIGENCE), CONTRACT, STRICT LIABILITY, STATUTORY OR OTHERWISE, FOR ANY SPECIAL,
#INCIDENTAL, CONSEQUENTIAL, EXEMPLARY, PUNITIVE OR INDIRECT DAMAGE OF ANY KIND, INCLUDING
#WITHOUT LIMITATION LOSS OF REVENUE, PROFITS, GOODWILL, USE, AND/OR DATA OR THE COST OF
#PROCUREMENT OF SUBSTITUTE GOODS OR SERVICES, EVEN IF APPRISED OF THE POSSIBILITY OF SUCH
#DAMAGES IN ADVANCE.
#--------------------------------------------------#

# EXPORTED FROM TRANSFORM SOFTWARE 5.2.0 ON 31-MAY-2019 BY USER BRIAN.UMLANG
# DI TRANSFORM - A PRODUCT OF DRILLINGINFO, INC. - WWW.DRILLINGINFO.COM
#
~VERSION INFORMATION
 VERS.        2.0 : LAS ASCII STANDARD - VERSION 2.0
 WRAP.         NO : ONE LINE PER DEPTH STEP

~WELL INFORMATION
#MNEM.UNIT       DATA TYPE       INFORMATION
#---------       ---------       -----------
 STRT.FT                 256 : START DEPTH
 STOP.FT                4706 : STOP DEPTH
 STEP.FT                 0.5 : STEP LENGTH
 NULL.               -999.25 : NULL VALUE
 UWI.         42301312890000 : UNIQUE WELL ID
 API.         42301312890000 : WELL IDENTIFIER
 COMP.                       : COMPANY
 WELL.  42301312890000_API14 : WELL NAME
 FLD.                        : FIELD NAME
 LOC.                        : WELL LOCATION
 CNTY.                       : COUNTY
 STAT.                       : STATE OR PROVINCE
 CTRY.                       : COUNTRY
 SRVC.                       : SERVICE COMPANY
 DATE.                       : DATE

~CURVE INFORMATION
#MNEM.UNIT       API CODE       CURVE DESCRIPTION
#---------       --------       -----------------
 DEPT.FT          : <MEASURED DEPTH>
 CAL.IN           : CALIPER
 DPHI.%           : DENSITY POROSITY
 DT.US/FT         : SONIC
 GR.GAPI          : GAMMA RAY
 ILD.OHMM         : DEEP RESISTIVITY
 ILS.OHMM         : SHALLOW RESISTIVITY
 NPHI.%           : NEUTRON POROSITY
 PE.B/ELEC        : PHOTOELECTRIC FACTOR
 RHOB.G/CM3       : DENSITY

~PARAMETER INFORMATION
#MNEM.UNIT       VALUE       DESCRIPTION
#---------       -----       -----------
 EKB.FT      2822 : ELEVATION ABOVE MSL

~A      DEPT         CAL        DPHI          DT          GR         ILD         ILS        NPHI          PE        RHOB
# ...
      3371.5        8.76     11.9387     76.1636     109.001     16.3859     10.0754     18.4314      3.1355      2.5176
        3372      8.7031     11.4526     72.8674     87.4637     12.5841      8.6626      17.647      2.8955      2.5192
      3372.5         8.7     10.5091     68.0559     74.0417     11.8208       8.217     15.3262      2.7353      2.5328
        3373         8.7     10.2402     65.7613     61.0484     12.1262      8.5503     13.4538      2.6854      2.5444
      3373.5         8.7     10.9034     65.9923     61.6766     12.2391      8.8492     13.1072      2.6854      2.5363
        3374         8.7     11.8842     67.0404     62.6011     12.1262      8.7676     13.1696      2.6679      2.5183
      3374.5         8.7     13.4642      69.056     66.6436     11.2764      8.3506     13.5129      2.5663      2.5047
        3375         8.7     13.7483     69.8475     69.2678     10.4103      8.0141      13.797       2.485      2.4908
      3375.5         8.7     13.4568     70.1369     69.4611      10.075      7.7726     13.5197      2.4649      2.4897
        3376         8.7     12.9476     69.9347     69.4611     10.4126      7.7009     13.0213      2.4649      2.4936
      3376.5         8.7     12.4573     69.8196     70.2995     10.8312      8.2257     12.5325      2.4649      2.5065
        3377         8.7     11.8892     69.7306     73.6756     12.1593      8.9852     11.9971       2.505      2.5133
      3377.5         8.7     11.2822     69.6085      78.275      14.074     10.1687     11.3567       2.592      2.5219
        3378         8.7      10.773     69.4589     81.9275     15.8951     11.4283     10.8395      2.6453      2.5319
      3378.5         8.7     10.7157     69.4332     83.5329     17.2089     12.4681     10.7307      2.6854       2.536
        3379         8.7     11.5011     69.7037     82.1616     17.2442     12.3531     11.4753      2.6854      2.5256
      3379.5      8.6846     12.5796     70.1984     78.7749     16.3525     11.4847     15.8986      2.6854      2.5194
        3380        8.68     12.7377     70.5208     79.3122     15.5862     11.1653     16.7238      2.6854      2.5078
      3380.5        8.68     12.1682     71.1056     88.2103     16.4567     11.6802      17.526      2.7203      2.5064
        3381        8.64     11.4245     72.3152     107.717      27.609     14.2604     18.5843      2.8018      2.5217
      3381.5        8.62     11.4431     73.4009    133.8521     34.4798     25.9348     20.1829      2.9033      2.5272
        3382        8.62     12.3114     75.0292    144.6577     59.1166     33.5876     21.5721      2.9459       2.519
      3382.5        8.62     13.3336     76.7056    172.3799     72.4799     47.3861     22.9225      2.9459      2.5034
        3383      8.6041       14.12     77.9719    187.7688     74.6887     61.4703     23.4225      2.9459      2.4868
      3383.5        8.64     14.5171     78.9596    185.2188     80.7457     57.0747      24.703       2.943      2.4788
        3384      8.6465      14.761      79.233    181.3279     70.8085     46.3992     25.2572      2.8657      2.4744
      3384.5        8.72     14.6836     78.5627    130.8893     33.2803     29.7048     23.3105      2.8657      2.4731
        3385        8.72      14.264     76.3627     102.608     11.2859     20.0191     18.9849      2.7787       2.479
      3385.5        8.76     13.0702     71.5831     77.0597      7.3206     10.2645     15.1667      2.7255        2.49
        3386        8.76     11.6941     69.1553     69.1602      8.0661      9.6188      14.594      2.7255      2.5129
      3386.5        8.78     10.5323     67.9939     66.1677      8.6456      8.0357     14.2254      2.7255      2.5331
        3387      8.8139     10.6293     67.8778     66.1677      9.4889       7.739     14.3778      2.7255      2.5409
      3387.5      8.8429     11.2455     68.4643     65.9141     10.1834      8.4939       14.86      2.6854      2.5314
        3388        8.84     11.5075     68.3078     64.2636     10.5527      8.5765      14.241      2.6303      2.5269
      3388.5        8.84     11.1628      65.513      61.088     11.7211      9.5301     12.9338      2.6415      2.5256
        3389        8.84     10.7282     65.0524     61.0778     12.4346      9.7724     11.5509      2.6453      2.5333
      3389.5        8.84     11.1687     64.7335     61.4029     12.7013     10.1567     11.6493      2.6453      2.5325
        3390      8.8413     12.0361     65.4559     63.5165     12.1722      9.4962     11.8979      2.6453      2.5269
      3390.5         8.9     13.6445     68.0385     67.8181          11      8.6867     14.0024      2.5635      2.5176
        3391        8.92     14.2756     70.2018      71.416      9.7609       7.638     15.3947       2.482      2.4867
      3391.5        8.92     14.2444     71.1773     73.3533      9.1893      7.0894      16.034      2.4048      2.4816
        3392        8.96     14.0412     71.4066     74.2515      8.8513      6.8905     16.4897      2.4048      2.4816
      3392.5        8.96     13.8392     71.5287     74.8503      8.7676       6.764      17.525      2.4519      2.4842
        3393        8.96      13.754     71.4755     75.4491       9.104      6.9588     18.1338      2.5334      2.4862
      3393.5        8.96     13.5905     71.2439     75.4491      9.3551      6.9018     17.7389      2.5451      2.4883
        3394        8.96     13.3868     70.9508     74.6638      7.4689      7.3984     16.9875      2.5561      2.4904
      3394.5        8.96     13.3038     70.8146     73.4484      7.4207      7.9308     16.3032      2.5651      2.4923
        3395        8.96     13.5006     71.0744     71.9335      7.2845      8.2567     16.3478      2.5651      2.4921
      3395.5        8.96     13.8171     71.5513      71.797      7.2845      8.5486     16.8534      2.5801      2.4891
        3396        8.96     14.0208     71.8221     73.0124      7.2845      8.8508     17.4391      2.6015      2.4865
      3396.5        8.96     14.0402     71.8634     75.1261      7.3779      9.1637     17.8656      2.6253      2.4835
        3397        8.96     14.0543     71.6601     77.5392      7.5595      9.7621     17.9283      2.6253      2.4824
      3397.5        8.96     13.7702     71.3568     77.8443      7.7009     10.0814     17.5009      2.6253      2.4869
        3398        8.96     13.1909     71.0046     77.2166     11.1052      10.258     16.8773      2.6052      2.4905
      3398.5        8.96     12.3732     70.3855          76     11.2599      8.1829     16.5932      2.5651      2.5081
        3399        8.96     12.1875     69.8998     73.5869     11.2599      8.0661     16.6487      2.5852      2.5116
      3399.5        8.96     13.1662     70.2996     72.4551     10.7591      7.8516      17.134      2.5795      2.4922
        3400        8.96     13.7204      70.915     72.4551      9.8567      7.1718     17.2032      2.5651      2.4743
      3400.5        8.96     14.4558     71.7184     72.4551      9.3951      6.8935     17.1469      2.5651      2.4723
        3401        8.96     14.9591     72.6324     72.0184      8.3287       6.236     17.0825      2.5251      2.4685
      3401.5        8.96     15.1658      73.213     70.9581       7.714      6.0625     17.3574       2.505      2.4662
        3402        8.96     15.1935     73.5382     71.1311      7.4898      5.6795     17.8216       2.505      2.4653
      3402.5        8.96      15.206     73.7074     71.5569      7.4207      5.6198     18.2477      2.5187      2.4655
        3403      8.9934     15.1658     73.3992     71.5569      7.4207      5.7756     18.3019      2.5251      2.4675
      3403.5           9     14.8837     73.4409     70.7315      7.7005       5.886     17.5594      2.5251      2.4706
        3404      9.0559     14.4819     73.1368     70.1148      8.1441      6.2273     16.5651      2.5251      2.4777
      3404.5        9.06     13.7273     71.7667     70.0599      8.5338      6.5229     16.2903      2.5451      2.4848
