#--------------------------------------------------#
#-------------------ENVERUS, INC.------------------#
#------------------WWW.ENVERUS.COM-----------------#
#------------------COPYRIGHT 2020------------------#
#--------------------------------------------------#
#THIS FILE MAY BE USED ONLY IN ACCORDANCE WITH A CURRENT SUBSCRIPTION AGREEMENT BETWEEN
#THE USER AND ENVERUS, INC. NO PART OF THIS FILE MAY BE REPRODUCED, USED, COPIED,
#MODIFIED, PROPAGATED, OR DISTRIBUTED EXCEPT IN ACCORDANCE WITH THE SUBSCRIPTION
#AGREEMENT. UNAUTHORIZED USE OR DISTRIBUTION OF ALL OR ANY PART OF THIS FILE MAY VIOLATE
#COPYRIGHT, TRADEMARK, AND/OR OTHER LAWS AND IS SUBJECT TO CIVIL AS WELL AS CRIMINAL
#SANCTIONS.
#--------------------------------------------------#
#THIS FILE IS PROVIDED "AS-IS" AND ALL WARRANTIES ARE EXPRESSLY DISCLAIMED, WHETHER
#EXPRESS, ORAL, IMPLIED, STATUTORY OR OTHERWISE, INCLUDING ANY IMPLIED WARRANTY OF FITNESS
#FOR A PARTICULAR PURPOSE, MERCHANTABILITY, TITLE OR NON-INFRINGEMENT, AND ANY WARRANTIES
#ARISING BY VIRTUE OF CUSTOM OF TRADE OR COURSE OF DEALING.  FURTHER, ENVERUS, INC.
#AND ITS LICENSORS DO NOT REPRESENT OR WARRANT THAT THIS FILE WILL MEET USER'S
#REQUIREMENTS OR ARE SUITABLE FOR USER'S NEEDS OR THAT THE DATA OR RESULTS PROVIDED IN
#CONJUNCTION THEREWITH ARE CORRECT, ACCURATE, TIMELY OR RELIABLE. THESE DISCLAIMERS SHALL
#APPLY REGARDLESS OF ANY FAILURE OF ESSENTIAL PURPOSE OF ANY LIMITED REMEDY.  SOME
#JURISDICTIONS DO NOT ALLOW THE EXCLUSION OF CERTAIN WARRANTIES SO SOME OF THE ABOVE
#EXCLUSIONS MAY NOT APPLY. IN NO EVENT SHALL ENVERUS, INC. OR ANY OF ITS AFFILIATES
#BE LIABLE UNDER ANY LEGAL THEORY, WHETHER IN TORT (INCLUDING WITHOUT LIMITATION
#NEGLIGENCE), CONTRACT, STRICT LIABILITY, STATUTORY OR OTHERWISE, FOR ANY SPECIAL,
#INCIDENTAL, CONSEQUENTIAL, EXEMPLARY, PUNITIVE OR INDIRECT DAMAGE OF ANY KIND, INCLUDING
#WITHOUT LIMITATION LOSS OF REVENUE, PROFITS, GOODWILL, USE, AND/OR DATA OR THE COST OF
#PROCUREMENT OF SUBSTITUTE GOODS OR SERVICES, EVEN IF APPRISED OF THE POSSIBILITY OF SUCH
#DAMAGES IN ADVANCE.
#--------------------------------------------------#

~VERSION INFORMATION
VERS. 2.0 : CWLS LOG ASCII STANDARD - VERSION 2.0
WRAP.  NO : ONE LINE PER DEPTH STEP
~WELL INFORMATION
#MNEMONIC     .UNIT              VALUE :DESCRIPTION
STRT       .FT                24 :START DEPTH
STOP       .FT                5035 :STOP DEPTH
STEP       .FT                   0.500 :STEP
NULL       .                  -999.250 :NULL
UWI        .              42389314500000 :UNIQUE WELL ID
API        .              42389314500000 :API NUMBER
COMP       .         SLEDGE BROS. OIL CO. :COMPANY
WELL       .        ELIZABETH MITCHELL  1 :WELL
DATE       .                18-DEC-1983 :LOG DATE
~CURVE INFORMATION
#MNEMONIC     .UNIT      API CODE :CURVE DESCRIPTION
DEPTH       .FT                      :MEASURED DEPTH
CAL.INCH        UNKNOWN   :CAL
DT.US/FT        UNKNOWN   :DT
GR.API        UNKNOWN   :GR
~A    DEPTH    CAL    DT    GR
# ...
 974     8.407   67.223   48.74
 974.5     8.407   69.932   51.354
 975     8.407   71.954   49.837
 975.5     8.407   71.862   47.141
 976     8.407   71.769   44.446
 976.5     8.407   71.677   43.042
 977     8.407   71.586   43.847
 977.5     8.407   71.499   44.652
 978     8.407   71.413   45.458
 978.5     8.407   71.326   46.263
 979     8.407   71.467   47.068
 979.5     8.407   71.609   47.873
 980     8.406   71.75   48.679
 980.5     8.406   71.891   46.25
 981     8.406   72.032   43.745
 981.5     8.406   72.174   41.24
 982     8.406   71.727   38.736
 982.5     8.406   71.254   39.259
 983     8.406   70.781   39.952
 983.5     8.406   70.731   40.644
 984     8.406   70.79   41.337
 984.5     8.406   70.85   39.228
 985     8.406   70.909   36.872
 985.5     8.406   70.969   34.589
 986     8.406   71.028   38.951
 986.5     8.406   70.944   43.314
 987     8.406   70.772   42.926
 987.5     8.406   70.797   41.931
 988     8.406   70.829   40.935
 988.5     8.406   70.861   39.939
 989     8.406   70.333   38.943
 989.5     8.406   68.561   40.909
 990     8.406   66.712   43.796
 990.5     8.406   64.863   46.684
 991     8.405   64.281   49.571
 991.5     8.405   64.296   51.409
 992     8.405   64.312   50.344
 992.5     8.405   64.328   49.279
 993     8.405   64.25   48.214
 993.5     8.405   64.022   47.149
 994     8.405   63.793   46.084
 994.5     8.405   63.572   45.02
 995     8.405   63.577   44.268
 995.5     8.405   63.581   44.42
 996     8.405   63.585   44.573
 996.5     8.405   63.589   44.725
 997     8.405   63.594   44.878
 997.5     8.405   63.511   45.031
 998     8.405   63.357   45.183
 998.5     8.405   63.203   44.574
 999     8.405   63.049   43.93
 999.5     8.405   63.179   43.285
 1000     8.405   63.357   42.641
 1000.5     8.405   63.535   41.996
 1001     8.405   63.713   41.352
 1001.5     8.405   63.788   40.708
 1002     8.404   63.688   40.063
 1002.5     8.404   63.588   39.419
 1003     8.404   63.488   38.775
 1003.5     8.404   63.388   38.274
 1004     8.404   63.288   39.006
 1004.5     8.404   63.188   39.737
 1005     8.404   63.088   40.469
 1005.5     8.404   62.988   41.201
 1006     8.404   63.003   41.164
 1006.5     8.404   63.136   39.563
 1007     8.404   63.269   38.655
 1007.5     8.404   63.402   40.851
 1008     8.404   62.014   43.047
 1008.5     8.404   60.328   45.243
 1009     8.404   58.643   47.439
 1009.5     8.404   56.957   46.807
 1010     8.404   56.098   44.082
 1010.5     8.404   58.382   41.357
 1011     8.404   60.638   38.631
 1011.5     8.404   62.555   35.906
 1012     8.404   63.701   33.181
 1012.5     8.403   64.847   33.529
 1013     8.403   63.918   34.256
 1013.5     8.403   61.702   34.983
 1014     8.403   59.487   35.71
 1014.5     8.403   57.271   36.436
 1015     8.403   56.053   37.163
 1015.5     8.403   55.599   37.89
 1016     8.403   55.762   38.617
 1016.5     8.403   55.925   39.343
 1017     8.403   56.088   40.07
 1017.5     8.403   55.987   40.797
 1018     8.403   55.833   41.524
 1018.5     8.403   55.679   42.25
 1019     8.403   55.539   42.977
 1019.5     8.403   55.486   42.258
 1020     8.403   55.433   41.454
 1020.5     8.403   55.38   37.924
 1021     8.403   55.327   33.047
 1021.5     8.403   55.274   30.213
 1022     8.403   55.241   30.168
 1022.5     8.403   55.303   30.123
 1023     8.403   55.364   30.078
 1023.5     8.402   55.426   30.034
 1024     8.402   55.487   29.989
 1024.5     8.402   55.549   29.944
 1025     8.402   55.611   32.32
 1025.5     8.402   55.672   35.044
 1026     8.402   55.734   37.768
 1026.5     8.402   55.716   39.572
 1027     8.402   55.662   39.665
 1027.5     8.402   55.608   39.758
 1028     8.402   55.554   39.851
 1028.5     8.402   55.5   39.943
 1029     8.402   55.446   39.493
 1029.5     8.402   55.392   38.434
 1030     8.402   55.338   37.375
 1030.5     8.402   55.282   36.316
 1031     8.402   55.221   35.272
 1031.5     8.402   55.16   37.683
 1032     8.402   55.099   40.094
 1032.5     8.402   55.039   39.636
 1033     8.402   54.978   38.739
 1033.5     8.402   54.917   37.842
 1034     8.402   54.857   36.944
 1034.5     8.401   54.796   36.047
 1035     8.401   54.735   35.654
 1035.5     8.401   54.675   36.097
 1036     8.401   54.614   36.541
 1036.5     8.401   54.553   36.985
 1037     8.401   54.626   37.428
 1037.5     8.401   54.804   36.202
 1038     8.401   54.982   34.318
 1038.5     8.401   55.133   34.785
 1039     8.401   55.173   36.765
 1039.5     8.401   55.213   38.745
 1040     8.401   55.253   35.18
 1040.5     8.401   55.293   31.952
 1041     8.401   55.333   30.71
 1041.5     8.401   55.364   29.467
 1042     8.401   55.391   28.225
 1042.5     8.401   55.419   26.983
 1043     8.401   55.447   25.741
 1043.5     8.401   55.474   25.912
 1044     8.401   55.502   27.265
 1044.5     8.401   55.469   28.618
 1045     8.4   55.382   29.971
 1045.5     8.4   55.295   31.324
 1046     8.4   55.208   32.677
 1046.5     8.4   55.122   34.031
 1047     8.4   55.035   35.384
 1047.5     8.4   54.952   36.737
 1048     8.4   54.905   38.09
 1048.5     8.4   54.858   38.834
 1049     8.4   54.811   33.955
 1049.5     8.4   54.764   29.077
 1050     8.4   54.748   27.967
 1050.5     8.4   54.792   29.426
 1051     8.4   54.835   30.885
 1051.5     8.4   54.879   32.07
 1052     8.4   54.923   30.08
 1052.5     8.4   54.967   28.09
 1053     8.4   55.011   26.329
 1053.5     8.4   55.055   26.998
 1054     8.4   55.718   27.667
 1054.5     8.4   56.401   28.336
 1055     8.4   57.084   27.936
 1055.5     8.4   57.767   26.15
 1056     8.399   57.575   27.755
 1056.5     8.399   56.939   31.486
 1057     8.399   56.303   35.217
 1057.5     8.399   55.668   38.948
 1058     8.399   55.298   41.367
 1058.5     8.399   55.327   39.195
 1059     8.399   55.356   37.023
 1059.5     8.399   55.385   34.851
 1060     8.399   55.415   32.679
 1060.5     8.399   55.444   32.926
 1061     8.399   55.383   35.703
 1061.5     8.399   55.253   38.48
 1062     8.399   55.122   41.257
 1062.5     8.399   55.019   41.52
 1063     8.399   54.977   39.442
 1063.5     8.399   54.935   38.295
 1064     8.399   54.893   38.364
 1064.5     8.399   54.851   38.433
 1065     8.399   54.809   38.501
 1065.5     8.399   54.767   37.611
 1066     8.399   54.844   33.998
 1066.5     8.399   54.925   31.864
 1067     8.398   55.007   32.253
 1067.5     8.398   55.089   32.642
 1068     8.398   55.17   33.031
 1068.5     8.398   55.252   33.42
 1069     8.398   55.327   33.81
 1069.5     8.398   55.277   34.199
 1070     8.398   55.226   34.588
 1070.5     8.398   55.176   36.593
 1071     8.398   55.118   38.822
 1071.5     8.398   55.053   41.052
 1072     8.398   54.987   40.04
 1072.5     8.398   54.921   36.183
 1073     8.398   54.856   34.543
 1073.5     8.398   54.79   34.004
 1074     8.398   54.747   33.465
 1074.5     8.398   54.708   32.925
 1075     8.398   54.668   32.386
 1075.5     8.398   54.628   31.847
 1076     8.398   54.588   31.307
 1076.5     8.398   54.589   30.768
 1077     8.398   54.671   30.228
 1077.5     8.397   54.753   29.689
 1078     8.397   54.835   29.15
 1078.5     8.397   54.917   29.885
 1079     8.397   54.964   31.144
 1079.5     8.397   54.942   32.404
 1080     8.397   54.919   33.663
 1080.5     8.397   54.897   34.923
 1081     8.397   54.875   36.182
 1081.5     8.397   54.852   33.988
 1082     8.397   54.858   34.434
 1082.5     8.397   54.869   37.72
 1083     8.397   54.881   41.006
 1083.5     8.397   54.893   44.292
 1084     8.397   54.905   46.464
 1084.5     8.397   54.917   46.297
 1085     8.397   54.965   46.13
 1085.5     8.397   55.041   45.964
 1086     8.397   55.118   45.797
 1086.5     8.397   55.194   45.101
 1087     8.397   55.271   43.959
 1087.5     8.397   55.347   42.816
 1088     8.397   55.424   41.674
 1088.5     8.396   55.5   40.992
 1089     8.396   55.557   40.975
 1089.5     8.396   55.592   40.959
 1090     8.396   55.627   40.942
