###############################################
##         ENVERUS                           ##
##         ESS - Open Hole                   ##
##         PERMIAN / DELAWARE                ##
##         Nov 04 2023  V4.0                 ##
##         42-389-32245-00-00                ##
###############################################
## Copyright 2017-2023  ENVERUS.  All Rights Reserved. 
## Confidential - Property of ENVERUS, use governed by terms and 
## conditions found within the existing Information Services Subscription Agreement 
## (as may be amended, the “ISSA”) between Customer and ENVERUS. 
## 
~VERSION INFORMATION
# MNEM.UNIT                               DATA : DESCRIPTION OF MNEMONIC
#-----.-----     ----------------------------- : -----------------------------
VERS.                                     2.00 : CWLS LOG ASCII STANDARD - VERSION 2.00
WRAP.                                       NO : MULTIPLE LINES PER DEPTH STEP
VEND.                                  ENVERUS : VENDOR
TYPE.                          ESS - OPEN HOLE : ENVERUS ESSENTIAL CURVES – ACCESSIBLE THROUGH ENVERUS PRISM(TM)
DOC.                                  31784178 : ENVERUS HEADER RAW DOCUMENT ID
#___________________________________________________________________________________________________ 
~WELL INFORMATION 
# v5kOeJgG8V8Fdrn76qwaaSXPAkEfLGq57aawfXlCwOXh55ROPeN2VCvB7JmY2/dENYnWxxZwl4Ma/Wu+4c2YGQ== 
# MNEM.UNIT                                              DATA : DESCRIPTION OF MNEMONIC 
#-----.-----                    ----------------------------- : ----------------------------- 
CNTY.                                                  REEVES : COUNTY 
STATE.                                                  TEXAS : STATE 
CNTRY.                                                    USA : COUNTRY 
API.                                             42-389-32245 : API (10 Digit) 
API_14.                                    42-389-32245-00-00 : API (14 Digits) 
API_14_std.                                 42-389-32245-0000 : API (14 Digits Standard) 
UWI.                                           42389322450000 : UNIQUE WELL ID 
WELL.                          TEXAS PACIFIC LAND TRUST 25 1H : WELL NAME
STRT.FT                                                2519.0 : START DEPTH
STOP.FT                                               10624.0 : STOP DEPTH
STEP.FT                                                   0.5 : STEP BETWEEN DEPTHS
NULL.                                                 -999.25 : NULL VALUE
#___________________________________________________________________________________________________ 
~CURVE INFORMATION 
# MNEM.UNIT           : CURVE DESCRIPTION 
#-----.-----          : ----------------------------- 
 DEPT.FT               : MEASURED DEPTH 
 CALI__B.IN            : CALIPER (CAL - CAL) 
 GR__B.API             : GAMMA RAY (GR) 
 DT__B.US/FT           : SONIC DELTA TRANSIT TIME (DT) 
 #___________________________________________________________________________________________________ 
~A         DEPT        CALI__B          GR__B          DT__B
         2519.0       -999.250         14.580         51.370
         2519.5       -999.250         15.438         51.532
         2520.0         12.752         16.295         51.982
         2520.5         12.748         16.311         52.378
         2521.0         12.745         15.030         52.720
         2521.5         12.741         14.516         52.496
         2522.0         12.737         14.354         51.975
         2522.5         12.735         15.633         52.467
         2523.0         12.734         18.620         53.234
         2523.5         12.733         20.582         53.277
         2524.0         12.732         20.880         53.027
         2524.5         12.731         21.178         53.264
         2525.0         12.730         21.476         54.235
         2525.5         12.729         21.982         55.206
         2526.0         12.728         24.585         56.178
         2526.5         12.727         27.189         57.234
         2527.0         12.726         28.938         57.419
         2527.5         12.725         29.823         57.512
         2528.0         12.724         33.039         58.151
         2528.5         12.723         41.116         58.790
         2529.0         12.721         42.070         59.040
         2529.5         12.720         42.766         58.182
         2530.0         12.719         42.886         58.532
         2530.5         12.718         44.534         64.864
         2531.0         12.718         50.799         73.715
         2531.5         12.719         55.059         72.924
         2532.0         12.719         56.877         65.338
         2532.5         12.719         53.285         59.845
         2533.0         12.719         49.866         59.984
         2533.5         12.719         47.165         66.842
         2534.0         12.719         45.505         76.417
         2534.5         12.719         45.059         85.926
         2535.0         12.719         46.091         95.353
         2535.5         12.719         47.417        112.192
         2536.0         12.719         46.212        108.452
         2536.5         12.719         42.223        102.687
         2537.0         12.731         37.911        100.174
         2537.5         12.743         34.646        118.216
         2538.0         12.755         33.174        120.434
         2538.5         12.953         37.964        124.250
         2539.0         13.198         49.216        129.317
         2539.5         13.505         62.726        117.888
         2540.0         13.367         75.337         94.031
         2540.5         13.229         83.850         84.619
         2541.0         13.245         88.578         98.085
         2541.5         13.276         90.693        117.407
         2542.0         13.308         92.808         98.076
         2542.5         13.308         92.004         77.436
         2543.0         13.308         87.424         75.595
         2543.5         13.309         83.996         90.152
         2544.0         13.309         82.345        115.742
         2544.5         13.309         82.700        110.501
         2545.0         13.282         83.056        110.299
         2545.5         13.250         84.441        116.319
         2546.0         13.218         95.394        122.340
         2546.5         13.187        103.217        124.408
         2547.0         13.160        109.796        113.376
         2547.5         13.150        116.375         99.049
         2548.0         13.141        123.352         77.776
         2548.5         13.132        130.369         71.732
         2549.0         13.122        139.129         71.299
         2549.5         13.113        152.354         70.866
         2550.0         13.120        165.580         71.087
         2550.5         13.151        182.896         77.375
         2551.0         13.183        172.521         91.963
         2551.5         13.209        147.283        110.507
         2552.0         13.229        122.046        110.319
         2552.5         13.250         96.763        115.281
         2553.0         13.270         72.320        109.842
         2553.5         13.290         66.781         92.741
         2554.0         13.311         72.622         77.751
         2554.5         13.326         91.033         77.544
         2555.0         13.327        118.369         94.827
         2555.5         13.328        141.023        120.482
         2556.0         13.336        124.199        130.479
         2556.5         13.370        107.374        133.977
         2557.0         13.403         94.408        120.052
         2557.5         13.437         77.284        101.019
         2558.0         13.471         68.557         80.365
         2558.5         13.504         68.107         71.006
         2559.0         13.535         69.087         70.398
         2559.5         13.556         70.068         72.756
         2560.0         13.576         70.237         82.436
         2560.5         13.597         70.355         88.577
         2561.0         13.617         74.193         90.755
         2561.5         13.638         78.307         84.318
         2562.0         13.658         81.361         77.318
         2562.5         13.679         80.587         72.543
         2563.0         13.699         79.812         72.403
         2563.5         13.720         81.484         72.263
         2564.0         13.740         82.883         72.489
         2564.5         13.761         80.024         73.791
         2565.0         13.781         77.165         75.092
         2565.5         13.802         74.798         76.394
         2566.0         13.822         72.860         77.581
         2566.5         13.824         70.922         77.870
         2567.0         13.820         68.984         78.158
         2567.5         13.817         68.833         79.481
         2568.0         13.813         68.715         81.681
         2568.5         13.810         62.252         83.112
         2569.0         13.838         55.612         85.691
         2569.5         13.884         48.973         93.963
         2570.0         13.929         44.875        105.150
         2570.5         13.975         43.674        102.881
         2571.0         14.021         45.345         99.573
         2571.5         14.066         48.316         95.193
         2572.0         14.112         49.974         93.020
         2572.5         14.158         46.662         91.176
         2573.0         14.203         43.350         93.346
         2573.5         14.242         41.984        117.663
         2574.0         14.268         42.172        145.233
         2574.5         14.294         42.361        147.744
         2575.0         14.320         42.549        139.880
         2575.5         14.347         43.077        133.298
         2576.0         14.373         43.715        146.580
         2576.5         14.399         44.352        136.130
         2577.0         14.412         44.990        104.585
         2577.5         14.398         44.774         94.063
         2578.0         14.384         42.387         92.655
         2578.5         14.371         40.000         91.246
         2579.0         14.357         39.403         89.838
         2579.5         14.343         41.518         88.429
         2580.0         14.330         43.632         87.215
         2580.5         14.344         45.747         86.735
         2581.0         14.373         47.619         88.238
         2581.5         14.403         49.313         90.035
         2582.0         14.432         51.286         91.831
         2582.5         14.461         53.821         91.166
         2583.0         14.490         56.356         88.226
         2583.5         14.484         58.891         85.285
         2584.0         14.476         59.506         82.344
         2584.5         14.469         60.038         80.966
