###############################################
##         ENVERUS                           ##
##         ESS - Open Hole                   ##
##         PERMIAN / DELAWARE                ##
##         Nov 04 2023  V4.0                 ##
##         42-389-30424-00-00                ##
###############################################
## Copyright 2017-2023  ENVERUS.  All Rights Reserved. 
## Confidential - Property of ENVERUS, use governed by terms and 
## conditions found within the existing Information Services Subscription Agreement 
## (as may be amended, the “ISSA”) between Customer and ENVERUS. 
## 
~VERSION INFORMATION
# MNEM.UNIT                               DATA : DESCRIPTION OF MNEMONIC
#-----.-----     ----------------------------- : -----------------------------
VERS.                                     2.00 : CWLS LOG ASCII STANDARD - VERSION 2.00
WRAP.                                       NO : MULTIPLE LINES PER DEPTH STEP
VEND.                                  ENVERUS : VENDOR
TYPE.                          ESS - OPEN HOLE : ENVERUS ESSENTIAL CURVES – ACCESSIBLE THROUGH ENVERUS PRISM(TM)
DOC.                                  32008121 : ENVERUS HEADER RAW DOCUMENT ID
#___________________________________________________________________________________________________ 
~WELL INFORMATION 
# BBd8zmUYmd+wUdICSlYDIOWaOe8iOeA0ELK9EhSbx74Kr6OX4zJxS/eo6cO6KK5SWMTSkVzaKbU2EBBfROvOKA== 
# MNEM.UNIT                                              DATA : DESCRIPTION OF MNEMONIC 
#-----.-----                    ----------------------------- : ----------------------------- 
CNTY.                                                  REEVES : COUNTY 
STATE.                                                  TEXAS : STATE 
CNTRY.                                                    USA : COUNTRY 
API.                                             42-389-30424 : API (10 Digit) 
API_14.                                    42-389-30424-00-00 : API (14 Digits) 
API_14_std.                                 42-389-30424-0000 : API (14 Digits Standard) 
UWI.                                           42389304240000 : UNIQUE WELL ID 
WELL.                                      LEWELLING STATE  1 : WELL NAME
STRT.FT                                                   7.0 : START DEPTH
STOP.FT                                               15912.0 : STOP DEPTH
STEP.FT                                                   0.5 : STEP BETWEEN DEPTHS
NULL.                                                 -999.25 : NULL VALUE
COMP.                           PENN VIRGINIA OIL & GAS CORP. : COMPANY 
DATE.                                             14-AUG-1976 : LOG DATE
#___________________________________________________________________________________________________ 
~CURVE INFORMATION 
# MNEM.UNIT           : CURVE DESCRIPTION 
#-----.-----          : ----------------------------- 
 DEPT.FT               : MEASURED DEPTH 
 CALI__A.IN            : CALIPER (CAL - CAL) 
 GR__A.API             : GAMMA RAY (GR) 
 DT__A.US/FT           : SONIC DELTA TRANSIT TIME (DT) 
 DPHI__A.V/V           : DENSITY POROSITY (DPHI) 
 NPHI__A.V/V           : NEUTRON POROSITY (NPHI) 
 #___________________________________________________________________________________________________ 
~A         DEPT        CALI__A          GR__A          DT__A        DPHI__A        NPHI__A
# ...
        14087.0         11.758         63.264       -999.250        0.13528       -0.13337
        14087.5         11.824         63.801       -999.250        0.12390       -0.13018
        14088.0         11.889         64.151       -999.250        0.11854       -0.12699
        14088.5         11.955         63.192       -999.250        0.12473       -0.12590
        14089.0         11.987         62.233       -999.250        0.13092       -0.12706
        14089.5         12.009         61.274       -999.250        0.12812       -0.11121
        14090.0         12.031         60.315       -999.250        0.12405       -0.08655
        14090.5         12.054         59.356       -999.250        0.12244       -0.04143
        14091.0         12.076         58.396       -999.250        0.14003       -0.01104
        14091.5         12.079         57.437       -999.250        0.14030       -0.01060
        14092.0         12.070         58.243       -999.250        0.13078       -0.01015
        14092.5         12.061         59.175       -999.250        0.10915       -0.00971
        14093.0         12.052         60.108       -999.250        0.10318       -0.00957
        14093.5         12.043         60.938       -999.250        0.10693       -0.00958
        14094.0         12.005         60.063       -999.250        0.09799       -0.00960
        14094.5         11.857         59.187       -999.250        0.08488       -0.00961
        14095.0         11.710         58.312       -999.250        0.07282       -0.00963
        14095.5         11.531         57.746       -999.250        0.06109       -0.00964
        14096.0         11.352         57.288       -999.250        0.04936       -0.01031
        14096.5         11.173         56.830       -999.250        0.04336       -0.01157
        14097.0         11.020         56.373       -999.250        0.03262       -0.01284
        14097.5         10.998         55.915       -999.250        0.01976       -0.01411
        14098.0         10.975         55.457       -999.250        0.02998       -0.01692
        14098.5         10.953         56.295       -999.250        0.03613       -0.02156
        14099.0         10.930         59.317       -999.250        0.04009       -0.02620
        14099.5         10.908         62.339       -999.250        0.05221       -0.03085
        14100.0         10.885         65.362       -999.250        0.06437       -0.03584
        14100.5         10.863         66.544       -999.250        0.06979       -0.04603
        14101.0         10.861         67.196       -999.250        0.06423       -0.05623
        14101.5         10.866         67.824       -999.250        0.06698       -0.05813
        14102.0         10.870         66.155       -999.250        0.07395       -0.05703
        14102.5         10.875         64.486       -999.250        0.07107       -0.05592
        14103.0         10.880         62.817       -999.250        0.05410       -0.05481
        14103.5         10.885         61.148       -999.250        0.03712       -0.05327
        14104.0         10.889         59.479       -999.250        0.04423       -0.05012
        14104.5         10.894         57.811       -999.250        0.08269       -0.04696
        14105.0         10.899         58.468       -999.250        0.09153       -0.04381
        14105.5         10.890         59.318       -999.250        0.08738       -0.03841
        14106.0         10.868         60.167       -999.250        0.07984       -0.03050
        14106.5         10.847         61.016       -999.250        0.07460       -0.02259
        14107.0         10.826         61.866       -999.250        0.07855       -0.01467
        14107.5         10.805         62.916       -999.250        0.07772       -0.00676
        14108.0         10.783         64.281       -999.250        0.07285       -0.02956
        14108.5         10.762         65.647       -999.250        0.07370       -0.06112
        14109.0         10.741         67.013       -999.250        0.07975       -0.07039
        14109.5         10.736         68.378       -999.250        0.07154       -0.07329
        14110.0         10.739         69.744       -999.250        0.06347       -0.06897
        14110.5         10.743         69.592       -999.250        0.06348       -0.06465
        14111.0         10.746         68.560       -999.250        0.06415       -0.05698
        14111.5         10.749         67.529       -999.250        0.06937       -0.04645
        14112.0         10.752         66.498       -999.250        0.07458       -0.02992
        14112.5         10.761         65.466       -999.250        0.07939       -0.00310
        14113.0         10.796         64.435       -999.250        0.07227        0.00830
        14113.5         10.832         63.403       -999.250        0.06515        0.00010
        14114.0         10.867         62.372       -999.250        0.05803       -0.00811
        14114.5         10.903         61.680       -999.250        0.07184       -0.01632
        14115.0         10.939         61.860       -999.250        0.06409       -0.02660
        14115.5         10.967         62.040       -999.250        0.05033       -0.03058
        14116.0         10.978         62.220       -999.250        0.04830       -0.02387
        14116.5         10.989         62.401       -999.250        0.06504       -0.01715
        14117.0         11.001         62.581       -999.250        0.08821       -0.01044
        14117.5         11.012         62.761       -999.250        0.11067       -0.01416
        14118.0         11.023         62.941       -999.250        0.11127       -0.01817
        14118.5         11.034         63.121       -999.250        0.10844       -0.02219
        14119.0         11.045         63.301       -999.250        0.10694       -0.02903
        14119.5         11.054         63.480       -999.250        0.11770       -0.04066
        14120.0         11.051         63.656       -999.250        0.12731       -0.08382
        14120.5         11.049         63.832       -999.250        0.12241       -0.09283
        14121.0         11.046         64.009       -999.250        0.11751       -0.09601
        14121.5         11.043         64.185       -999.250        0.11685       -0.09919
        14122.0         11.041         64.361       -999.250        0.12033       -0.10029
        14122.5         11.038         64.213       -999.250        0.12380       -0.10030
        14123.0         11.036         63.003       -999.250        0.12727       -0.10032
        14123.5         11.033         61.793       -999.250        0.13075       -0.10033
        14124.0         11.031         60.582       -999.250        0.12195       -0.10035
        14124.5         11.028         62.470       -999.250        0.12421       -0.09801
        14125.0         11.047         66.140       -999.250        0.12723       -0.09487
        14125.5         11.079         69.809       -999.250        0.12222       -0.09174
        14126.0         11.110         70.365       -999.250        0.11721       -0.08861
        14126.5         11.142         70.457       -999.250        0.11220       -0.08704
        14127.0         11.173         70.550       -999.250        0.11318       -0.09322
        14127.5         11.205         70.642       -999.250        0.11882       -0.09940
        14128.0         11.223         69.659       -999.250        0.11618       -0.10554
        14128.5         11.238         68.674       -999.250        0.11012       -0.10388
        14129.0         11.252         70.090       -999.250        0.11559       -0.10221
        14129.5         11.267         72.165       -999.250        0.12172       -0.10055
        14130.0         11.279         74.240       -999.250        0.11187       -0.09888
        14130.5         11.253         74.800       -999.250        0.10201       -0.09492
