###############################################
##         ENVERUS                           ##
##         ESS - Open Hole                   ##
##         PERMIAN / DELAWARE                ##
##         Nov 04 2023  V4.0                 ##
##         42-389-30422-00-00                ##
###############################################
## Copyright 2017-2023  ENVERUS.  All Rights Reserved. 
## Confidential - Property of ENVERUS, use governed by terms and 
## conditions found within the existing Information Services Subscription Agreement 
## (as may be amended, the “ISSA”) between Customer and ENVERUS. 
## 
~VERSION INFORMATION
# MNEM.UNIT                               DATA : DESCRIPTION OF MNEMONIC
#-----.-----     ----------------------------- : -----------------------------
VERS.                                     2.00 : CWLS LOG ASCII STANDARD - VERSION 2.00
WRAP.                                       NO : MULTIPLE LINES PER DEPTH STEP
VEND.                                  ENVERUS : VENDOR
TYPE.                          ESS - OPEN HOLE : ENVERUS ESSENTIAL CURVES – ACCESSIBLE THROUGH ENVERUS PRISM(TM)
DOC.                                  31749874 : ENVERUS HEADER RAW DOCUMENT ID
#___________________________________________________________________________________________________ 
~WELL INFORMATION 
# u82sU1u0B8de5w9HEAjaYOtqLlVzfD+KUeD2ZoqivGgiUzwSeb1LYInaR9MNeJxDUIxxjb7EPbXz9g+KH10l6Q== 
# MNEM.UNIT                                              DATA : DESCRIPTION OF MNEMONIC 
#-----.-----                    ----------------------------- : ----------------------------- 
CNTY.                                                  REEVES : COUNTY 
STATE.                                                  TEXAS : STATE 
CNTRY.                                                    USA : COUNTRY 
API.                                             42-389-30422 : API (10 Digit) 
API_14.                                    42-389-30422-00-00 : API (14 Digits) 
API_14_std.                                 42-389-30422-0000 : API (14 Digits Standard) 
UWI.                                           42389304220000 : UNIQUE WELL ID 
WELL.                                    BECKHAM  AGNES 26  1 : WELL NAME
STRT.FT                                                  89.0 : START DEPTH
STOP.FT                                               15719.0 : STOP DEPTH
STEP.FT                                                   0.5 : STEP BETWEEN DEPTHS
NULL.                                                 -999.25 : NULL VALUE
COMP.                                     WALSH & WATTS  INC. : COMPANY
#___________________________________________________________________________________________________ 
~CURVE INFORMATION 
# MNEM.UNIT           : CURVE DESCRIPTION 
#-----.-----          : ----------------------------- 
 DEPT.FT               : MEASURED DEPTH 
 CALI.IN               : CALIPER (CAL - CAL) 
 GR.API                : GAMMA RAY (GR) 
 DT.US/FT              : SONIC DELTA TRANSIT TIME (DT) 
 #___________________________________________________________________________________________________ 
~A         DEPT           CALI             GR             DT
# ...
        10649.0          9.143         87.242         72.859
        10649.5          9.145         87.121         75.466
        10650.0          9.146         87.001         78.370
        10650.5          9.147         86.181         81.691
        10651.0          9.149         81.670         82.322
        10651.5          9.150         77.159         82.070
        10652.0          9.152         72.648         81.819
        10652.5          9.153         68.136         81.567
        10653.0          9.154         65.061         81.315
        10653.5          9.156         63.563         81.063
        10654.0          9.157         62.153         80.811
        10654.5          9.158         65.526         80.559
        10655.0          9.160         68.899         79.106
        10655.5          9.161         72.272         75.964
        10656.0          9.162         75.645         72.823
        10656.5          9.164         79.018         69.681
        10657.0          9.165         82.391         67.800
        10657.5          9.166         85.763         68.615
        10658.0          9.169         88.731         69.602
        10658.5          9.172         90.844         70.998
        10659.0          9.176         92.926         75.612
        10659.5          9.179         92.057         80.227
        10660.0          9.183         91.188         82.149
        10660.5          9.186         90.320         80.466
        10661.0          9.190         89.774         78.783
        10661.5          9.194         91.650         77.100
        10662.0          9.197         93.527         75.416
        10662.5          9.201         95.404         74.027
        10663.0          9.204         95.485         77.751
        10663.5          9.208         95.290         80.626
        10664.0          9.211         95.095         79.531
        10664.5          9.215         94.900         78.437
        10665.0          9.218         94.835         80.721
        10665.5          9.222         96.979         85.182
        10666.0          9.225         99.122         87.675
        10666.5          9.229        101.265         86.643
        10667.0          9.232        101.422         85.612
        10667.5          9.236         97.944         84.581
        10668.0          9.239         94.465         84.641
        10668.5          9.243         90.986         85.686
        10669.0          9.240         87.508         86.730
        10669.5          9.236         88.782         87.774
        10670.0          9.231         87.165         87.286
        10670.5          9.227         84.827         86.030
        10671.0          9.223         84.204         84.773
        10671.5          9.219         86.567         83.516
        10672.0          9.214         88.929         82.260
        10672.5          9.210         90.923         81.239
        10673.0          9.206         90.540         80.489
        10673.5          9.202         86.750         79.740
        10674.0          9.198         82.621         78.991
        10674.5          9.193         78.491         82.384
        10675.0          9.189         74.362         87.448
        10675.5          9.185         70.232         89.183
        10676.0          9.181         66.102         88.028
        10676.5          9.177         62.519         86.874
        10677.0          9.172         65.291         85.720
        10677.5          9.168         68.063         84.565
        10678.0          9.164         70.834         83.411
        10678.5          9.160         70.035         68.583
        10679.0          9.155         67.987         70.606
        10679.5          9.151         65.940         72.629
        10680.0          9.147         63.892         74.652
        10680.5          9.143         61.845         76.675
        10681.0          9.139         59.798         78.698
        10681.5          9.134         62.281         80.720
        10682.0          9.130         66.265         82.720
        10682.5          9.126         70.248         78.817
        10683.0          9.122         74.231         74.913
        10683.5          9.117         78.215         71.009
        10684.0          9.113         82.860         67.106
        10684.5          9.109         87.647         73.989
        10685.0          9.105         92.434         79.561
        10685.5          9.101         97.220         81.541
        10686.0          9.096        102.007         83.522
        10686.5          9.092         97.161         85.502
        10687.0          9.088         91.802         87.482
        10687.5          9.084         86.444         89.462
        10688.0          9.080         81.085         91.442
        10688.5          9.075         75.727         93.019
        10689.0          9.071         71.415         91.968
        10689.5          9.067         69.925         90.917
        10690.0          9.063         68.436         89.866
        10690.5          9.058         66.946         88.815
        10691.0          9.054         65.456         87.132
        10691.5          9.050         65.012         85.108
        10692.0          9.046         65.508         83.083
        10692.5          9.042         66.004         81.059
        10693.0          9.037         66.499         79.035
        10693.5          9.033         66.995         77.010
        10694.0          9.029         68.199         75.329
        10694.5          9.025         70.768         74.131
        10695.0          9.022         73.338         72.934
        10695.5          9.025         75.908         72.303
        10696.0          9.029         78.477         74.281
        10696.5          9.032         79.437         76.258
        10697.0          9.035         76.640         78.251
        10697.5          9.039         73.843         80.466
        10698.0          9.042         71.047         82.682
        10698.5          9.046         68.250         84.897
        10699.0          9.049         65.453         87.112
        10699.5          9.052         62.656         85.883
        10700.0          9.056         63.670         84.577
        10700.5          9.059         66.659         83.271
        10701.0          9.063         69.647         81.965
        10701.5          9.066         71.946         80.659
        10702.0          9.069         72.736         79.353
        10702.5          9.073         73.526         78.047
        10703.0          9.076         74.316         76.741
        10703.5          9.080         75.106         76.673
        10704.0          9.083         75.895         77.946
        10704.5          9.086         76.685         79.218
        10705.0          9.090         77.475         80.490
        10705.5          9.093         78.946         81.763
        10706.0          9.097         80.542         83.035
        10706.5          9.100         82.139         84.308
        10707.0          9.103         83.735         85.580
        10707.5          9.107         85.331         84.599
        10708.0          9.110         86.927         83.332
        10708.5          9.113         86.004         82.066
        10709.0          9.117         83.328         80.800
        10709.5          9.120         80.651         80.951
        10710.0          9.124         77.975         84.042
        10710.5          9.127         80.107         87.133
        10711.0          9.130         82.336         86.983
        10711.5          9.134         83.470         82.387
        10712.0          9.125         78.746         77.791
        10712.5          9.124         74.021         79.022
        10713.0          9.122         69.297         82.114
        10713.5          9.121         64.573         85.207
        10714.0          9.119         61.080         88.300
        10714.5          9.117         57.831         89.665
