###############################################
##         ENVERUS                           ##
##         ESS - Open Hole                   ##
##         PERMIAN / DELAWARE                ##
##         Nov 04 2023  V4.0                 ##
##         42-389-31270-00-00                ##
###############################################
## Copyright 2017-2023  ENVERUS.  All Rights Reserved. 
## Confidential - Property of ENVERUS, use governed by terms and 
## conditions found within the existing Information Services Subscription Agreement 
## (as may be amended, the “ISSA”) between Customer and ENVERUS. 
## 
~VERSION INFORMATION
# MNEM.UNIT                               DATA : DESCRIPTION OF MNEMONIC
#-----.-----     ----------------------------- : -----------------------------
VERS.                                     2.00 : CWLS LOG ASCII STANDARD - VERSION 2.00
WRAP.                                       NO : MULTIPLE LINES PER DEPTH STEP
VEND.                                  ENVERUS : VENDOR
TYPE.                          ESS - OPEN HOLE : ENVERUS ESSENTIAL CURVES – ACCESSIBLE THROUGH ENVERUS PRISM(TM)
DOC.                                  31950282 : ENVERUS HEADER RAW DOCUMENT ID
#___________________________________________________________________________________________________ 
~WELL INFORMATION 
# 0CODbT4LMl4UGLa7W4QP9cEC157HhgZEtdKI2U+cm8ET/zLKkJfEe4mvdgudHboWMGmWziBYTrzgVEWtCsCjWg== 
# MNEM.UNIT                                              DATA : DESCRIPTION OF MNEMONIC 
#-----.-----                    ----------------------------- : ----------------------------- 
CNTY.                                                  REEVES : COUNTY 
STATE.                                                  TEXAS : STATE 
CNTRY.                                                    USA : COUNTRY 
API.                                             42-389-31270 : API (10 Digit) 
API_14.                                    42-389-31270-00-00 : API (14 Digits) 
API_14_std.                                 42-389-31270-0000 : API (14 Digits Standard) 
UWI.                                           42389312700000 : UNIQUE WELL ID 
WELL.                                        FORTUNE UNIT  2R : WELL NAME
STRT.FT                                                3825.0 : START DEPTH
STOP.FT                                               13654.0 : STOP DEPTH
STEP.FT                                                   0.5 : STEP BETWEEN DEPTHS
NULL.                                                 -999.25 : NULL VALUE
COMP.                          SANDRIDGE EXPL. AND PROD.  LLC : COMPANY 
DATE.                                             19-AUG-2004 : LOG DATE
#___________________________________________________________________________________________________ 
~CURVE INFORMATION 
# MNEM.UNIT           : CURVE DESCRIPTION 
#-----.-----          : ----------------------------- 
 DEPT.FT               : MEASURED DEPTH 
 CALI__B.IN            : CALIPER (CAL - CAL) 
 GR__B.API             : GAMMA RAY (GR) 
 DT__B.US/FT           : SONIC DELTA TRANSIT TIME (DT) 
 #___________________________________________________________________________________________________ 
~A         DEPT        CALI__B          GR__B          DT__B
# ...
         5805.0         10.901         38.956         67.609
         5805.5         10.886         46.974         68.042
         5806.0         10.872         52.593         68.037
         5806.5         10.857         57.907         66.980
         5807.0         10.843         63.222         65.923
         5807.5         10.829         66.853         64.866
         5808.0         10.814         64.027         65.985
         5808.5         10.800         61.202         65.984
         5809.0         10.785         58.939         65.984
         5809.5         10.773         61.862         65.984
         5810.0         10.766         64.785         65.251
         5810.5         10.758         68.173         64.536
         5811.0         10.751         71.700         64.761
         5811.5         10.743         75.226         64.986
         5812.0         10.736         89.514         65.211
         5812.5         10.728        119.046         65.311
         5813.0         10.721        139.779         64.878
         5813.5         10.713        142.845         64.445
         5814.0         10.706        136.847         65.220
         5814.5         10.709        112.983         66.543
         5815.0         10.722         92.850         67.865
         5815.5         10.734         73.692         69.188
         5816.0         10.746         73.228         69.308
         5816.5         10.759         72.765         67.403
         5817.0         10.771         72.302         65.497
         5817.5         10.783         67.046         64.689
         5818.0         10.796         64.677         65.068
         5818.5         10.808         66.020         65.448
         5819.0         10.820         67.364         65.238
         5819.5         10.833         68.616         64.030
         5820.0         10.845         68.874         63.666
         5820.5         10.853         69.132         63.917
         5821.0         10.857         69.391         64.167
         5821.5         10.861         69.649         64.418
         5822.0         10.865         69.907         64.668
         5822.5         10.869         68.599         64.559
         5823.0         10.873         66.158         64.395
         5823.5         10.877         62.077         64.230
         5824.0         10.881         46.678         64.065
         5824.5         10.884         46.209         63.900
         5825.0         10.888         45.740         63.735
         5825.5         10.892         45.271         63.570
         5826.0         10.896         44.802         63.405
         5826.5         10.900         44.333         63.240
         5827.0         10.904         39.702         64.255
         5827.5         10.908         25.678         65.391
         5828.0         10.912         22.575         66.527
         5828.5         10.916         20.134         67.663
         5829.0         10.920         20.509         68.799
         5829.5         10.924         21.239         67.228
         5830.0         10.930         21.969         64.964
         5830.5         10.944         22.699         62.700
         5831.0         10.958         34.445         64.856
         5831.5         10.972         33.696         68.141
         5832.0         10.986         32.947         71.426
         5832.5         10.999         32.198         73.139
         5833.0         11.013         31.961         74.117
         5833.5         11.027         32.390         74.775
         5834.0         11.034         32.818         75.068
         5834.5         11.013         33.777         75.297
         5835.0         10.992         38.630         75.057
         5835.5         10.971         43.483         74.817
         5836.0         10.951         48.336         74.577
         5836.5         10.930         53.189         74.337
         5837.0         10.909         57.733         74.097
         5837.5         10.889         61.449         73.857
         5838.0         10.874         65.166         72.629
         5838.5         10.860         61.478         70.625
         5839.0         10.845         57.031         68.622
         5839.5         10.831         52.584         66.619
         5840.0         10.816         48.137         64.615
         5840.5         10.802         43.690         62.612
         5841.0         10.787         51.841         61.753
         5841.5         10.773         61.814         61.350
         5842.0         10.762         71.787         60.947
         5842.5         10.762         81.760         60.545
         5843.0         10.762         89.599         61.035
         5843.5         10.762         78.075         62.229
         5844.0         10.762         66.552         63.424
         5844.5         10.762         55.028         64.619
         5845.0         10.762         47.184         65.488
         5845.5         10.768         39.429         65.001
         5846.0         10.773         36.646         64.514
         5846.5         10.779         37.159         64.027
         5847.0         10.785         37.672         63.540
         5847.5         10.791         38.960         63.054
         5848.0         10.797         42.229         62.994
         5848.5         10.803         45.498         63.803
         5849.0         10.808         63.639         64.612
         5849.5         10.814         65.867         65.421
         5850.0         10.820         68.095         66.230
         5850.5         10.826         67.861         68.047
         5851.0         10.832         66.805         68.968
         5851.5         10.837         65.750         68.637
         5852.0         10.843         64.695         68.306
         5852.5         10.849         61.342         67.975
         5853.0         10.855         55.260         67.644
         5853.5         10.851         52.594         67.314
         5854.0         10.847         53.337         66.983
         5854.5         10.842         54.079         63.542
         5855.0         10.838         54.822         63.421
         5855.5         10.833         55.564         63.299
         5856.0         10.829         56.307         63.178
         5856.5         10.824         60.755         63.056
         5857.0         10.820         67.891         62.935
         5857.5         10.815         73.666         62.813
         5858.0         10.810         79.441         62.692
         5858.5         10.806         85.215         62.570
         5859.0         10.801         88.689         63.246
         5859.5         10.802         88.430         64.355
         5860.0         10.804         88.171         65.463
         5860.5         10.805         87.912         65.570
         5861.0         10.807         87.584         65.286
         5861.5         10.808         84.281         65.001
         5862.0         10.810         80.977         64.717
         5862.5         10.811         80.109         64.433
         5863.0         10.813         82.220         64.149
         5863.5         10.814         84.330         63.969
         5864.0         10.816         86.441         64.436
         5864.5         10.818         88.551         64.904
         5865.0         10.819         85.159         65.372
         5865.5         10.819         81.039         65.840
         5866.0         10.818         76.919         66.308
         5866.5         10.816         72.799         66.776
         5867.0         10.814         69.714         66.953
         5867.5         10.812         66.847         65.966
         5868.0         10.810         65.342         64.979
         5868.5         10.808         64.287         63.992
         5869.0         10.807         63.232         63.005
         5869.5         10.805         62.177         63.012
         5870.0         10.803         61.121         63.248
         5870.5         10.813         84.224         63.484
