#--------------------------------------------------#
#-------------------ENVERUS, INC.------------------#
#------------------WWW.ENVERUS.COM-----------------#
#------------------COPYRIGHT 2020------------------#
#--------------------------------------------------#
#THIS FILE MAY BE USED ONLY IN ACCORDANCE WITH A CURRENT SUBSCRIPTION AGREEMENT BETWEEN
#THE USER AND ENVERUS, INC. NO PART OF THIS FILE MAY BE REPRODUCED, USED, COPIED,
#MODIFIED, PROPAGATED, OR DISTRIBUTED EXCEPT IN ACCORDANCE WITH THE SUBSCRIPTION
#AGREEMENT. UNAUTHORIZED USE OR DISTRIBUTION OF ALL OR ANY PART OF THIS FILE MAY VIOLATE
#COPYRIGHT, TRADEMARK, AND/OR OTHER LAWS AND IS SUBJECT TO CIVIL AS WELL AS CRIMINAL
#SANCTIONS.
#--------------------------------------------------#
#THIS FILE IS PROVIDED "AS-IS" AND ALL WARRANTIES ARE EXPRESSLY DISCLAIMED, WHETHER
#EXPRESS, ORAL, IMPLIED, STATUTORY OR OTHERWISE, INCLUDING ANY IMPLIED WARRANTY OF FITNESS
#FOR A PARTICULAR PURPOSE, MERCHANTABILITY, TITLE OR NON-INFRINGEMENT, AND ANY WARRANTIES
#ARISING BY VIRTUE OF CUSTOM OF TRADE OR COURSE OF DEALING.  FURTHER, ENVERUS, INC.
#AND ITS LICENSORS DO NOT REPRESENT OR WARRANT THAT THIS FILE WILL MEET USER'S
#REQUIREMENTS OR ARE SUITABLE FOR USER'S NEEDS OR THAT THE DATA OR RESULTS PROVIDED IN
#CONJUNCTION THEREWITH ARE CORRECT, ACCURATE, TIMELY OR RELIABLE. THESE DISCLAIMERS SHALL
#APPLY REGARDLESS OF ANY FAILURE OF ESSENTIAL PURPOSE OF ANY LIMITED REMEDY.  SOME
#JURISDICTIONS DO NOT ALLOW THE EXCLUSION OF CERTAIN WARRANTIES SO SOME OF THE ABOVE
#EXCLUSIONS MAY NOT APPLY. IN NO EVENT SHALL ENVERUS, INC. OR ANY OF ITS AFFILIATES
#BE LIABLE UNDER ANY LEGAL THEORY, WHETHER IN TORT (INCLUDING WITHOUT LIMITATION
#NEGLIGENCE), CONTRACT, STRICT LIABILITY, STATUTORY OR OTHERWISE, FOR ANY SPECIAL,
#INCIDENTAL, CONSEQUENTIAL, EXEMPLARY, PUNITIVE OR INDIRECT DAMAGE OF ANY KIND, INCLUDING
#WITHOUT LIMITATION LOSS OF REVENUE, PROFITS, GOODWILL, USE, AND/OR DATA OR THE COST OF
#PROCUREMENT OF SUBSTITUTE GOODS OR SERVICES, EVEN IF APPRISED OF THE POSSIBILITY OF SUCH
#DAMAGES IN ADVANCE.
#--------------------------------------------------#

# EXPORTED FROM TRANSFORM SOFTWARE 5.2.0 ON 31-MAY-2019 BY USER BRIAN.UMLANG
# DI TRANSFORM - A PRODUCT OF DRILLINGINFO, INC. - WWW.DRILLINGINFO.COM
#
~VERSION INFORMATION
 VERS.        2.0 : LAS ASCII STANDARD - VERSION 2.0
 WRAP.         NO : ONE LINE PER DEPTH STEP

~WELL INFORMATION
#MNEM.UNIT       DATA TYPE       INFORMATION
#---------       ---------       -----------
 STRT.FT                 256 : START DEPTH
 STOP.FT                4706 : STOP DEPTH
 STEP.FT                 0.5 : STEP LENGTH
 NULL.               -999.25 : NULL VALUE
 UWI.         42301312890000 : UNIQUE WELL ID
 API.         42301312890000 : WELL IDENTIFIER
 COMP.                       : COMPANY
 WELL.  42301312890000_API14 : WELL NAME
 FLD.                        : FIELD NAME
 LOC.                        : WELL LOCATION
 CNTY.                       : COUNTY
 STAT.                       : STATE OR PROVINCE
 CTRY.                       : COUNTRY
 SRVC.                       : SERVICE COMPANY
 DATE.                       : DATE

~CURVE INFORMATION
#MNEM.UNIT       API CODE       CURVE DESCRIPTION
#---------       --------       -----------------
 DEPT.FT          : <MEASURED DEPTH>
 CAL.IN           : CALIPER
 DPHI.%           : DENSITY POROSITY
 DT.US/FT         : SONIC
 GR.GAPI          : GAMMA RAY
 ILD.OHMM         : DEEP RESISTIVITY
 ILS.OHMM         : SHALLOW RESISTIVITY
 NPHI.%           : NEUTRON POROSITY
 PE.B/ELEC        : PHOTOELECTRIC FACTOR
 RHOB.G/CM3       : DENSITY

~PARAMETER INFORMATION
#MNEM.UNIT       VALUE       DESCRIPTION
#---------       -----       -----------
 EKB.FT      2822 : ELEVATION ABOVE MSL

~A      DEPT         CAL        DPHI          DT          GR         ILD         ILS        NPHI          PE        RHOB
# ...
        3472         9.7     16.7364      72.466      54.491       5.362      3.3078     16.2811      2.4248      2.4235
      3472.5         9.7     18.5228     74.2432     55.3875      4.5069      3.1315     18.3883      2.4248      2.4085
        3473      9.7261     19.5299     77.4013     56.0123      4.4513       2.831     19.5013      2.4248      2.4012
      3473.5        9.74     19.6591     79.4471     59.3836      4.4249      2.8101     20.5076      2.3848       2.395
        3474        9.74     19.3194     79.8439     66.0101      4.8117      2.9174     20.8319      2.3848      2.4143
      3474.5        9.74     17.4581     79.6463     74.6252      5.5718      3.3338     20.9363      2.4248      2.4407
        3475        9.74     14.9569     78.3049     86.7791      6.7023      3.7847     20.6227      2.5126      2.4694
      3475.5        9.74     13.0338     76.7438     94.1071      7.3523      4.0169     19.6545      2.6052      2.4989
        3476      9.7935     13.3411     76.5761     91.5197      7.2671      3.9931     19.3194      2.6052      2.4794
      3476.5      9.9147     18.4421     78.5504     75.0084      6.3081      3.4876     19.2711      2.6052      2.4027
        3477          10     21.3264     82.5612     72.7963      5.1703       2.798     21.4186      2.5987      2.3642
      3477.5       10.04     22.2934     85.9241     65.9972      4.1778      2.4284     22.3377      2.4707      2.3447
        3478     10.1184     22.7785     87.8003     63.3304      3.7521       2.184     22.7827      2.4248      2.3437
      3478.5       10.14     23.2847     87.6152     62.0627      3.7037      2.1439     23.4132      2.4048      2.3446
        3479        10.1     24.1508     86.2151     61.7454      3.7621      2.1639     24.0538      2.3848      2.3426
      3479.5     10.1021     23.3014     85.3743     60.7784      3.8435      2.1787     23.3302      2.4044      2.3406
        3480     10.1233     23.0854     85.0108     59.3145      3.9438      2.2203     21.8152      2.4048      2.3385
      3480.5        10.2     23.1256     84.7075     58.9972      4.0192      2.2665     21.8289      2.4449      2.3367
        3481       10.22     22.9246     84.4591      58.982      4.0633      2.2665     22.6387      2.4412      2.3357
      3481.5      10.247     23.1922     84.2886      58.982      4.1011      2.2684      23.202      2.4048      2.3349
        3482     10.3083     23.3626     84.1348      58.982      4.1011      2.2249     23.3784      2.3784      2.3367
      3482.5       10.34     23.2076     83.8925     58.6826      4.0258      2.1639     23.5854      2.3246      2.3386
        3483       10.34     23.0235     83.6917     58.6084      3.8778      2.0651     23.6988      2.3046      2.3407
      3483.5       10.36     22.9246     83.4485     58.3832      3.7699      2.0077     23.1394      2.3046      2.3397
        3484     10.4332     23.0114     83.2253     58.3832      3.6992        1.97     23.0532      2.3046      2.3412
      3484.5       10.52     23.0362     83.0435     58.3832      3.7037      1.9215     22.9201      2.3046      2.3566
        3485       10.52     21.9557     82.6274     58.3832      3.7382      1.9402     22.4186      2.3046      2.3842
      3485.5       10.52      20.323     81.5265     58.3832      3.8986      2.0192     22.3055      2.3246      2.4024
        3486       10.52     19.1325     80.4214     58.0838       4.075      2.0852     21.5767      2.3447       2.406
      3486.5       10.52     18.7839     77.8207     58.0838      4.1916      2.1046      20.691      2.4032      2.3942
        3487       10.56     19.7711     77.8322     58.0838      4.2167      2.1046     20.3018      2.4048      2.3748
      3487.5        10.6     21.0874     79.0866     58.0838      4.1608       2.096     19.8751      2.4048      2.3704
        3488       10.66     21.2764     80.2549     58.0838      4.1011      2.0377     19.5837      2.3647      2.3693
      3488.5     10.6643      21.075     80.8991     58.0838      4.1011      1.9994     19.4567      2.3684      2.3689
        3489       10.72      21.282     80.9218     58.0838      4.1011      1.9908     21.3042      2.3848      2.3653
      3489.5     10.7693     22.0151     81.0134     58.0838      4.1011      2.0164     22.0609      2.3848      2.3544
        3490       10.72     22.7791     81.5169     58.0838       4.076      1.9603     22.8069      2.3848      2.3421
      3490.5       10.72     23.0058     82.4664     58.0838      3.9887      1.9414     25.0073      2.3848      2.3391
        3491       10.72     23.1256     82.8854     57.7844      3.9519      1.9362     26.4553      2.3848      2.3371
      3491.5       10.72     23.2121     83.2029      57.485      3.9154      1.8831     27.7367      2.3848      2.3357
        3492       10.72     23.3266      83.437     57.0891      3.9154      1.8831     28.6902      2.3647      2.3357
      3492.5        10.7     23.3152     83.6473     56.1731      3.9154      1.8831     29.3715      2.3447      2.3367
        3493     10.6446     23.1247     83.7675     54.7904      3.9154      1.8831     29.3697      2.3447      2.3392
      3493.5     10.6034     22.9079     83.7675     54.7904      3.9154      1.8657     28.8226      2.3618      2.3414
        3494        10.6     22.8442     83.6072     55.3418      3.9887      1.9365     27.6552      2.3848       2.341
      3494.5        10.6     22.9466     83.4076     57.4076      4.0633      1.9183     25.9078      2.4048        2.34
        3495       10.58     23.0854     83.3267      58.982      4.1011      1.9362     24.7066      2.4048      2.3387
      3495.5       10.54     23.1658     83.3667      58.982      4.1011      1.9752     24.5539      2.3647      2.3377
        3496       10.52     23.1256     83.3667     58.3832      4.1393      1.9397     24.9416      2.3209      2.3395
      3496.5        10.5     23.0126     83.4068      57.485      4.1393      1.9405     25.3638      2.2846      2.3409
        3497        10.5     22.8893     83.4469      57.485      4.1778      1.9908     25.7062      2.2846      2.3435
      3497.5        10.5     22.7258     83.4366     58.6763      4.2296      1.9784     25.4938      2.2645      2.3446
        3498       10.48      22.603     83.4068     60.1912      4.2956      1.9724     25.3707      2.2645      2.3457
      3498.5       10.48      22.603     83.4469     60.7784      4.3524      2.0093     25.0708      2.2645      2.3457
        3499       10.48     22.5571      83.487     60.7784      4.4167      2.0367     23.5688      2.2645      2.3562
      3499.5       10.48     22.4095     83.4068     59.5157      4.4788      2.0563     22.7477      2.2846      2.3568
        3500       10.48      22.201     83.2271     57.8096      4.4993      1.9825     22.2222      2.2846      2.3558
      3500.5       10.48     21.8794     83.1451      55.988      4.4993      2.0659     21.9115      2.2846      2.3567
        3501       10.46     21.9926     83.0461     55.0898      4.4993      2.0659     21.9677      2.2846      2.3548
      3501.5     10.3436     22.2899     83.0309     55.2265      4.4993      2.0791     22.0852      2.3046      2.3528
        3502        10.3     22.4422     83.2332      56.442      4.4993      2.0469     22.4346      2.3046      2.3488
      3502.5       10.28     22.2972       83.59     57.6574      4.5412      2.0852      22.331      2.3659      2.3528
        3503       10.28      22.201     83.6169     58.8729      4.5412       2.101     22.2334      2.3848      2.3559
      3503.5       10.26     21.7344      83.266      59.789      4.6632      2.1412     22.8991      2.4048       2.361
        3504       10.24     21.3686     82.7894     60.7051      4.7126      2.1639     23.6032      2.3996       2.365
      3504.5     10.1762     21.0806     82.2486     61.9205      4.7126      2.1639     24.4392      2.3447       2.369
        3505     10.1485     21.1532      81.846     61.7143      4.6264      2.1242     24.4467      2.3447      2.3688
