###############################################
##         ENVERUS                           ##
##         ESS - Open Hole                   ##
##         PERMIAN / DELAWARE                ##
##         Nov 04 2023  V4.0                 ##
##         42-389-30297-00-00                ##
###############################################
## Copyright 2017-2023  ENVERUS.  All Rights Reserved. 
## Confidential - Property of ENVERUS, use governed by terms and 
## conditions found within the existing Information Services Subscription Agreement 
## (as may be amended, the “ISSA”) between Customer and ENVERUS. 
## 
~VERSION INFORMATION
# MNEM.UNIT                               DATA : DESCRIPTION OF MNEMONIC
#-----.-----     ----------------------------- : -----------------------------
VERS.                                     2.00 : CWLS LOG ASCII STANDARD - VERSION 2.00
WRAP.                                       NO : MULTIPLE LINES PER DEPTH STEP
VEND.                                  ENVERUS : VENDOR
TYPE.                          ESS - OPEN HOLE : ENVERUS ESSENTIAL CURVES – ACCESSIBLE THROUGH ENVERUS PRISM(TM)
DOC.                                  32306493 : ENVERUS HEADER RAW DOCUMENT ID
#___________________________________________________________________________________________________ 
~WELL INFORMATION 
# rQStLE5sYsP+YdYw4QOWpp6z6mWwFJBvCxgTqRv2Ioz+qyoYLl+79qTOna8BSHgUk5jTgp49hkgrAQ1kFKyHCg== 
# MNEM.UNIT                                              DATA : DESCRIPTION OF MNEMONIC 
#-----.-----                    ----------------------------- : ----------------------------- 
CNTY.                                                  REEVES : COUNTY 
STATE.                                                  TEXAS : STATE 
CNTRY.                                                    USA : COUNTRY 
API.                                             42-389-30297 : API (10 Digit) 
API_14.                                    42-389-30297-00-00 : API (14 Digits) 
API_14_std.                                 42-389-30297-0000 : API (14 Digits Standard) 
UWI.                                           42389302970000 : UNIQUE WELL ID 
WELL.                              R.S. BRENNAND, JR. ET AL 1 : WELL NAME
STRT.FT                                                   3.0 : START DEPTH
STOP.FT                                               13007.0 : STOP DEPTH
STEP.FT                                                   0.5 : STEP BETWEEN DEPTHS
NULL.                                                 -999.25 : NULL VALUE
#___________________________________________________________________________________________________ 
~CURVE INFORMATION 
# MNEM.UNIT           : CURVE DESCRIPTION 
#-----.-----          : ----------------------------- 
 DEPT.FT               : MEASURED DEPTH 
 CALI.IN               : CALIPER (CAL - CAL) 
 GR.API                : GAMMA RAY (GR) 
 DT.US/FT              : SONIC DELTA TRANSIT TIME (DT) 
 NPHI.V/V              : NEUTRON POROSITY (NPHI) 
 RHOB.G/CC             : BULK DENSITY (RHOB) 
 #___________________________________________________________________________________________________ 
~A         DEPT           CALI             GR             DT           NPHI           RHOB
# ...
         4183.0          9.954         87.302         67.616     -999.25000         2.5650
         4183.5          9.954         92.644         69.051     -999.25000         2.5314
         4184.0          9.954        102.208         70.682     -999.25000         2.5362
         4184.5          9.954        113.859         72.313     -999.25000         2.5410
         4185.0          9.954        124.517         73.902     -999.25000         2.5458
         4185.5          9.954        130.830         73.990     -999.25000         2.5391
         4186.0          9.954        137.143         74.079     -999.25000         2.5323
         4186.5          9.953        143.456         74.168     -999.25000         2.5255
         4187.0          9.953        149.769         74.257     -999.25000         2.5186
         4187.5          9.953        146.377         74.152     -999.25000         2.5118
         4188.0          9.953        131.639         74.046     -999.25000         2.5050
         4188.5          9.953        116.901         73.941     -999.25000         2.4982
         4189.0          9.953        102.904         71.034     -999.25000         2.5046
         4189.5          9.953         89.861         66.534     -999.25000         2.5162
         4190.0          9.952         76.818         64.276     -999.25000         2.5278
         4190.5          9.952         63.775         63.715     -999.25000         2.5393
         4191.0          9.952         62.028         63.154     -999.25000         2.5509
         4191.5          9.952         63.163         64.169     -999.25000         2.5625
         4192.0          9.952         64.298         65.141     -999.25000         2.5668
         4192.5          9.952         65.433         65.377     -999.25000         2.5614
         4193.0          9.952         66.568         65.614     -999.25000         2.5561
         4193.5          9.952         67.703         65.742     -999.25000         2.5507
         4194.0          9.951         68.838         65.758     -999.25000         2.5453
         4194.5          9.951         69.974         65.774     -999.25000         2.5399
         4195.0          9.951         71.109         65.790     -999.25000         2.5345
         4195.5          9.951         72.244         65.806     -999.25000         2.5386
         4196.0          9.951         75.062         65.822     -999.25000         2.5454
         4196.5          9.951         79.142         65.838     -999.25000         2.5521
         4197.0          9.951         83.222         66.111     -999.25000         2.5588
         4197.5          9.951         87.303         66.665     -999.25000         2.5656
         4198.0          9.950        105.461         68.383     -999.25000         2.5655
         4198.5          9.950        120.106         71.781     -999.25000         2.5477
         4199.0          9.950        112.331         75.179     -999.25000         2.5299
         4199.5          9.950        104.556         74.289     -999.25000         2.5121
         4200.0          9.950         96.781         72.728     -999.25000         2.4943
         4200.5          9.950         89.007         68.111     -999.25000         2.4977
         4201.0          9.950         81.232         66.043     -999.25000         2.5066
         4201.5          9.949         74.315         65.588     -999.25000         2.5156
         4202.0          9.949         74.241         65.202     -999.25000         2.5245
         4202.5          9.949         74.167         64.816     -999.25000         2.5334
         4203.0          9.949         74.093         64.464     -999.25000         2.5423
         4203.5          9.949         74.018         64.932     -999.25000         2.5513
         4204.0          9.949         71.686         65.400     -999.25000         2.5602
         4204.5          9.949         68.181         65.800     -999.25000         2.5691
         4205.0          9.949         64.677         64.757     -999.25000         2.5767
         4205.5          9.948         61.172         63.714     -999.25000         2.5717
         4206.0          9.948         57.668         61.823     -999.25000         2.5667
         4206.5          9.948         54.163         60.844     -999.25000         2.5616
         4207.0          9.948         50.659         60.460     -999.25000         2.5566
         4207.5          9.948         52.461         60.076     -999.25000         2.5573
         4208.0          9.948         56.091         59.693     -999.25000         2.5653
         4208.5          9.948         59.720         60.075     -999.25000         2.5732
         4209.0          9.947         63.350         62.181     -999.25000         2.5714
         4209.5          9.947         66.979         63.936     -999.25000         2.5648
         4210.0          9.947         68.740         65.692     -999.25000         2.5583
         4210.5          9.947         69.182         67.447     -999.25000         2.5517
         4211.0          9.947         69.623         67.572     -999.25000         2.5452
         4211.5          9.947         70.065         67.361     -999.25000         2.5387
         4212.0          9.947         70.507         67.149     -999.25000         2.5321
         4212.5          9.947         70.577         66.937     -999.25000         2.5256
         4213.0          9.946         70.258         66.725     -999.25000         2.5190
         4213.5          9.946         69.938         66.880     -999.25000         2.5166
         4214.0          9.946         69.619         67.618     -999.25000         2.5199
         4214.5          9.946         69.300         68.356     -999.25000         2.5207
         4215.0          9.946         68.980         68.515     -999.25000         2.5170
         4215.5          9.946         68.661         68.503     -999.25000         2.5134
         4216.0          9.946         68.342         68.491     -999.25000         2.5097
         4216.5          9.945         68.022         68.479     -999.25000         2.5060
         4217.0          9.945         67.703         68.466     -999.25000         2.5024
         4217.5          9.945         66.944         68.304     -999.25000         2.5018
         4218.0          9.945         65.241         67.730     -999.25000         2.5067
         4218.5          9.945         63.538         67.157     -999.25000         2.5116
         4219.0          9.945         61.836         66.908     -999.25000         2.5165
         4219.5          9.945         60.133         66.719     -999.25000         2.5214
         4220.0          9.945         58.430         66.531     -999.25000         2.5263
         4220.5          9.944         59.421         66.343     -999.25000         2.5313
         4221.0          9.944         62.046         66.154     -999.25000         2.5362
         4221.5          9.944         64.671         65.966     -999.25000         2.5411
         4222.0          9.944         67.296         66.385     -999.25000         2.5460
         4222.5          9.944         69.921         67.810     -999.25000         2.5509
         4223.0          9.944         72.546         69.426     -999.25000         2.5558
         4223.5          9.944         71.599         70.868     -999.25000         2.5600
         4224.0          9.943         69.993         70.947     -999.25000         2.5517
         4224.5          9.943         68.388         70.816     -999.25000         2.5433
         4225.0          9.943         66.783         70.446     -999.25000         2.5349
         4225.5          9.943         66.881         70.076     -999.25000         2.5266
         4226.0          9.943         69.394         69.706     -999.25000         2.5182
         4226.5          9.943         71.908         69.336     -999.25000         2.5099
