###############################################
##         ENVERUS                           ##
##         ESS - Open Hole                   ##
##         PERMIAN / DELAWARE                ##
##         Nov 04 2023  V4.0                 ##
##         42-389-32245-00-00                ##
###############################################
## Copyright 2017-2023  ENVERUS.  All Rights Reserved. 
## Confidential - Property of ENVERUS, use governed by terms and 
## conditions found within the existing Information Services Subscription Agreement 
## (as may be amended, the “ISSA”) between Customer and ENVERUS. 
## 
~VERSION INFORMATION
# MNEM.UNIT                               DATA : DESCRIPTION OF MNEMONIC
#-----.-----     ----------------------------- : -----------------------------
VERS.                                     2.00 : CWLS LOG ASCII STANDARD - VERSION 2.00
WRAP.                                       NO : MULTIPLE LINES PER DEPTH STEP
VEND.                                  ENVERUS : VENDOR
TYPE.                          ESS - OPEN HOLE : ENVERUS ESSENTIAL CURVES – ACCESSIBLE THROUGH ENVERUS PRISM(TM)
DOC.                                  31784178 : ENVERUS HEADER RAW DOCUMENT ID
#___________________________________________________________________________________________________ 
~WELL INFORMATION 
# v5kOeJgG8V8Fdrn76qwaaSXPAkEfLGq57aawfXlCwOXh55ROPeN2VCvB7JmY2/dENYnWxxZwl4Ma/Wu+4c2YGQ== 
# MNEM.UNIT                                              DATA : DESCRIPTION OF MNEMONIC 
#-----.-----                    ----------------------------- : ----------------------------- 
CNTY.                                                  REEVES : COUNTY 
STATE.                                                  TEXAS : STATE 
CNTRY.                                                    USA : COUNTRY 
API.                                             42-389-32245 : API (10 Digit) 
API_14.                                    42-389-32245-00-00 : API (14 Digits) 
API_14_std.                                 42-389-32245-0000 : API (14 Digits Standard) 
UWI.                                           42389322450000 : UNIQUE WELL ID 
WELL.                          TEXAS PACIFIC LAND TRUST 25 1H : WELL NAME
STRT.FT                                                2519.0 : START DEPTH
STOP.FT                                               10624.0 : STOP DEPTH
STEP.FT                                                   0.5 : STEP BETWEEN DEPTHS
NULL.                                                 -999.25 : NULL VALUE
#___________________________________________________________________________________________________ 
~CURVE INFORMATION 
# MNEM.UNIT           : CURVE DESCRIPTION 
#-----.-----          : ----------------------------- 
 DEPT.FT               : MEASURED DEPTH 
 CALI__B.IN            : CALIPER (CAL - CAL) 
 GR__B.API             : GAMMA RAY (GR) 
 DT__B.US/FT           : SONIC DELTA TRANSIT TIME (DT) 
 #___________________________________________________________________________________________________ 
~A         DEPT        CALI__B          GR__B          DT__B
# ...
         4697.0         14.119         57.213         65.871
         4697.5         14.099         55.857         66.110
         4698.0         14.079         54.500         67.074
         4698.5         14.058         61.299         69.622
         4699.0         14.038         68.535         74.722
         4699.5         14.018         75.099         79.361
         4700.0         13.997         79.694         79.425
         4700.5         13.977         84.289         71.388
         4701.0         13.971         86.969         73.318
         4701.5         13.982         88.166         88.755
         4702.0         13.992         81.850         97.360
         4702.5         14.002         73.368        103.452
         4703.0         14.013         65.827        108.528
         4703.5         14.023         65.675        112.074
         4704.0         14.033         67.697        112.020
         4704.5         14.038         71.502        103.578
         4705.0         14.043         75.307         92.600
         4705.5         14.048         74.729         83.618
         4706.0         14.053         70.767         83.372
         4706.5         14.050         65.890         79.232
         4707.0         14.037         61.014         72.073
         4707.5         14.025         57.442         66.531
         4708.0         14.012         59.877         65.944
         4708.5         13.921         66.661         66.516
         4709.0         13.818         87.965         69.125
         4709.5         13.716        108.298         71.734
         4710.0         13.614        126.923         76.416
         4710.5         13.541        145.548         89.948
         4711.0         13.533        140.259        103.325
         4711.5         13.525        131.145        116.245
         4712.0         13.517        122.031        127.166
         4712.5         13.509        121.648        115.616
         4713.0         13.501        124.063        100.761
         4713.5         13.520        113.306         79.877
         4714.0         13.551         89.288         69.810
         4714.5         13.582         76.572         65.062
         4715.0         13.614         70.524         65.045
         4715.5         13.645         73.073         65.745
         4716.0         13.676         75.622         67.656
         4716.5         13.708         77.919         71.698
         4717.0         13.739         77.280         75.474
         4717.5         13.771         76.641         72.479
         4718.0         13.802         76.002         69.580
         4718.5         13.833         77.738         69.918
         4719.0         13.853         80.353         70.172
         4719.5         13.872         82.968         69.833
         4720.0         13.892         85.037         69.366
         4720.5         13.912         83.348         68.567
         4721.0         13.931         77.696         67.769
         4721.5         13.951         72.043         71.345
         4722.0         13.971         68.298         80.671
         4722.5         13.991         67.863        103.707
         4723.0         14.010         67.427        116.605
         4723.5         14.030         66.991        108.018
         4724.0         14.050         66.556         95.661
         4724.5         14.070         66.801         81.500
         4725.0         14.089         67.864         74.851
         4725.5         14.109         68.927         71.255
         4726.0         14.129         68.194         70.906
         4726.5         14.148         66.929         70.899
         4727.0         14.168         65.663         84.477
         4727.5         14.188         65.154         98.056
         4728.0         14.208         67.633        117.836
         4728.5         14.221         70.112        118.627
         4729.0         14.233         70.275        105.885
         4729.5         14.245         68.277         83.724
         4730.0         14.256         66.278         67.878
         4730.5         14.268         64.279         67.648
         4731.0         14.278         66.605         79.502
         4731.5         14.278         69.167         97.779
         4732.0         14.278         71.730        115.387
         4732.5         14.278         73.466        116.133
         4733.0         14.278         70.264        106.430
         4733.5         14.278         67.063         96.503
         4734.0         14.278         63.959         95.048
         4734.5         14.278         64.795        109.672
         4735.0         14.278         65.631        102.561
         4735.5         14.278         66.467         80.525
         4736.0         14.278         66.603         71.296
         4736.5         14.278         66.659         75.573
         4737.0         14.278         66.715         80.129
         4737.5         14.281         66.771         80.288
         4738.0         14.288         68.455         74.181
         4738.5         14.296         69.882         75.151
         4739.0         14.303         70.331         81.838
         4739.5         14.310         70.779         95.582
         4740.0         14.317         71.227        111.894
         4740.5         14.325         70.901        107.042
         4741.0         14.332         68.661         85.849
         4741.5         14.339         66.645         70.682
         4742.0         14.330         68.241         69.911
         4742.5         14.282         69.837         69.646
         4743.0         14.233         71.082         69.516
         4743.5         14.185         71.746         69.528
         4744.0         14.136         75.343         69.540
         4744.5         14.054         86.759         69.952
         4745.0         13.958         98.712         71.318
         4745.5         13.862        126.815         72.684
         4746.0         13.766        151.377         73.566
         4746.5         13.670        162.144         73.949
         4747.0         13.574        149.835         73.941
         4747.5         13.542        131.728         71.969
         4748.0         13.542        113.621         69.841
         4748.5         13.542         97.768         67.980
         4749.0         13.542         89.825         67.240
         4749.5         13.542         82.465         65.642
         4750.0         13.542         77.754         64.602
         4750.5         13.542         73.955         64.644
         4751.0         13.542         72.971         65.261
         4751.5         13.542         72.971         66.453
         4752.0         13.542         76.558         67.283
         4752.5         13.542         80.320         67.123
         4753.0         13.542         81.203         66.324
         4753.5         13.542         79.069         65.525
         4754.0         13.542         76.935         65.283
         4754.5         13.542         78.327         65.521
         4755.0         13.542         82.165         66.107
         4755.5         13.542         86.003         66.336
         4756.0         13.529         86.121         69.863
         4756.5         13.515         84.474         72.814
         4757.0         13.501         83.732         70.306
         4757.5         13.487         86.123         68.519
         4758.0         13.473         88.515         68.751
         4758.5         13.459         88.977         68.896
         4759.0         13.445         87.794         73.664
         4759.5         13.431         87.689         84.040
         4760.0         13.417         88.539         98.473
         4760.5         13.417         88.148        113.096
         4761.0         13.438         84.794        114.495
         4761.5         13.459         83.595        114.568
         4762.0         13.481         83.168        115.155
         4762.5         13.503         81.998        115.743
