###############################################
##         ENVERUS                           ##
##         ESS - Open Hole                   ##
##         PERMIAN / DELAWARE                ##
##         Nov 04 2023  V4.0                 ##
##         42-389-30283-00-00                ##
###############################################
## Copyright 2017-2023  ENVERUS.  All Rights Reserved. 
## Confidential - Property of ENVERUS, use governed by terms and 
## conditions found within the existing Information Services Subscription Agreement 
## (as may be amended, the “ISSA”) between Customer and ENVERUS. 
## 
~VERSION INFORMATION
# MNEM.UNIT                               DATA : DESCRIPTION OF MNEMONIC
#-----.-----     ----------------------------- : -----------------------------
VERS.                                     2.00 : CWLS LOG ASCII STANDARD - VERSION 2.00
WRAP.                                       NO : MULTIPLE LINES PER DEPTH STEP
VEND.                                  ENVERUS : VENDOR
TYPE.                          ESS - OPEN HOLE : ENVERUS ESSENTIAL CURVES – ACCESSIBLE THROUGH ENVERUS PRISM(TM)
DOC.                                  32052778 : ENVERUS HEADER RAW DOCUMENT ID
#___________________________________________________________________________________________________ 
~WELL INFORMATION 
# CKTmoz7OsKELnwE/IP0i4B9qEmEewtam1JWnvb6ghWZsYWfxLv+2EOc67unJ6Yof0W+RqImtxqI23GomxkzDLA== 
# MNEM.UNIT                                              DATA : DESCRIPTION OF MNEMONIC 
#-----.-----                    ----------------------------- : ----------------------------- 
CNTY.                                                  REEVES : COUNTY 
STATE.                                                  TEXAS : STATE 
CNTRY.                                                    USA : COUNTRY 
API.                                             42-389-30283 : API (10 Digit) 
API_14.                                    42-389-30283-00-00 : API (14 Digits) 
API_14_std.                                 42-389-30283-0000 : API (14 Digits Standard) 
UWI.                                           42389302830000 : UNIQUE WELL ID 
WELL.                       RANDOLPH  A. T.  ET AL-STATE  1 L : WELL NAME
STRT.FT                                                 155.0 : START DEPTH
STOP.FT                                               15740.0 : STOP DEPTH
STEP.FT                                                   0.5 : STEP BETWEEN DEPTHS
NULL.                                                 -999.25 : NULL VALUE
COMP.                                     RIO PETROLEUM  INC. : COMPANY
#___________________________________________________________________________________________________ 
~CURVE INFORMATION 
# MNEM.UNIT           : CURVE DESCRIPTION 
#-----.-----          : ----------------------------- 
 DEPT.FT               : MEASURED DEPTH 
 CALI__A.IN            : CALIPER (CAL - CAL) 
 GR__A.API             : GAMMA RAY (GR) 
 SP__A.MV              : SPONTANEOUS POTENTIAL (SP) 
 DT__A.US/FT           : SONIC DELTA TRANSIT TIME (DT) 
 RESD__A.OHMM          : DEEP INDUCTION RESISTIVITY (ILD - ILD) 
 NPHI__A.V/V           : NEUTRON POROSITY (NPH - NPH) 
 #___________________________________________________________________________________________________ 
~A         DEPT        CALI__A          GR__A          SP__A          DT__A        RESD__A        NPHI__A
# ...
         6159.0         12.767         57.818       -999.250         58.110       -999.250     -999.25000
         6159.5         12.760         52.052       -999.250         57.216       -999.250     -999.25000
         6160.0         12.754         50.839       -999.250         58.760       -999.250     -999.25000
         6160.5         12.747         54.716       -999.250         60.304       -999.250     -999.25000
         6161.0         12.784         59.699       -999.250         61.215       -999.250     -999.25000
         6161.5         12.830         64.681       -999.250         61.654       -999.250     -999.25000
         6162.0         12.877         68.129       -999.250         62.076       -999.250     -999.25000
         6162.5         12.923         70.526       -999.250         62.157       -999.250     -999.25000
         6163.0         12.969         70.124       -999.250         62.237       -999.250     -999.25000
         6163.5         13.015         68.872       -999.250         62.318       -999.250     -999.25000
         6164.0         13.041         65.025       -999.250         62.398       -999.250     -999.25000
         6164.5         12.988         65.023       -999.250         62.479       -999.250     -999.25000
         6165.0         12.935         67.262       -999.250         62.560       -999.250     -999.25000
         6165.5         12.882         69.781       -999.250         62.640       -999.250     -999.25000
         6166.0         12.829         70.560       -999.250         62.084       -999.250     -999.25000
         6166.5         12.776         71.779       -999.250         60.868       -999.250     -999.25000
         6167.0         12.723         75.502       -999.250         59.651       -999.250     -999.25000
         6167.5         12.670         74.378       -999.250         59.910       -999.250     -999.25000
         6168.0         12.617         76.263       -999.250         60.864       -999.250     -999.25000
         6168.5         12.568         85.282       -999.250         61.818       -999.250     -999.25000
         6169.0         12.574         96.867       -999.250         62.086       -999.250     -999.25000
         6169.5         12.579         98.899       -999.250         61.701       -999.250     -999.25000
         6170.0         12.585         88.991       -999.250         61.317       -999.250     -999.25000
         6170.5         12.590         78.182       -999.250         61.590       -999.250     -999.25000
         6171.0         12.595         75.154       -999.250         62.453       -999.250     -999.25000
         6171.5         12.601         77.003       -999.250         62.614       -999.250     -999.25000
         6172.0         12.606         79.530       -999.250         62.112       -999.250     -999.25000
         6172.5         12.618         81.648       -999.250         61.023       -999.250     -999.25000
         6173.0         12.661         75.221       -999.250         59.934       -999.250     -999.25000
         6173.5         12.703         69.764       -999.250         58.845       -999.250     -999.25000
         6174.0         12.745         67.672       -999.250         58.987       -999.250     -999.25000
         6174.5         12.787         65.580       -999.250         60.539       -999.250     -999.25000
         6175.0         12.829         64.433       -999.250         62.091       -999.250     -999.25000
         6175.5         12.871         63.675       -999.250         63.131       -999.250     -999.25000
         6176.0         12.913         62.917       -999.250         62.903       -999.250     -999.25000
         6176.5         12.955         62.159       -999.250         62.675       -999.250     -999.25000
         6177.0         12.961         58.978       -999.250         62.447       -999.250     -999.25000
         6177.5         12.961         55.822       -999.250         62.219       -999.250     -999.25000
         6178.0         12.962         54.873       -999.250         62.411       -999.250     -999.25000
         6178.5         12.963         55.636       -999.250         62.657       -999.250     -999.25000
         6179.0         12.964         56.400       -999.250         62.904       -999.250     -999.25000
         6179.5         12.965         58.370       -999.250         63.150       -999.250     -999.25000
         6180.0         12.965         60.724       -999.250         63.191       -999.250     -999.25000
         6180.5         12.966         60.890       -999.250         63.178       -999.250     -999.25000
         6181.0         12.967         59.775       -999.250         63.164       -999.250     -999.25000
         6181.5         12.968         59.314       -999.250         63.150       -999.250     -999.25000
         6182.0         12.969         59.555       -999.250         63.136       -999.250     -999.25000
         6182.5         12.969         60.413       -999.250         63.122       -999.250     -999.25000
         6183.0         12.970         61.845       -999.250         63.109       -999.250     -999.25000
         6183.5         12.971         63.276       -999.250         62.339       -999.250     -999.25000
         6184.0         12.972         59.995       -999.250         61.450       -999.250     -999.25000
         6184.5         12.972         55.914       -999.250         60.560       -999.250     -999.25000
         6185.0         12.973         55.816       -999.250         59.671       -999.250     -999.25000
         6185.5         12.974         50.088       -999.250         60.312       -999.250     -999.25000
         6186.0         12.975         49.936       -999.250         61.352       -999.250     -999.25000
         6186.5         12.976         53.436       -999.250         62.392       -999.250     -999.25000
         6187.0         12.976         61.284       -999.250         63.051       -999.250     -999.25000
         6187.5         12.977         66.521       -999.250         62.851       -999.250     -999.25000
         6188.0         12.978         69.531       -999.250         62.652       -999.250     -999.25000
         6188.5         12.979         73.902       -999.250         62.453       -999.250     -999.25000
         6189.0         12.980         82.360       -999.250         62.254       -999.250     -999.25000
         6189.5         12.980         84.290       -999.250         62.182       -999.250     -999.25000
         6190.0         12.981         89.134       -999.250         62.446       -999.250     -999.25000
         6190.5         12.982         84.977       -999.250         62.709       -999.250     -999.25000
         6191.0         12.983         79.092       -999.250         62.973       -999.250     -999.25000
         6191.5         12.984         72.824       -999.250         63.237       -999.250     -999.25000
         6192.0         12.984         66.556       -999.250         63.500       -999.250     -999.25000
         6192.5         12.985         61.313       -999.250         61.287       -999.250     -999.25000
         6193.0         12.986         56.943       -999.250         58.840       -999.250     -999.25000
         6193.5         12.987         52.574       -999.250         56.393       -999.250     -999.25000
         6194.0         12.988         46.261       -999.250         55.868       -999.250     -999.25000
         6194.5         12.988         38.858       -999.250         57.255       -999.250     -999.25000
         6195.0         12.989         36.735       -999.250         58.642       -999.250     -999.25000
         6195.5         12.990         36.345       -999.250         61.341       -999.250     -999.25000
         6196.0         12.991         36.520       -999.250         62.905       -999.250     -999.25000
         6196.5         12.991         37.361       -999.250         63.911       -999.250     -999.25000
