###############################################
##         ENVERUS                           ##
##         ESS - Open Hole                   ##
##         PERMIAN / DELAWARE                ##
##         Nov 04 2023  V4.0                 ##
##         42-389-32398-00-00                ##
###############################################
## Copyright 2017-2023  ENVERUS.  All Rights Reserved. 
## Confidential - Property of ENVERUS, use governed by terms and 
## conditions found within the existing Information Services Subscription Agreement 
## (as may be amended, the “ISSA”) between Customer and ENVERUS. 
## 
~VERSION INFORMATION
# MNEM.UNIT                               DATA : DESCRIPTION OF MNEMONIC
#-----.-----     ----------------------------- : -----------------------------
VERS.                                     2.00 : CWLS LOG ASCII STANDARD - VERSION 2.00
WRAP.                                       NO : MULTIPLE LINES PER DEPTH STEP
VEND.                                  ENVERUS : VENDOR
TYPE.                          ESS - OPEN HOLE : ENVERUS ESSENTIAL CURVES – ACCESSIBLE THROUGH ENVERUS PRISM(TM)
DOC.                                  31812117 : ENVERUS HEADER RAW DOCUMENT ID
#___________________________________________________________________________________________________ 
~WELL INFORMATION 
# uAwnbjLw6pKN5CeTb7gwROLhNOHLu74gercCwdGpUdKCBCGOTLsJuzWIBCYkU6KzQxtC+uHRBloynRtd0Ulspg== 
# MNEM.UNIT                                              DATA : DESCRIPTION OF MNEMONIC 
#-----.-----                    ----------------------------- : ----------------------------- 
CNTY.                                                  REEVES : COUNTY 
STATE.                                                  TEXAS : STATE 
CNTRY.                                                    USA : COUNTRY 
API.                                             42-389-32398 : API (10 Digit) 
API_14.                                    42-389-32398-00-00 : API (14 Digits) 
API_14_std.                                 42-389-32398-0000 : API (14 Digits Standard) 
UWI.                                           42389323980000 : UNIQUE WELL ID 
WELL.                                    BLOCK 58 STATE 32  1 : WELL NAME
STRT.FT                                                8311.0 : START DEPTH
STOP.FT                                               12834.0 : STOP DEPTH
STEP.FT                                                   0.5 : STEP BETWEEN DEPTHS
NULL.                                                 -999.25 : NULL VALUE
COMP.                                       SHELL WESTERN E&P : COMPANY 
DATE.                                             08-FEB-2006 : LOG DATE
#___________________________________________________________________________________________________ 
~CURVE INFORMATION 
# MNEM.UNIT           : CURVE DESCRIPTION 
#-----.-----          : ----------------------------- 
 DEPT.FT               : MEASURED DEPTH 
 CALI__B.IN            : CALIPER (CAL - CAL) 
 GR__B.API             : GAMMA RAY (GR) 
 DT__B.US/FT           : SONIC DELTA TRANSIT TIME (DT) 
 RESS__B.OHMM          : SHALLOW INDUCTION RESISTIVITY (ILS - ILS) 
 RESD__B.OHMM          : DEEP INDUCTION RESISTIVITY (ILD - ILD) 
 #___________________________________________________________________________________________________ 
~A         DEPT        CALI__B          GR__B          DT__B        RESS__B        RESD__B
# ...
         9939.0          8.310         59.643         64.627         38.124         43.847
         9939.5          8.310         57.292         64.355         46.287         50.072
         9940.0          8.310         57.982         64.059         52.249         53.591
         9940.5          8.310         59.606         63.340         56.430         57.109
         9941.0          8.310         58.293         61.650         59.985         60.627
         9941.5          8.310         50.856         59.960         62.196         65.264
         9942.0          8.310         43.054         58.821         64.404         83.024
         9942.5          8.310         40.941         58.937         67.526         89.636
         9943.0          8.310         45.072         60.241         67.289         78.010
         9943.5          8.310         56.399         63.496         57.370         66.383
         9944.0          8.310         67.727         66.360         46.562         54.757
         9944.5          8.310         74.990         68.891         44.308         48.594
         9945.0          8.310         82.164         71.433         48.606         50.241
         9945.5          8.310         97.580         73.993         53.513         51.887
         9946.0          8.310        112.997         77.922         56.162         53.534
         9946.5          8.310        125.641         82.393         58.567         55.305
         9947.0          8.310        126.492         83.573         59.121         57.547
         9947.5          8.310        122.899         82.921         57.587         59.789
         9948.0          8.310        110.176         81.413         51.697         62.032
         9948.5          8.310         97.453         78.787         45.696         59.989
         9949.0          8.310         88.606         76.746         40.839         53.917
         9949.5          8.309         84.537         76.278         35.936         51.360
         9950.0          8.309         85.769         76.339         34.339         54.294
         9950.5          8.309         93.328         76.545         33.782         57.228
         9951.0          8.309         98.484         76.751         31.293         58.539
         9951.5          8.308         94.128         76.108         31.105         57.905
         9952.0          8.308         80.641         72.424         32.553         61.568
         9952.5          8.308         66.380         67.684         37.128         75.119
         9953.0          8.308         57.572         64.049         46.359         88.669
         9953.5          8.307         48.764         63.534         52.642        102.220
         9954.0          8.307         40.066         64.266         51.942        115.770
         9954.5          8.307         47.270         68.045         59.209        103.150
         9955.0          8.307         63.054         71.106         53.479         82.718
         9955.5          8.307         78.952         74.166         42.618         62.286
         9956.0          8.306         91.315         75.286         36.161         41.854
         9956.5          8.306         98.143         76.254         32.066         37.098
         9957.0          8.306        104.971         77.765         31.921         37.793
         9957.5          8.306        110.226         77.342         34.207         38.488
         9958.0          8.305        107.349         75.192         30.162         36.068
         9958.5          8.305        101.792         72.712         27.912         31.247
         9959.0          8.305         94.885         72.372         27.338         32.424
         9959.5          8.305         87.978         72.522         31.281         40.931
         9960.0          8.305         83.586         74.132         38.451         49.439
         9960.5          8.304         94.933         76.308         36.097         49.396
         9961.0          8.304        111.264         78.463         32.968         47.726
         9961.5          8.304        127.595         79.857         28.298         43.516
         9962.0          8.304        137.439         79.769         23.756         36.102
         9962.5          8.303        138.798         78.880         19.398         28.688
         9963.0          8.303        135.137         76.271         15.930         21.274
         9963.5          8.303        120.903         73.512         15.993         22.412
         9964.0          8.303        105.433         72.601         19.644         24.766
         9964.5          8.302         89.964         72.507         22.269         27.119
         9965.0          8.302         80.188         72.620         24.894         29.472
         9965.5          8.302         80.807         73.576         23.423         29.004
         9966.0          8.302         96.245         75.407         20.969         26.946
         9966.5          8.302        104.560         78.150         19.531         24.888
         9967.0          8.301        103.202         79.887         17.875         22.830
         9967.5          8.301        101.845         80.107         16.207         20.771
         9968.0          8.301        100.821         80.236         15.744         21.204
         9968.5          8.301        100.957         80.133         16.538         23.142
         9969.0          8.300        108.516         80.000         18.648         25.080
         9969.5          8.300        116.075         79.890         19.668         27.017
         9970.0          8.300        115.787         79.789         17.363         24.064
         9970.5          8.300        114.377         79.589         14.653         19.730
         9971.0          8.300        114.539         79.347         13.860         17.845
         9971.5          8.299        115.279         79.105         14.957         19.176
         9972.0          8.299        114.672         77.915         16.250         20.390
         9972.5          8.299        109.107         76.722         17.886         21.416
         9973.0          8.299        101.328         75.886         19.705         23.186
         9973.5          8.298         93.549         75.751         22.481         26.377
         9974.0          8.298         91.575         76.200         22.980         26.671
         9974.5          8.298         90.311         77.099         22.761         25.514
         9975.0          8.298         94.658         78.694         22.133         24.356
         9975.5          8.297         99.720         79.835         21.212         23.198
         9976.0          8.297        104.781         80.152         23.812         25.250
         9976.5          8.297        105.263         79.960         28.418         32.490
         9977.0          8.297         96.620         77.230         27.089         29.804
         9977.5          8.297         87.976         73.368         23.705         26.230
         9978.0          8.296         82.405         71.834         24.683         28.806
         9978.5          8.296         81.973         70.082         26.304         31.381
         9979.0          8.296         81.091         66.753         26.002         30.750
         9979.5          8.296         66.564         63.836         27.450         28.231
         9980.0          8.295         52.037         61.078         30.955         41.860
         9980.5          8.295         37.510         61.450         42.761         60.872
         9981.0          8.295         39.914         62.818         61.094         67.429
         9981.5          8.295         51.952         65.746         56.172         58.820
         9982.0          8.295         69.857         69.016         38.990         46.137
         9982.5          8.294         87.761         72.103         28.145         33.455
