###############################################
##         ENVERUS                           ##
##         ESS - Open Hole                   ##
##         PERMIAN / DELAWARE                ##
##         Nov 04 2023  V4.0                 ##
##         42-389-32484-00-00                ##
###############################################
## Copyright 2017-2023  ENVERUS.  All Rights Reserved. 
## Confidential - Property of ENVERUS, use governed by terms and 
## conditions found within the existing Information Services Subscription Agreement 
## (as may be amended, the “ISSA”) between Customer and ENVERUS. 
## 
~VERSION INFORMATION
# MNEM.UNIT                               DATA : DESCRIPTION OF MNEMONIC
#-----.-----     ----------------------------- : -----------------------------
VERS.                                     2.00 : CWLS LOG ASCII STANDARD - VERSION 2.00
WRAP.                                       NO : MULTIPLE LINES PER DEPTH STEP
VEND.                                  ENVERUS : VENDOR
TYPE.                          ESS - OPEN HOLE : ENVERUS ESSENTIAL CURVES – ACCESSIBLE THROUGH ENVERUS PRISM(TM)
DOC.                                  31780441 : ENVERUS HEADER RAW DOCUMENT ID
#___________________________________________________________________________________________________ 
~WELL INFORMATION 
# aTsA/KVwhIqB1dg6n/zy22zTJjsJnyaNqg27ywuj9UrTfzbM7gscpQTlR+gOLN+9jERwUBAE6KvHEXpIT+cpyg== 
# MNEM.UNIT                                              DATA : DESCRIPTION OF MNEMONIC 
#-----.-----                    ----------------------------- : ----------------------------- 
CNTY.                                                  REEVES : COUNTY 
STATE.                                                  TEXAS : STATE 
CNTRY.                                                    USA : COUNTRY 
API.                                             42-389-32484 : API (10 Digit) 
API_14.                                    42-389-32484-00-00 : API (14 Digits) 
API_14_std.                                 42-389-32484-0000 : API (14 Digits Standard) 
UWI.                                           42389324840000 : UNIQUE WELL ID 
WELL.                                        BLK 59 ST 37  1H : WELL NAME
STRT.FT                                                 236.0 : START DEPTH
STOP.FT                                               12079.0 : STOP DEPTH
STEP.FT                                                   0.5 : STEP BETWEEN DEPTHS
NULL.                                                 -999.25 : NULL VALUE
COMP.                                       SHELL WESTERN E&P : COMPANY 
DATE.                                             05-SEP-2007 : LOG DATE
#___________________________________________________________________________________________________ 
~CURVE INFORMATION 
# MNEM.UNIT           : CURVE DESCRIPTION 
#-----.-----          : ----------------------------- 
 DEPT.FT               : MEASURED DEPTH 
 CALI.IN               : CALIPER (CAL - CAL) 
 GR.API                : GAMMA RAY (GR) 
 DT.US/FT              : SONIC DELTA TRANSIT TIME (DT) 
 DPHI.V/V              : DENSITY POROSITY (DPHI) 
 NPHI.V/V              : NEUTRON POROSITY (NPHI) 
 RHOB.G/CC             : BULK DENSITY (RHOB) 
 #___________________________________________________________________________________________________ 
~A         DEPT           CALI             GR             DT           DPHI           NPHI           RHOB
# ...
         3694.0         16.124         66.837       -999.250        0.10531        0.12015         2.5120
         3694.5         16.124         68.174       -999.250        0.11371        0.12899         2.5130
         3695.0         16.117         65.391       -999.250        0.11550        0.12883         2.5160
         3695.5         16.049         64.328       -999.250        0.11365        0.12307         2.5180
         3696.0         15.989         67.158       -999.250        0.11180        0.11975         2.5220
         3696.5         15.997         72.626       -999.250        0.11141        0.11661         2.5340
         3697.0         16.005         74.758       -999.250        0.10767        0.11896         2.5470
         3697.5         16.003         71.901       -999.250        0.09364        0.12279         2.5590
         3698.0         15.969         66.769       -999.250        0.07961        0.12617         2.5710
         3698.5         15.943         61.637       -999.250        0.07835        0.12838         2.5750
         3699.0         15.944         56.506       -999.250        0.08121        0.12468         2.5770
         3699.5         15.944         52.627       -999.250        0.07960        0.11599         2.5750
         3700.0         15.944         51.149       -999.250        0.07798        0.10534         2.5670
         3700.5         15.944         52.926       -999.250        0.08232        0.09680         2.5600
         3701.0         15.944         56.526       -999.250        0.08594        0.09310         2.5520
         3701.5         15.944         59.881       -999.250        0.08869        0.09477         2.5450
         3702.0         15.944         57.976       -999.250        0.09396        0.09732         2.5370
         3702.5         15.944         55.871       -999.250        0.09924        0.09988         2.5300
         3703.0         15.944         54.774       -999.250        0.10564        0.10244         2.5230
         3703.5         16.062         55.534       -999.250        0.11240        0.10083         2.5150
         3704.0         16.187         56.295       -999.250        0.10964        0.08946         2.5210
         3704.5         16.312         57.055       -999.250        0.09976        0.09058         2.5610
         3705.0         16.437         57.037       -999.250        0.07263        0.09395         2.6010
         3705.5         16.547         56.784       -999.250        0.06115        0.10087         2.5930
         3706.0         16.400         61.361       -999.250        0.06655        0.12330         2.5790
         3706.5         16.253         66.759       -999.250        0.08031        0.14824         2.5660
         3707.0         16.106         72.942       -999.250        0.09246        0.14769         2.5530
         3707.5         16.006         79.125       -999.250        0.09390        0.14714         2.5460
         3708.0         15.949         84.237       -999.250        0.09535        0.14671         2.5440
         3708.5         15.893         83.665       -999.250        0.09687        0.14634         2.5420
         3709.0         15.836         77.077       -999.250        0.10382        0.14592         2.5390
         3709.5         15.806         70.250       -999.250        0.10775        0.14362         2.5330
         3710.0         15.799         62.730       -999.250        0.10728        0.13630         2.5260
         3710.5         15.792         55.478       -999.250        0.10682        0.11937         2.5180
         3711.0         15.784         54.090       -999.250        0.10750        0.10244         2.5110
         3711.5         15.777         51.911       -999.250        0.10982        0.08551         2.5040
         3712.0         15.770         46.769       -999.250        0.14465        0.08437         2.4350
         3712.5         15.777         44.140       -999.250        0.15482        0.09539         2.4470
         3713.0         15.811         45.919       -999.250        0.16107        0.10660         2.4600
         3713.5         15.845         48.955       -999.250        0.15658        0.11415         2.4730
         3714.0         15.879         49.280       -999.250        0.14243        0.11640         2.4870
         3714.5         15.913         48.010       -999.250        0.12827        0.11566         2.5000
         3715.0         15.946         45.971       -999.250        0.11412        0.11493         2.5140
         3715.5         15.932         44.068       -999.250        0.11416        0.08962         2.5060
         3716.0         15.917         42.544       -999.250        0.12143        0.08898         2.4920
         3716.5         15.903         42.513       -999.250        0.12871        0.09561         2.4790
         3717.0         15.922         43.038       -999.250        0.13350        0.10224         2.4910
         3717.5         15.944         44.482       -999.250        0.12379        0.10965         2.5060
         3718.0         15.966         47.512       -999.250        0.10976        0.12049         2.5210
         3718.5         15.934         53.559       -999.250        0.10064        0.12353         2.5310
         3719.0         15.889         60.030       -999.250        0.09775        0.12400         2.5360
         3719.5         15.844         63.235       -999.250        0.09959        0.12446         2.5390
         3720.0         15.808         63.540       -999.250        0.10325        0.11929         2.5310
         3720.5         15.795         64.842       -999.250        0.10730        0.11074         2.5230
         3721.0         15.781         66.364       -999.250        0.11135        0.10989         2.5160
         3721.5         15.768         62.891       -999.250        0.11291        0.11242         2.5210
         3722.0         15.887         58.763       -999.250        0.10662        0.11496         2.5310
         3722.5         16.012         57.498       -999.250        0.10743        0.11831         2.5300
         3723.0         16.099         68.189       -999.250        0.10824        0.12185         2.5140
         3723.5         15.671         82.069       -999.250        0.12134        0.13335         2.4990
         3724.0         15.452         98.107       -999.250        0.13806        0.14578         2.4830
         3724.5         15.303        116.670       -999.250        0.14349        0.15821         2.4670
         3725.0         15.153        135.184       -999.250        0.13720        0.17063         2.4760
         3725.5         15.003        154.521       -999.250        0.12645        0.18149         2.5010
         3726.0         14.854        172.726       -999.250        0.11319        0.18962         2.5270
         3726.5         14.704        179.425       -999.250        0.09993        0.18908         2.5430
         3727.0         14.616        169.045       -999.250        0.09788        0.17082         2.5310
         3727.5         14.576        158.666       -999.250        0.10521        0.15292         2.5180
         3728.0         14.535        157.768       -999.250        0.11914        0.15735         2.5060
         3728.5         14.502        168.686       -999.250        0.13033        0.16178         2.4940
         3729.0         14.493        179.605       -999.250        0.13285        0.16621         2.4810
         3729.5         14.484        184.460       -999.250        0.12681        0.16838         2.5010
         3730.0         14.475        177.990       -999.250        0.12078        0.16084         2.5090
         3730.5         14.466        170.056       -999.250        0.11742        0.15595         2.5050
         3731.0         14.457        162.123       -999.250        0.12147        0.15869         2.5010
         3731.5         14.448        160.726       -999.250        0.12259        0.16144         2.5060
