#--------------------------------------------------#
#-------------------ENVERUS, INC.------------------#
#------------------WWW.ENVERUS.COM-----------------#
#------------------COPYRIGHT 2020------------------#
#--------------------------------------------------#
#THIS FILE MAY BE USED ONLY IN ACCORDANCE WITH A CURRENT SUBSCRIPTION AGREEMENT BETWEEN
#THE USER AND ENVERUS, INC. NO PART OF THIS FILE MAY BE REPRODUCED, USED, COPIED,
#MODIFIED, PROPAGATED, OR DISTRIBUTED EXCEPT IN ACCORDANCE WITH THE SUBSCRIPTION
#AGREEMENT. UNAUTHORIZED USE OR DISTRIBUTION OF ALL OR ANY PART OF THIS FILE MAY VIOLATE
#COPYRIGHT, TRADEMARK, AND/OR OTHER LAWS AND IS SUBJECT TO CIVIL AS WELL AS CRIMINAL
#SANCTIONS.
#--------------------------------------------------#
#THIS FILE IS PROVIDED "AS-IS" AND ALL WARRANTIES ARE EXPRESSLY DISCLAIMED, WHETHER
#EXPRESS, ORAL, IMPLIED, STATUTORY OR OTHERWISE, INCLUDING ANY IMPLIED WARRANTY OF FITNESS
#FOR A PARTICULAR PURPOSE, MERCHANTABILITY, TITLE OR NON-INFRINGEMENT, AND ANY WARRANTIES
#ARISING BY VIRTUE OF CUSTOM OF TRADE OR COURSE OF DEALING.  FURTHER, ENVERUS, INC.
#AND ITS LICENSORS DO NOT REPRESENT OR WARRANT THAT THIS FILE WILL MEET USER'S
#REQUIREMENTS OR ARE SUITABLE FOR USER'S NEEDS OR THAT THE DATA OR RESULTS PROVIDED IN
#CONJUNCTION THEREWITH ARE CORRECT, ACCURATE, TIMELY OR RELIABLE. THESE DISCLAIMERS SHALL
#APPLY REGARDLESS OF ANY FAILURE OF ESSENTIAL PURPOSE OF ANY LIMITED REMEDY.  SOME
#JURISDICTIONS DO NOT ALLOW THE EXCLUSION OF CERTAIN WARRANTIES SO SOME OF THE ABOVE
#EXCLUSIONS MAY NOT APPLY. IN NO EVENT SHALL ENVERUS, INC. OR ANY OF ITS AFFILIATES
#BE LIABLE UNDER ANY LEGAL THEORY, WHETHER IN TORT (INCLUDING WITHOUT LIMITATION
#NEGLIGENCE), CONTRACT, STRICT LIABILITY, STATUTORY OR OTHERWISE, FOR ANY SPECIAL,
#INCIDENTAL, CONSEQUENTIAL, EXEMPLARY, PUNITIVE OR INDIRECT DAMAGE OF ANY KIND, INCLUDING
#WITHOUT LIMITATION LOSS OF REVENUE, PROFITS, GOODWILL, USE, AND/OR DATA OR THE COST OF
#PROCUREMENT OF SUBSTITUTE GOODS OR SERVICES, EVEN IF APPRISED OF THE POSSIBILITY OF SUCH
#DAMAGES IN ADVANCE.
#--------------------------------------------------#

~VERSION INFORMATION
VERS. 2.0 : CWLS LOG ASCII STANDARD - VERSION 2.0
WRAP.  NO : ONE LINE PER DEPTH STEP
~WELL INFORMATION
#MNEMONIC     .UNIT              VALUE :DESCRIPTION
STRT       .FT                24 :START DEPTH
STOP       .FT                5035 :STOP DEPTH
STEP       .FT                   0.500 :STEP
NULL       .                  -999.250 :NULL
UWI        .              42389314500000 :UNIQUE WELL ID
API        .              42389314500000 :API NUMBER
COMP       .         SLEDGE BROS. OIL CO. :COMPANY
WELL       .        ELIZABETH MITCHELL  1 :WELL
DATE       .                18-DEC-1983 :LOG DATE
~CURVE INFORMATION
#MNEMONIC     .UNIT      API CODE :CURVE DESCRIPTION
DEPTH       .FT                      :MEASURED DEPTH
CAL.INCH        UNKNOWN   :CAL
DT.US/FT        UNKNOWN   :DT
GR.API        UNKNOWN   :GR
~A    DEPTH    CAL    DT    GR
# ...
 4229     8.845   64.963   68.463
 4229.5     8.845   66.233   77.463
 4230     8.846   67.504   86.463
 4230.5     8.846   68.105   85.405
 4231     8.846   68.195   81.747
 4231.5     8.846   68.027   75.165
 4232     8.849   67.86   72.736
 4232.5     8.855   67.692   71.717
 4233     8.86   67.484   70.699
 4233.5     8.866   67.238   67.531
 4234     8.872   66.753   63.456
 4234.5     8.877   66.269   59.381
 4235     8.883   66.024   56.626
 4235.5     8.889   66.071   56.541
 4236     8.894   66.588   60.311
 4236.5     8.9   67.105   64.259
 4237     8.905   67.622   66.731
 4237.5     8.911   67.767   68.739
 4238     8.917   67.829   68.764
 4238.5     8.922   67.89   67.923
 4239     8.928   67.773   67.081
 4239.5     8.926   67.224   63.709
 4240     8.904   66.003   58.935
 4240.5     8.883   64.781   59.723
 4241     8.862   64.342   61.358
 4241.5     8.84   64.761   66.65
 4242     8.819   65.843   74.3
 4242.5     8.797   66.896   75.459
 4243     8.776   66.886   75.935
 4243.5     8.769   66.485   73.952
 4244     8.767   66.085   71.108
 4244.5     8.765   65.831   68.025
 4245     8.762   65.812   66.883
 4245.5     8.76   65.769   67.06
 4246     8.757   65.555   67.237
 4246.5     8.755   65.342   73.267
 4247     8.752   65.129   76.726
 4247.5     8.75   64.916   78.932
 4248     8.748   64.82   81.032
 4248.5     8.745   64.768   82.109
 4249     8.743   64.563   83.185
 4249.5     8.74   64.071   83.623
 4250     8.738   63.579   78.307
 4250.5     8.736   63.371   75.818
 4251     8.735   63.623   75.562
 4251.5     8.735   64.584   84.271
 4252     8.735   65.545   95.705
 4252.5     8.736   66.505   105.578
 4253     8.736   67.466   107.595
 4253.5     8.732   68.094   109.613
 4254     8.725   68.371   111.63
 4254.5     8.717   68.236   114.982
 4255     8.71   67.004   115.31
 4255.5     8.702   65.573   115.639
 4256     8.695   64.143   114.629
 4256.5     8.687   62.712   111.553
 4257     8.68   61.41   110.693
 4257.5     8.672   60.446   109.833
 4258     8.665   59.482   106.364
 4258.5     8.657   58.996   92.308
 4259     8.661   59.519   85.89
 4259.5     8.665   61.677   82.385
 4260     8.67   64.458   88.283
 4260.5     8.674   67.318   101.345
 4261     8.678   69.41   114.151
 4261.5     8.682   69.786   129.126
 4262     8.686   69.785   130.3
 4262.5     8.69   68.375   112.806
 4263     8.694   66.343   100.199
 4263.5     8.698   64.1   88.773
 4264     8.701   61.818   86.679
 4264.5     8.701   62.242   91.666
 4265     8.701   66.738   102.402
 4265.5     8.702   70.038   114.919
 4266     8.702   71.703   124.611
 4266.5     8.702   71.881   130.149
 4267     8.702   71.402   135.969
 4267.5     8.703   70.924   145.536
 4268     8.703   70.587   156.269
 4268.5     8.703   70.586   164.982
 4269     8.703   70.585   166.339
 4269.5     8.704   70.82   167.696
 4270     8.704   71.119   169.053
 4270.5     8.706   71.418   165.555
 4271     8.72   71.602   160.658
 4271.5     8.734   71.686   161.072
 4272     8.747   71.747   161.486
 4272.5     8.761   71.681   153.226
 4273     8.774   71.236   138.889
 4273.5     8.787   69.576   124.551
 4274     8.792   67.783   116.113
 4274.5     8.796   64.016   81.473
 4275     8.8   63.071   57.452
 4275.5     8.805   64.118   49.567
 4276     8.809   65.166   48.2
 4276.5     8.813   65.887   48.336
 4277     8.817   65.955   50.238
 4277.5     8.822   66.022   52.154
 4278     8.826   66.431   54.073
 4278.5     8.83   66.857   54.397
 4279     8.834   67.006   54.238
 4279.5     8.839   67.141   53.772
 4280     8.843   67.425   50.783
 4280.5     8.847   67.818   46.865
 4281     8.852   68.081   48.869
 4281.5     8.849   67.841   51.824
 4282     8.845   67.601   55.503
 4282.5     8.842   67.36   59.182
 4283     8.838   67.428   62.862
 4283.5     8.835   67.843   67.221
 4284     8.839   68.275   71.609
 4284.5     8.849   68.708   73.021
 4285     8.859   68.931   70.954
 4285.5     8.869   68.896   68.7
 4286     8.879   68.531   66.426
 4286.5     8.89   67.668   64.049
 4287     8.9   66.805   60.255
 4287.5     8.91   66.466   53.762
 4288     8.92   66.557   48.979
 4288.5     8.93   66.905   47.546
 4289     8.933   67.055   48.875
 4289.5     8.919   67.149   52.208
 4290     8.905   67.558   55.854
 4290.5     8.891   68.134   60.56
 4291     8.878   68.711   65.265
 4291.5     8.864   68.762   69.6
 4292     8.85   68.131   73.278
 4292.5     8.837   67.435   70.76
 4293     8.823   66.739   69.535
 4293.5     8.809   66.043   68.377
 4294     8.796   66.039   68.586
 4294.5     8.782   66.257   71.004
 4295     8.769   66.509   74.623
 4295.5     8.755   66.568   80.005
 4296     8.741   66.089   85.255
 4296.5     8.737   64.272   86.485
 4297     8.737   62.455   79.635
 4297.5     8.736   60.532   67.386
 4298     8.736   58.484   60.109
 4298.5     8.736   59.097   57.401
 4299     8.735   60.629   66.33
 4299.5     8.735   62.162   75.258
 4300     8.734   63.598   85.949
 4300.5     8.734   63.651   91.884
 4301     8.733   63.056   91.181
 4301.5     8.733   61.955   88.618
 4302     8.733   60.855   86.833
 4302.5     8.732   59.754   73.412
 4303     8.732   59.511   67.661
 4303.5     8.731   59.757   64.474
 4304     8.731   60.634   61.716
 4304.5     8.731   61.283   56.854
 4305     8.73   61.316   57.255
 4305.5     8.73   61.35   58.48
 4306     8.729   62.016   59.37
 4306.5     8.729   62.68   57.821
 4307     8.729   62.879   56.179
 4307.5     8.728   62.74   54.72
 4308     8.728   62.291   55.826
 4308.5     8.727   61.976   55.966
 4309     8.727   62.19   56.106
 4309.5     8.726   63.362   56.726
 4310     8.726   64.533   60.673
 4310.5     8.726   64.831   63.61
 4311     8.725   64.007   62.034
 4311.5     8.725   63.085   59.19
 4312     8.724   62.164   56.227
 4312.5     8.724   60.906   52.831
 4313     8.723   59.644   52.092
 4313.5     8.722   59.542   52.455
 4314     8.722   61.614   69.645
 4314.5     8.721   65.082   91.728
 4315     8.721   67.945   112.981
 4315.5     8.72   70.731   126.024
 4316     8.719   71.929   140.101
 4316.5     8.719   70.296   123.552
 4317     8.718   67.416   108.321
 4317.5     8.717   65.527   89.756
 4318     8.717   64.621   86.862
 4318.5     8.716   66.51   94.035
 4319     8.716   69.376   111.007
 4319.5     8.715   72.506   123.81
 4320     8.714   73.83   142.86
 4320.5     8.714   70.725   115.827
 4321     8.713   62.506   85.165
 4321.5     8.713   60.498   70.681
 4322     8.712   59.924   64.705
 4322.5     8.711   60.956   65.522
 4323     8.711   61.066   66.677
 4323.5     8.71   60.743   66.759
 4324     8.712   60.52   62.29
 4324.5     8.715   60.544   57.268
 4325     8.717   60.885   53.704
 4325.5     8.72   61.387   53.578
 4326     8.723   61.889   58.607
 4326.5     8.726   62.004   59.972
 4327     8.728   62.084   58.996
 4327.5     8.731   62.164   57.785
 4328     8.734   62.202   58.143
 4328.5     8.736   62.178   59.363
 4329     8.739   61.995   59.135
 4329.5     8.742   61.731   57.094
 4330     8.745   61.467   52.64
 4330.5     8.747   61.202   51.478
 4331     8.75   60.938   49.861
 4331.5     8.753   61.12   49.927
 4332     8.754   61.36   51.379
 4332.5     8.753   61.599   52.827
 4333     8.753   61.668   54.234
 4333.5     8.752   61.573   54.861
 4334     8.751   61.478   53.764
 4334.5     8.75   61.79   53.562
 4335     8.749   62.509   53.361
 4335.5     8.749   63.228   52.664
 4336     8.748   63.947   51.558
 4336.5     8.747   64.42   50.451
 4337     8.746   64.235   48.687
 4337.5     8.745   64.178   48.94
 4338     8.745   64.548   49.811
 4338.5     8.744   65.777   50.054
 4339     8.743   67.007   50.057
 4339.5     8.742   67.266   53.395
 4340     8.741   66.673   55.097
 4340.5     8.74   65.917   55.805
 4341     8.74   65.162   53.666
 4341.5     8.739   65.235   51.548
 4342     8.739   65.715   51.091
 4342.5     8.74   66.195   53.246
 4343     8.741   66.172   55.401
 4343.5     8.742   65.863   56.271
