#--------------------------------------------------#
#-------------------ENVERUS, INC.------------------#
#------------------WWW.ENVERUS.COM-----------------#
#------------------COPYRIGHT 2020------------------#
#--------------------------------------------------#
#THIS FILE MAY BE USED ONLY IN ACCORDANCE WITH A CURRENT SUBSCRIPTION AGREEMENT BETWEEN
#THE USER AND ENVERUS, INC. NO PART OF THIS FILE MAY BE REPRODUCED, USED, COPIED,
#MODIFIED, PROPAGATED, OR DISTRIBUTED EXCEPT IN ACCORDANCE WITH THE SUBSCRIPTION
#AGREEMENT. UNAUTHORIZED USE OR DISTRIBUTION OF ALL OR ANY PART OF THIS FILE MAY VIOLATE
#COPYRIGHT, TRADEMARK, AND/OR OTHER LAWS AND IS SUBJECT TO CIVIL AS WELL AS CRIMINAL
#SANCTIONS.
#--------------------------------------------------#
#THIS FILE IS PROVIDED "AS-IS" AND ALL WARRANTIES ARE EXPRESSLY DISCLAIMED, WHETHER
#EXPRESS, ORAL, IMPLIED, STATUTORY OR OTHERWISE, INCLUDING ANY IMPLIED WARRANTY OF FITNESS
#FOR A PARTICULAR PURPOSE, MERCHANTABILITY, TITLE OR NON-INFRINGEMENT, AND ANY WARRANTIES
#ARISING BY VIRTUE OF CUSTOM OF TRADE OR COURSE OF DEALING.  FURTHER, ENVERUS, INC.
#AND ITS LICENSORS DO NOT REPRESENT OR WARRANT THAT THIS FILE WILL MEET USER'S
#REQUIREMENTS OR ARE SUITABLE FOR USER'S NEEDS OR THAT THE DATA OR RESULTS PROVIDED IN
#CONJUNCTION THEREWITH ARE CORRECT, ACCURATE, TIMELY OR RELIABLE. THESE DISCLAIMERS SHALL
#APPLY REGARDLESS OF ANY FAILURE OF ESSENTIAL PURPOSE OF ANY LIMITED REMEDY.  SOME
#JURISDICTIONS DO NOT ALLOW THE EXCLUSION OF CERTAIN WARRANTIES SO SOME OF THE ABOVE
#EXCLUSIONS MAY NOT APPLY. IN NO EVENT SHALL ENVERUS, INC. OR ANY OF ITS AFFILIATES
#BE LIABLE UNDER ANY LEGAL THEORY, WHETHER IN TORT (INCLUDING WITHOUT LIMITATION
#NEGLIGENCE), CONTRACT, STRICT LIABILITY, STATUTORY OR OTHERWISE, FOR ANY SPECIAL,
#INCIDENTAL, CONSEQUENTIAL, EXEMPLARY, PUNITIVE OR INDIRECT DAMAGE OF ANY KIND, INCLUDING
#WITHOUT LIMITATION LOSS OF REVENUE, PROFITS, GOODWILL, USE, AND/OR DATA OR THE COST OF
#PROCUREMENT OF SUBSTITUTE GOODS OR SERVICES, EVEN IF APPRISED OF THE POSSIBILITY OF SUCH
#DAMAGES IN ADVANCE.
#--------------------------------------------------#

~VERSION INFORMATION
VERS. 2.0 : CWLS LOG ASCII STANDARD - VERSION 2.0
WRAP. NO : ONE LINE PER DEPTH STEP
~WELL INFORMATION
#MNEMONIC     .UNIT              VALUE :DESCRIPTION
STRT       .FT                2834.00000 :START DEPTH
STOP       .FT                7010.00000 :STOP DEPTH
STEP       .FT                0.50000 :STEP
NULL       .                -999.25000 :NULL VALUE
UWI       .                42389304120000 :UNIQUE WELL ID
API       .                42389304120000 :API NUMBER
COMP       .                 :COMPANY
WELL       .                 :WELL
FLD       .                 :FIELD
LOC       .                 :LOCATION
CNTY       .                 :COUNTY
STAT       .                 :STATE
CTRY       .                 :COUNTRY
SRVC       .                 :SERVICE COMPANY
DATE       .                 :DATE
~CURVE INFORMATION
#MNEMONIC     .UNIT      API CODE :CURVE DESCRIPTION
DEPTH       .FT                      :MEASURED DEPTH
CAL       .IN        UNKNOWN   :CAL
DT       .US/FT        UNKNOWN   :DT
GR       .GAPI        UNKNOWN   :GR
~A    DEPTH    CAL    DT    GR
# ...
2992.00000    13.12572    -999.25000    30.53183
2992.50000    13.27313    -999.25000    31.53219
2993.00000    13.47782    -999.25000    32.53254
2993.50000    13.68251    -999.25000    33.53290
2994.00000    13.88720    -999.25000    34.53326
2994.50000    14.09189    -999.25000    35.53362
2995.00000    14.29658    -999.25000    36.53398
2995.50000    15.03205    -999.25000    37.53434
2996.00000    15.39749    -999.25000    38.53470
2996.50000    15.46425    -999.25000    39.53506
2997.00000    15.48303    -999.25000    39.40845
2997.50000    15.50181    -999.25000    38.93146
2998.00000    15.52059    -999.25000    38.45446
2998.50000    15.53937    -999.25000    37.97747
2999.00000    15.54568    -999.25000    37.50047
2999.50000    15.55152    -999.25000    37.02348
3000.00000    15.55735    -999.25000    36.54648
3000.50000    15.56292    -999.25000    36.06949
3001.00000    15.59105    -999.25000    35.59250
3001.50000    15.63197    -999.25000    35.11550
3002.00000    15.65609    -999.25000    35.08682
3002.50000    15.68780    -999.25000    35.45444
3003.00000    15.67617    -999.25000    35.82206
3003.50000    15.66395    -999.25000    36.18968
3004.00000    15.65173    -999.25000    36.55731
3004.50000    15.63950    -999.25000    36.92493
3005.00000    15.62728    -999.25000    37.29255
3005.50000    15.61505    -999.25000    37.66017
3006.00000    15.58970    -999.25000    38.02779
3006.50000    15.56325    -999.25000    38.39542
3007.00000    15.53680    -999.25000    38.76304
3007.50000    15.51034    -999.25000    39.13066
3008.00000    15.48389    -999.25000    39.49828
3008.50000    15.45744    -999.25000    39.32200
3009.00000    15.43098    -999.25000    38.71775
3009.50000    15.41741    -999.25000    38.11350
3010.00000    15.40588    -999.25000    37.50925
3010.50000    15.39434    -999.25000    36.90500
3011.00000    15.38281    -999.25000    36.30075
3011.50000    15.37128    -999.25000    36.19817
3012.00000    15.35974    -999.25000    36.58898
3012.50000    15.35638    -999.25000    36.97978
3013.00000    15.36117    -999.25000    37.37059
3013.50000    15.36596    -999.25000    37.76140
3014.00000    15.37076    -999.25000    38.15220
3014.50000    15.37555    -999.25000    38.54301
3015.00000    15.38034    -999.25000    38.93382
3015.50000    15.38513    -999.25000    39.32462
3016.00000    15.38993    -999.25000    39.71543
3016.50000    15.39472    -999.25000    39.75528
3017.00000    15.39951    -999.25000    39.39153
3017.50000    15.40430    -999.25000    39.02779
3018.00000    15.40906    -999.25000    38.66404
3018.50000    15.41361    -999.25000    38.30030
3019.00000    15.41815    -999.25000    37.93655
3019.50000    15.42270    -999.25000    37.57281
3020.00000    15.42724    -999.25000    37.28723
3020.50000    15.43179    -999.25000    37.49487
3021.00000    15.43633    -999.25000    37.70252
3021.50000    15.44088    -999.25000    37.91016
3022.00000    15.44542    -999.25000    38.11781
3022.50000    15.44997    -999.25000    38.32546
3023.00000    15.45451    -999.25000    38.53310
3023.50000    15.45906    -999.25000    38.74075
3024.00000    15.46360    -999.25000    37.89245
3024.50000    15.46815    -999.25000    36.48802
3025.00000    15.47269    -999.25000    35.08360
3025.50000    15.47724    -999.25000    33.67916
3026.00000    15.48178    -999.25000    32.27473
3026.50000    15.48633    -999.25000    30.87030
3027.00000    15.49087    -999.25000    29.46588
3027.50000    15.49514    -999.25000    29.02049
3028.00000    15.47361    -999.25000    29.81872
3028.50000    15.45208    -999.25000    30.61694
3029.00000    15.43055    -999.25000    31.41517
3029.50000    15.40902    -999.25000    32.21340
3030.00000    15.38748    -999.25000    33.01162
3030.50000    15.36595    -999.25000    33.80985
3031.00000    15.34442    -999.25000    34.60808
3031.50000    15.32289    -999.25000    35.40631
3032.00000    15.30136    -999.25000    34.39930
3032.50000    15.27983    -999.25000    33.34732
3033.00000    15.25830    -999.25000    32.29534
3033.50000    15.23677    -999.25000    31.24337
3034.00000    15.20721    -999.25000    30.19139
3034.50000    15.17548    -999.25000    29.13941
3035.00000    15.14374    -999.25000    30.56466
3035.50000    15.11201    -999.25000    32.13083
3036.00000    15.08027    -999.25000    33.69701
3036.50000    15.04854    -999.25000    34.53013
3037.00000    15.01680    -999.25000    35.32960
3037.50000    14.99279    -999.25000    36.12906
3038.00000    14.97216    -999.25000    36.92853
3038.50000    14.95152    -999.25000    37.72799
3039.00000    14.93088    -999.25000    38.52745
3039.50000    14.91025    -999.25000    39.32691
3040.00000    14.88961    -999.25000    40.12638
3040.50000    14.86897    -999.25000    40.58187
3041.00000    14.84834    -999.25000    40.02991
3041.50000    14.82770    -999.25000    39.47794
3042.00000    14.80706    -999.25000    38.92598
3042.50000    14.78643    -999.25000    38.37402
3043.00000    14.76579    -999.25000    37.82205
3043.50000    14.74515    -999.25000    37.27009
3044.00000    14.72452    -999.25000    36.71813
3044.50000    14.70463    -999.25000    37.00330
3045.00000    14.68618    -999.25000    37.72416
3045.50000    14.66774    -999.25000    38.44503
3046.00000    14.64929    -999.25000    39.16589
3046.50000    14.63084    -999.25000    39.88676
3047.00000    14.61239    -999.25000    40.60762
3047.50000    14.59394    -999.25000    41.32848
3048.00000    14.57549    -999.25000    42.04935
3048.50000    14.55705    -999.25000    43.49718
3049.00000    14.53860    -999.25000    46.29951
3049.50000    14.52015    -999.25000    49.10185
3050.00000    14.50170    -999.25000    51.90418
3050.50000    14.48325    -999.25000    54.70652
3051.00000    14.46480    -999.25000    57.50885
3051.50000    14.44635    -999.25000    60.31119
3052.00000    14.42791    -999.25000    63.11353
3052.50000    14.40946    -999.25000    62.09714
3053.00000    14.39101    -999.25000    59.19611
3053.50000    14.37256    -999.25000    56.29508
3054.00000    14.35504    -999.25000    53.39405
3054.50000    14.33865    -999.25000    50.49302
3055.00000    14.32227    -999.25000    47.59199
3055.50000    14.30589    -999.25000    44.69096
3056.00000    14.28951    -999.25000    41.78993
3056.50000    14.27312    -999.25000    41.90920
3057.00000    14.26620    -999.25000    43.07134
3057.50000    14.27590    -999.25000    44.23348
3058.00000    14.28560    -999.25000    45.39562
3058.50000    14.29530    -999.25000    46.55775
3059.00000    14.31864    -999.25000    47.71989
3059.50000    14.34558    -999.25000    48.88203
3060.00000    14.37253    -999.25000    54.95006
3060.50000    14.39947    -999.25000    61.14884
3061.00000    14.42641    -999.25000    67.34762
3061.50000    14.45336    -999.25000    73.54641
3062.00000    14.48030    -999.25000    79.74519
3062.50000    14.50662    -999.25000    82.25149
3063.00000    14.53220    -999.25000    76.62941
3063.50000    14.55778    -999.25000    71.00733
3064.00000    14.58336    -999.25000    65.38525
3064.50000    14.60895    -999.25000    59.76317
3065.00000    14.62674    -999.25000    54.14109
3065.50000    14.63541    -999.25000    48.51901
3066.00000    14.64407    -999.25000    42.89693
3066.50000    14.65274    -999.25000    39.30452
3067.00000    14.65902    -999.25000    39.82493
3067.50000    14.65942    -999.25000    40.34534
3068.00000    14.65982    -999.25000    40.86575
3068.50000    14.66022    -999.25000    41.38616
3069.00000    14.66062    -999.25000    41.48626
3069.50000    14.66102    -999.25000    41.36171
3070.00000    14.66143    -999.25000    41.23717
3070.50000    14.66188    -999.25000    41.11262
3071.00000    14.66233    -999.25000    40.98807
3071.50000    14.66278    -999.25000    40.86352
3072.00000    14.66323    -999.25000    40.73898
3072.50000    14.66368    -999.25000    40.61443
3073.00000    14.66413    -999.25000    40.48988
3073.50000    14.66459    -999.25000    40.81235
