#--------------------------------------------------#
#-------------------ENVERUS, INC.------------------#
#------------------WWW.ENVERUS.COM-----------------#
#------------------COPYRIGHT 2020------------------#
#--------------------------------------------------#
#THIS FILE MAY BE USED ONLY IN ACCORDANCE WITH A CURRENT SUBSCRIPTION AGREEMENT BETWEEN
#THE USER AND ENVERUS, INC. NO PART OF THIS FILE MAY BE REPRODUCED, USED, COPIED,
#MODIFIED, PROPAGATED, OR DISTRIBUTED EXCEPT IN ACCORDANCE WITH THE SUBSCRIPTION
#AGREEMENT. UNAUTHORIZED USE OR DISTRIBUTION OF ALL OR ANY PART OF THIS FILE MAY VIOLATE
#COPYRIGHT, TRADEMARK, AND/OR OTHER LAWS AND IS SUBJECT TO CIVIL AS WELL AS CRIMINAL
#SANCTIONS.
#--------------------------------------------------#
#THIS FILE IS PROVIDED "AS-IS" AND ALL WARRANTIES ARE EXPRESSLY DISCLAIMED, WHETHER
#EXPRESS, ORAL, IMPLIED, STATUTORY OR OTHERWISE, INCLUDING ANY IMPLIED WARRANTY OF FITNESS
#FOR A PARTICULAR PURPOSE, MERCHANTABILITY, TITLE OR NON-INFRINGEMENT, AND ANY WARRANTIES
#ARISING BY VIRTUE OF CUSTOM OF TRADE OR COURSE OF DEALING.  FURTHER, ENVERUS, INC.
#AND ITS LICENSORS DO NOT REPRESENT OR WARRANT THAT THIS FILE WILL MEET USER'S
#REQUIREMENTS OR ARE SUITABLE FOR USER'S NEEDS OR THAT THE DATA OR RESULTS PROVIDED IN
#CONJUNCTION THEREWITH ARE CORRECT, ACCURATE, TIMELY OR RELIABLE. THESE DISCLAIMERS SHALL
#APPLY REGARDLESS OF ANY FAILURE OF ESSENTIAL PURPOSE OF ANY LIMITED REMEDY.  SOME
#JURISDICTIONS DO NOT ALLOW THE EXCLUSION OF CERTAIN WARRANTIES SO SOME OF THE ABOVE
#EXCLUSIONS MAY NOT APPLY. IN NO EVENT SHALL ENVERUS, INC. OR ANY OF ITS AFFILIATES
#BE LIABLE UNDER ANY LEGAL THEORY, WHETHER IN TORT (INCLUDING WITHOUT LIMITATION
#NEGLIGENCE), CONTRACT, STRICT LIABILITY, STATUTORY OR OTHERWISE, FOR ANY SPECIAL,
#INCIDENTAL, CONSEQUENTIAL, EXEMPLARY, PUNITIVE OR INDIRECT DAMAGE OF ANY KIND, INCLUDING
#WITHOUT LIMITATION LOSS OF REVENUE, PROFITS, GOODWILL, USE, AND/OR DATA OR THE COST OF
#PROCUREMENT OF SUBSTITUTE GOODS OR SERVICES, EVEN IF APPRISED OF THE POSSIBILITY OF SUCH
#DAMAGES IN ADVANCE.
#--------------------------------------------------#

~VERSION INFORMATION
VERS. 2.0 : CWLS LOG ASCII STANDARD - VERSION 2.0
WRAP.  NO : ONE LINE PER DEPTH STEP
~WELL INFORMATION
#MNEMONIC     .UNIT              VALUE :DESCRIPTION
STRT       .FT                24 :START DEPTH
STOP       .FT                5035 :STOP DEPTH
STEP       .FT                   0.500 :STEP
NULL       .                  -999.250 :NULL
UWI        .              42389314500000 :UNIQUE WELL ID
API        .              42389314500000 :API NUMBER
COMP       .         SLEDGE BROS. OIL CO. :COMPANY
WELL       .        ELIZABETH MITCHELL  1 :WELL
DATE       .                18-DEC-1983 :LOG DATE
~CURVE INFORMATION
#MNEMONIC     .UNIT      API CODE :CURVE DESCRIPTION
DEPTH       .FT                      :MEASURED DEPTH
CAL.INCH        UNKNOWN   :CAL
DT.US/FT        UNKNOWN   :DT
GR.API        UNKNOWN   :GR
~A    DEPTH    CAL    DT    GR
# ...
 1321.5     8.363   54.931   31.412
 1322     8.363   54.955   30.118
 1322.5     8.363   55   28.824
 1323     8.363   55.045   27.532
 1323.5     8.363   55.091   26.272
 1324     8.363   55.201   25.013
 1324.5     8.363   55.482   23.753
 1325     8.363   55.763   22.494
 1325.5     8.363   56.044   21.234
 1326     8.363   56.248   19.975
 1326.5     8.363   56.211   18.715
 1327     8.363   56.173   18.686
 1327.5     8.362   56.029   19.116
 1328     8.362   55.867   19.545
 1328.5     8.362   55.706   19.974
 1329     8.362   55.544   20.404
 1329.5     8.362   55.383   20.833
 1330     8.362   55.262   21.262
 1330.5     8.362   55.175   21.692
 1331     8.362   55.087   22.121
 1331.5     8.362   55.069   22.97
 1332     8.362   55.186   24.324
 1332.5     8.362   55.303   25.677
 1333     8.362   55.42   27.03
 1333.5     8.361   55.537   28.384
 1334     8.361   55.654   28.192
 1334.5     8.361   55.771   27.779
 1335     8.361   55.848   27.669
 1335.5     8.361   55.879   28.936
 1336     8.361   55.911   30.203
 1336.5     8.361   55.943   30.406
 1337     8.361   55.975   29.654
 1337.5     8.361   56.007   28.902
 1338     8.361   56.039   28.15
 1338.5     8.361   56.071   27.398
 1339     8.361   56.103   28.525
 1339.5     8.361   56.598   29.82
 1340     8.36   57.14   31.114
 1340.5     8.36   57.682   30.992
 1341     8.36   58.224   29.456
 1341.5     8.36   57.203   27.919
 1342     8.36   56.736   28.775
 1342.5     8.36   56.268   30.757
 1343     8.36   55.8   32.74
 1343.5     8.36   55.744   34.723
 1344     8.36   55.695   36.706
 1344.5     8.36   55.657   38.689
 1345     8.36   55.66   36.913
 1345.5     8.359   55.663   33.339
 1346     8.359   55.667   29.764
 1346.5     8.359   55.67   26.478
 1347     8.359   55.674   27.932
 1347.5     8.359   55.699   29.387
 1348     8.359   55.772   30.841
 1348.5     8.359   55.844   32.296
 1349     8.359   55.916   33.588
 1349.5     8.359   55.975   32.415
 1350     8.359   55.869   31.241
 1350.5     8.359   55.764   30.068
 1351     8.359   55.659   28.894
 1351.5     8.359   55.559   28.859
 1352     8.358   55.562   28.959
 1352.5     8.358   55.566   29.059
 1353     8.358   55.569   29.159
 1353.5     8.358   55.573   29.259
 1354     8.358   55.612   29.359
 1354.5     8.358   55.663   28.406
 1355     8.358   55.715   26.805
 1355.5     8.358   55.767   25.204
 1356     8.358   55.819   23.604
 1356.5     8.358   55.87   22.778
 1357     8.358   55.922   22.565
 1357.5     8.358   55.974   22.351
 1358     8.357   56.026   22.137
 1358.5     8.357   56.077   21.923
 1359     8.357   56.025   21.71
 1359.5     8.357   55.918   21.496
 1360     8.357   55.812   21.543
 1360.5     8.357   55.705   21.996
 1361     8.357   55.621   22.45
 1361.5     8.357   55.612   22.903
 1362     8.357   55.603   23.357
 1362.5     8.357   55.594   23.765
 1363     8.357   55.544   22.891
 1363.5     8.357   55.393   22.017
 1364     8.356   55.243   23.532
 1364.5     8.356   55.093   25.864
 1365     8.356   54.943   28.196
 1365.5     8.356   54.792   30.528
 1366     8.356   54.89   32.861
 1366.5     8.356   55.158   32.605
 1367     8.356   55.425   28.562
 1367.5     8.356   55.693   26.257
 1368     8.356   55.961   29.788
 1368.5     8.356   55.945   33.32
 1369     8.356   55.86   36.851
 1369.5     8.356   55.775   38.168
 1370     8.355   55.69   37.979
 1370.5     8.355   55.635   37.791
 1371     8.355   55.624   38.248
 1371.5     8.355   55.614   39.302
 1372     8.355   55.604   40.355
 1372.5     8.355   55.654   40.377
 1373     8.355   55.715   35.133
 1373.5     8.355   55.775   29.68
 1374     8.355   55.836   24.226
 1374.5     8.355   55.892   18.773
 1375     8.355   55.946   13.876
 1375.5     8.355   56   14.964
 1376     8.354   56.053   16.052
 1376.5     8.354   56.003   17.14
 1377     8.354   55.913   18.228
 1377.5     8.354   55.823   19.316
 1378     8.354   55.733   20.404
 1378.5     8.354   55.643   21.492
 1379     8.354   56.111   22.58
 1379.5     8.354   57.153   23.668
 1380     8.354   58.281   24.756
 1380.5     8.354   58.088   25.844
 1381     8.354   57.894   23.64
 1381.5     8.354   57.104   21.481
 1382     8.353   56.282   23.056
 1382.5     8.353   56.119   24.632
 1383     8.353   55.955   26.208
 1383.5     8.353   55.792   27.784
 1384     8.353   55.671   29.359
 1384.5     8.353   55.636   30.935
 1385     8.353   55.602   30.344
 1385.5     8.353   55.567   29.578
 1386     8.353   55.533   28.812
 1386.5     8.353   55.508   28.045
 1387     8.353   55.525   25.943
 1387.5     8.353   55.542   23.102
 1388     8.352   55.559   20.26
 1388.5     8.352   55.585   19.64
 1389     8.352   55.614   19.831
 1389.5     8.352   55.644   20.021
 1390     8.352   55.674   19.997
 1390.5     8.352   55.703   19.237
 1391     8.352   55.733   18.477
 1391.5     8.352   55.763   18.791
 1392     8.352   55.757   19.858
 1392.5     8.352   55.652   20.925
 1393     8.352   55.546   22.307
 1393.5     8.352   55.441   23.894
 1394     8.351   55.386   25.481
 1394.5     8.351   55.494   27.068
 1395     8.351   55.602   28.655
 1395.5     8.351   55.71   29.669
 1396     8.351   55.818   30.262
 1396.5     8.351   55.926   30.855
 1397     8.351   56.034   31.46
 1397.5     8.351   55.969   32.091
 1398     8.351   55.84   32.721
 1398.5     8.351   55.711   33.351
 1399     8.351   55.582   30.831
 1399.5     8.351   55.554   27.092
 1400     8.35   55.572   24.054
 1400.5     8.35   55.59   23.454
 1401     8.35   55.608   22.854
 1401.5     8.35   55.626   22.255
 1402     8.35   55.644   21.295
 1402.5     8.35   55.663   20.051
 1403     8.35   55.681   18.806
 1403.5     8.35   55.699   18.051
 1404     8.35   55.717   18.166
 1404.5     8.35   55.735   18.28
 1405     8.35   55.753   19.789
 1405.5     8.35   55.772   22.352
 1406     8.349   55.79   24.599
 1406.5     8.349   55.808   22.62
 1407     8.349   55.826   20.642
 1407.5     8.349   55.821   18.664
 1408     8.349   55.755   19.947
 1408.5     8.349   55.688   22.628
 1409     8.349   55.622   25.31
 1409.5     8.349   55.556   27.992
 1410     8.349   55.489   30.673
 1410.5     8.349   55.423   29.346
 1411     8.349   55.356   25.898
 1411.5     8.349   55.29   22.449
 1412     8.348   55.441   20.46
 1412.5     8.348   55.616   22.207
 1413     8.348   55.792   23.914
 1413.5     8.348   55.967   25.621
 1414     8.348   55.996   27.328
 1414.5     8.348   55.78   29.036
 1415     8.348   55.565   29.012
 1415.5     8.348   55.582   26.495
 1416     8.348   55.849   23.978
 1416.5     8.348   56.117   21.461
 1417     8.348   56.063   18.944
 1417.5     8.348   55.724   16.427
 1418     8.347   55.385   18.925
 1418.5     8.347   56.578   22.978
 1419     8.347   55.882   27.031
 1419.5     8.347   54.715   29.274
 1420     8.347   51.821   29.421
 1420.5     8.347   50.571   29.567
 1421     8.347   49.369   29.714
 1421.5     8.347   48.168   29.86
 1422     8.347   46.967   30.007
 1422.5     8.347   53.286   25.674
 1423     8.347   56.151   20.681
 1423.5     8.347   56.224   15.687
 1424     8.346   56.213   10.694
 1424.5     8.346   56.201   12.799
 1425     8.346   56.19   15.239
 1425.5     8.346   56.179   17.679
 1426     8.346   56.168   20.119
 1426.5     8.346   56.152   22.558
 1427     8.346   56.124   24.998
 1427.5     8.346   56.097   27.438
 1428     8.346   56.069   27.224
 1428.5     8.346   56.042   26.88
 1429     8.346   56.052   26.536
 1429.5     8.346   56.094   26.192
 1430     8.345   56.137   25.849
 1430.5     8.345   56.179   25.505
 1431     8.345   56.222   25.161
 1431.5     8.345   56.264   24.818
 1432     8.345   56.298   24.474
 1432.5     8.345   56.314   24.13
 1433     8.345   56.331   24.17
 1433.5     8.345   56.347   27.088
 1434     8.345   56.364   27.833
 1434.5     8.345   56.38   25.429
 1435     8.345   56.396   23.024
 1435.5     8.345   56.413   22.429
 1436     8.344   56.223   22.558
 1436.5     8.344   56.011   22.687
