#--------------------------------------------------#
#-------------------ENVERUS, INC.------------------#
#------------------WWW.ENVERUS.COM-----------------#
#------------------COPYRIGHT 2020------------------#
#--------------------------------------------------#
#THIS FILE MAY BE USED ONLY IN ACCORDANCE WITH A CURRENT SUBSCRIPTION AGREEMENT BETWEEN
#THE USER AND ENVERUS, INC. NO PART OF THIS FILE MAY BE REPRODUCED, USED, COPIED,
#MODIFIED, PROPAGATED, OR DISTRIBUTED EXCEPT IN ACCORDANCE WITH THE SUBSCRIPTION
#AGREEMENT. UNAUTHORIZED USE OR DISTRIBUTION OF ALL OR ANY PART OF THIS FILE MAY VIOLATE
#COPYRIGHT, TRADEMARK, AND/OR OTHER LAWS AND IS SUBJECT TO CIVIL AS WELL AS CRIMINAL
#SANCTIONS.
#--------------------------------------------------#
#THIS FILE IS PROVIDED "AS-IS" AND ALL WARRANTIES ARE EXPRESSLY DISCLAIMED, WHETHER
#EXPRESS, ORAL, IMPLIED, STATUTORY OR OTHERWISE, INCLUDING ANY IMPLIED WARRANTY OF FITNESS
#FOR A PARTICULAR PURPOSE, MERCHANTABILITY, TITLE OR NON-INFRINGEMENT, AND ANY WARRANTIES
#ARISING BY VIRTUE OF CUSTOM OF TRADE OR COURSE OF DEALING.  FURTHER, ENVERUS, INC.
#AND ITS LICENSORS DO NOT REPRESENT OR WARRANT THAT THIS FILE WILL MEET USER'S
#REQUIREMENTS OR ARE SUITABLE FOR USER'S NEEDS OR THAT THE DATA OR RESULTS PROVIDED IN
#CONJUNCTION THEREWITH ARE CORRECT, ACCURATE, TIMELY OR RELIABLE. THESE DISCLAIMERS SHALL
#APPLY REGARDLESS OF ANY FAILURE OF ESSENTIAL PURPOSE OF ANY LIMITED REMEDY.  SOME
#JURISDICTIONS DO NOT ALLOW THE EXCLUSION OF CERTAIN WARRANTIES SO SOME OF THE ABOVE
#EXCLUSIONS MAY NOT APPLY. IN NO EVENT SHALL ENVERUS, INC. OR ANY OF ITS AFFILIATES
#BE LIABLE UNDER ANY LEGAL THEORY, WHETHER IN TORT (INCLUDING WITHOUT LIMITATION
#NEGLIGENCE), CONTRACT, STRICT LIABILITY, STATUTORY OR OTHERWISE, FOR ANY SPECIAL,
#INCIDENTAL, CONSEQUENTIAL, EXEMPLARY, PUNITIVE OR INDIRECT DAMAGE OF ANY KIND, INCLUDING
#WITHOUT LIMITATION LOSS OF REVENUE, PROFITS, GOODWILL, USE, AND/OR DATA OR THE COST OF
#PROCUREMENT OF SUBSTITUTE GOODS OR SERVICES, EVEN IF APPRISED OF THE POSSIBILITY OF SUCH
#DAMAGES IN ADVANCE.
#--------------------------------------------------#

~VERSION INFORMATION
VERS. 2.0 : CWLS LOG ASCII STANDARD - VERSION 2.0
WRAP. NO : ONE LINE PER DEPTH STEP
~WELL INFORMATION
#MNEMONIC     .UNIT              VALUE :DESCRIPTION
STRT       .FT                2834.00000 :START DEPTH
STOP       .FT                7010.00000 :STOP DEPTH
STEP       .FT                0.50000 :STEP
NULL       .                -999.25000 :NULL VALUE
UWI       .                42389304120000 :UNIQUE WELL ID
API       .                42389304120000 :API NUMBER
COMP       .                 :COMPANY
WELL       .                 :WELL
FLD       .                 :FIELD
LOC       .                 :LOCATION
CNTY       .                 :COUNTY
STAT       .                 :STATE
CTRY       .                 :COUNTRY
SRVC       .                 :SERVICE COMPANY
DATE       .                 :DATE
~CURVE INFORMATION
#MNEMONIC     .UNIT      API CODE :CURVE DESCRIPTION
DEPTH       .FT                      :MEASURED DEPTH
CAL       .IN        UNKNOWN   :CAL
DT       .US/FT        UNKNOWN   :DT
GR       .GAPI        UNKNOWN   :GR
~A    DEPTH    CAL    DT    GR
# ...
5083.00000    13.66448    45.71421    36.63582
5083.50000    13.68258    41.84844    35.75206
5084.00000    13.69390    44.24437    34.86830
5084.50000    13.69583    46.64029    33.98454
5085.00000    13.69776    49.03622    33.10078
5085.50000    13.69970    51.43214    32.27125
5086.00000    13.70163    53.82807    33.44393
5086.50000    13.70356    56.22399    34.61661
5087.00000    13.70549    58.61992    35.78928
5087.50000    13.70743    61.01584    37.77485
5088.00000    13.70936    62.95252    40.69113
5088.50000    13.71129    60.51514    43.60742
5089.00000    13.71322    58.07776    46.52370
5089.50000    13.71516    55.64039    49.43164
5090.00000    13.71709    53.20301    52.26672
5090.50000    13.71902    53.23207    55.10180
5091.00000    13.72095    54.56160    57.93688
5091.50000    13.72289    55.89113    60.77196
5092.00000    13.72482    57.22066    63.60704
5092.50000    13.72675    58.55019    66.44212
5093.00000    13.72868    59.87972    69.27720
5093.50000    13.73062    65.14478    72.11228
5094.00000    13.73255    70.63151    74.94736
5094.50000    13.73448    76.11825    77.78244
5095.00000    13.76769    81.60498    79.26602
5095.50000    13.80135    86.39579    74.58366
5096.00000    13.83501    86.06803    69.90130
5096.50000    13.86868    85.74028    65.21893
5097.00000    13.90234    85.41252    60.53657
5097.50000    13.93600    85.08477    55.85421
5098.00000    13.96967    84.75701    51.17185
5098.50000    14.00333    84.42925    46.48948
5099.00000    14.03699    83.17504    41.80712
5099.50000    14.07066    81.53992    37.12476
5100.00000    14.10432    79.90481    36.31769
5100.50000    14.13798    78.26969    37.70818
5101.00000    14.17165    76.63458    39.09866
5101.50000    14.20531    74.99946    40.48915
5102.00000    14.23897    73.36434    41.87964
5102.50000    14.27264    71.72923    43.27012
5103.00000    14.30630    70.09411    44.66061
5103.50000    14.32329    68.45899    43.54306
5104.00000    14.32454    66.89368    40.27482
5104.50000    14.32579    67.04176    37.00658
5105.00000    14.32704    67.18983    33.73834
5105.50000    14.32828    67.33791    30.47010
5106.00000    14.32953    67.48598    27.20186
5106.50000    14.33078    67.63406    25.63445
5107.00000    14.33203    67.78213    26.31275
5107.50000    14.33328    67.93021    26.99106
5108.00000    14.33453    67.60454    27.66936
5108.50000    14.33577    66.63150    28.34766
5109.00000    14.33702    65.65846    30.81533
5109.50000    14.33827    64.68542    33.36214
5110.00000    14.33952    63.71238    35.90896
5110.50000    14.34077    62.73934    38.45577
5111.00000    14.34202    61.76630    41.00258
5111.50000    14.34327    60.79326    43.54939
5112.00000    14.34451    59.94026    44.16668
5112.50000    14.34576    59.16147    41.82590
5113.00000    14.34701    58.38268    39.48512
5113.50000    14.34826    57.60388    37.05018
5114.00000    14.34951    56.82509    34.06270
5114.50000    14.35076    56.04630    31.07522
5115.00000    14.35201    55.26751    28.08775
5115.50000    14.35326    54.48872    25.10027
5116.00000    14.35450    53.70993    22.11279
5116.50000    14.35575    52.93114    22.64677
5117.00000    14.35700    52.15235    23.21126
5117.50000    14.35825    52.53133    23.77574
5118.00000    14.35950    53.62158    24.34022
5118.50000    14.36075    54.71183    24.90470
5119.00000    14.36200    55.80208    25.36389
5119.50000    14.36227    56.89234    25.75784
5120.00000    14.36070    57.98259    26.15178
5120.50000    14.35914    59.07284    26.54572
5121.00000    14.35757    60.16309    26.93967
5121.50000    14.35600    61.25334    27.33361
5122.00000    14.35444    62.34359    27.72755
5122.50000    14.35287    61.82081    27.72507
5123.00000    14.35131    61.28592    27.67127
5123.50000    14.34974    60.75103    27.61748
5124.00000    14.34818    60.21614    27.56368
5124.50000    14.34661    60.45059    27.50989
5125.00000    14.34505    60.92610    27.45609
5125.50000    14.34348    61.40160    27.40230
5126.00000    14.34191    61.87710    26.99470
5126.50000    14.34035    61.27827    26.40811
5127.00000    14.33878    58.67243    25.82153
5127.50000    14.33437    56.06658    25.23495
5128.00000    14.32125    53.46074    24.79513
5128.50000    14.30813    55.79124    25.43118
5129.00000    14.29500    58.44464    26.06723
5129.50000    14.28188    61.09804    26.70327
5130.00000    14.26875    62.26152    27.33932
5130.50000    14.25563    59.71209    27.35229
5131.00000    14.24250    57.16265    27.02480
5131.50000    14.22938    54.61321    26.69732
5132.00000    14.21626    52.06378    26.36983
5132.50000    14.20313    49.51434    26.04235
5133.00000    14.19001    46.96491    25.71486
5133.50000    14.17688    47.72461    25.38738
5134.00000    14.16376    48.66289    25.05989
5134.50000    14.15063    49.60117    25.03893
5135.00000    14.13751    50.53944    25.33072
5135.50000    14.12439    51.47772    25.62250
5136.00000    14.11126    52.41600    25.91429
5136.50000    14.09814    54.31735    26.20608
5137.00000    14.08501    56.53401    26.49786
5137.50000    14.07189    58.75067    26.78965
5138.00000    14.05876    57.82093    27.08144
5138.50000    14.04564    55.92954    27.37322
5139.00000    14.03252    54.03816    27.66501
5139.50000    14.01939    52.14677    27.95680
5140.00000    14.00627    50.25538    28.24858
5140.50000    13.99314    48.36399    29.86556
5141.00000    13.98002    47.39309    31.78393
5141.50000    13.96689    48.87453    33.70231
5142.00000    13.95377    50.35597    35.62068
5142.50000    13.94064    51.83742    37.53905
5143.00000    13.92752    53.31886    39.45742
5143.50000    13.91440    54.80030    41.37579
5144.00000    13.90127    55.94110    43.29416
5144.50000    13.88815    56.73421    43.87725
5145.00000    13.87502    57.52732    44.27703
5145.50000    13.86190    58.32043    44.46627
5146.00000    13.84877    59.11354    44.65552
5146.50000    13.83565    59.90664    44.84476
5147.00000    13.82253    60.69975    45.03401
5147.50000    13.80940    60.35051    45.22326
5148.00000    13.79628    59.67319    45.41250
5148.50000    13.78315    58.91069    45.60175
5149.00000    13.77003    57.67169    45.79099
5149.50000    13.75690    56.43268    45.94986
5150.00000    13.74378    55.19368    45.84987
5150.50000    13.73066    53.95467    45.74987
5151.00000    13.71753    52.71567    45.64987
5151.50000    13.70441    51.47666    45.54987
5152.00000    13.69128    50.23766    45.44988
5152.50000    13.67816    51.31895    45.34988
5153.00000    13.66503    52.45413    45.24988
5153.50000    13.65191    53.58932    45.81213
5154.00000    13.63879    54.72451    47.24292
5154.50000    13.62566    55.85970    48.67371
5155.00000    13.61254    56.84973    50.10450
5155.50000    13.60271    57.47886    51.53529
5156.00000    13.60668    58.10800    53.03520
5156.50000    13.61064    58.73713    55.03540
5157.00000    13.61460    60.32536    57.03559
5157.50000    13.61857    61.96304    59.03579
5158.00000    13.62253    63.60071    64.06948
5158.50000    13.62649    65.23839    71.07538
5159.00000    13.63045    66.87606    78.08127
5159.50000    13.63442    68.51374    85.08717
5160.00000    13.63838    68.90993    82.65715
5160.50000    13.64234    68.25048    79.03718
5161.00000    13.64631    67.59103    75.41722
5161.50000    13.65027    66.93157    70.93036
5162.00000    13.65423    63.31322    65.80996
5162.50000    13.65819    59.22623    60.68955
5163.00000    13.66216    55.13924    55.56914
5163.50000    13.66612    51.05225    50.44873
5164.00000    13.67008    46.96526    45.32832
5164.50000    13.67405    42.87827    40.20791
5165.00000    13.67801    38.96932    35.08751
5165.50000    13.68197    42.52981    35.43567
5166.00000    13.68594    46.09029    36.72165
5166.50000    13.68990    49.65078    38.00763
5167.00000    13.69386    53.21127    38.91374
5167.50000    13.69782    56.77176    39.69421
5168.00000    13.70179    58.87676    40.47469
