#--------------------------------------------------#
#-------------------ENVERUS, INC.------------------#
#------------------WWW.ENVERUS.COM-----------------#
#------------------COPYRIGHT 2020------------------#
#--------------------------------------------------#
#THIS FILE MAY BE USED ONLY IN ACCORDANCE WITH A CURRENT SUBSCRIPTION AGREEMENT BETWEEN
#THE USER AND ENVERUS, INC. NO PART OF THIS FILE MAY BE REPRODUCED, USED, COPIED,
#MODIFIED, PROPAGATED, OR DISTRIBUTED EXCEPT IN ACCORDANCE WITH THE SUBSCRIPTION
#AGREEMENT. UNAUTHORIZED USE OR DISTRIBUTION OF ALL OR ANY PART OF THIS FILE MAY VIOLATE
#COPYRIGHT, TRADEMARK, AND/OR OTHER LAWS AND IS SUBJECT TO CIVIL AS WELL AS CRIMINAL
#SANCTIONS.
#--------------------------------------------------#
#THIS FILE IS PROVIDED "AS-IS" AND ALL WARRANTIES ARE EXPRESSLY DISCLAIMED, WHETHER
#EXPRESS, ORAL, IMPLIED, STATUTORY OR OTHERWISE, INCLUDING ANY IMPLIED WARRANTY OF FITNESS
#FOR A PARTICULAR PURPOSE, MERCHANTABILITY, TITLE OR NON-INFRINGEMENT, AND ANY WARRANTIES
#ARISING BY VIRTUE OF CUSTOM OF TRADE OR COURSE OF DEALING.  FURTHER, ENVERUS, INC.
#AND ITS LICENSORS DO NOT REPRESENT OR WARRANT THAT THIS FILE WILL MEET USER'S
#REQUIREMENTS OR ARE SUITABLE FOR USER'S NEEDS OR THAT THE DATA OR RESULTS PROVIDED IN
#CONJUNCTION THEREWITH ARE CORRECT, ACCURATE, TIMELY OR RELIABLE. THESE DISCLAIMERS SHALL
#APPLY REGARDLESS OF ANY FAILURE OF ESSENTIAL PURPOSE OF ANY LIMITED REMEDY.  SOME
#JURISDICTIONS DO NOT ALLOW THE EXCLUSION OF CERTAIN WARRANTIES SO SOME OF THE ABOVE
#EXCLUSIONS MAY NOT APPLY. IN NO EVENT SHALL ENVERUS, INC. OR ANY OF ITS AFFILIATES
#BE LIABLE UNDER ANY LEGAL THEORY, WHETHER IN TORT (INCLUDING WITHOUT LIMITATION
#NEGLIGENCE), CONTRACT, STRICT LIABILITY, STATUTORY OR OTHERWISE, FOR ANY SPECIAL,
#INCIDENTAL, CONSEQUENTIAL, EXEMPLARY, PUNITIVE OR INDIRECT DAMAGE OF ANY KIND, INCLUDING
#WITHOUT LIMITATION LOSS OF REVENUE, PROFITS, GOODWILL, USE, AND/OR DATA OR THE COST OF
#PROCUREMENT OF SUBSTITUTE GOODS OR SERVICES, EVEN IF APPRISED OF THE POSSIBILITY OF SUCH
#DAMAGES IN ADVANCE.
#--------------------------------------------------#

~VERSION INFORMATION
VERS. 2.0 : CWLS LOG ASCII STANDARD - VERSION 2.0
WRAP.  NO : ONE LINE PER DEPTH STEP
~WELL INFORMATION
#MNEMONIC     .UNIT              VALUE :DESCRIPTION
STRT       .FT                24 :START DEPTH
STOP       .FT                5035 :STOP DEPTH
STEP       .FT                   0.500 :STEP
NULL       .                  -999.250 :NULL
UWI        .              42389314500000 :UNIQUE WELL ID
API        .              42389314500000 :API NUMBER
COMP       .         SLEDGE BROS. OIL CO. :COMPANY
WELL       .        ELIZABETH MITCHELL  1 :WELL
DATE       .                18-DEC-1983 :LOG DATE
~CURVE INFORMATION
#MNEMONIC     .UNIT      API CODE :CURVE DESCRIPTION
DEPTH       .FT                      :MEASURED DEPTH
CAL.INCH        UNKNOWN   :CAL
DT.US/FT        UNKNOWN   :DT
GR.API        UNKNOWN   :GR
~A    DEPTH    CAL    DT    GR
# ...
 3656.5     9.466   70.083   52.844
 3657     9.497   68.166   52.372
 3657.5     9.527   69.324   52.497
 3658     9.558   69.877   52.332
 3658.5     9.587   69.652   49.46
 3659     9.558   78.179   48.03
 3659.5     9.53   77.373   48.337
 3660     9.502   76.544   50.354
 3660.5     9.473   75.715   52.895
 3661     9.445   74.886   55.435
 3661.5     9.417   74.057   58.801
 3662     9.407   73.302   63.39
 3662.5     9.406   73.393   67.98
 3663     9.405   73.324   67.984
 3663.5     9.404   72.919   67.731
 3664     9.403   72.514   67.653
 3664.5     9.403   72.109   68.006
 3665     9.402   71.945   68.358
 3665.5     9.401   71.81   68.424
 3666     9.4   71.674   68.323
 3666.5     9.399   71.764   69.821
 3667     9.398   71.889   72.873
 3667.5     9.398   71.647   74.72
 3668     9.397   71.171   74.727
 3668.5     9.396   70.696   77.677
 3669     9.395   70.319   82.398
 3669.5     9.396   70.392   87.119
 3670     9.396   70.794   83.745
 3670.5     9.397   71.468   72.677
 3671     9.397   71.838   69.039
 3671.5     9.41   71.972   65.588
 3672     9.431   72.105   65.595
 3672.5     9.451   72.699   65.675
 3673     9.471   73.667   65.757
 3673.5     9.491   74.318   63.755
 3674     9.512   74.59   59.966
 3674.5     9.532   74.862   57.705
 3675     9.552   75.135   56.915
 3675.5     9.572   75.407   55.786
 3676     9.589   76.01   52.264
 3676.5     9.597   76.754   48.927
 3677     9.606   77.499   48.228
 3677.5     9.614   77.573   47.756
 3678     9.623   77.632   48.004
 3678.5     9.632   76.951   49.31
 3679     9.64   76.244   47.925
 3679.5     9.649   75.546   46.286
 3680     9.657   75.165   47.724
 3680.5     9.666   75.547   49.981
 3681     9.674   76.804   51.258
 3681.5     9.683   77.861   52.483
 3682     9.692   78.001   53.181
 3682.5     9.702   76.896   50.143
 3683     9.713   73.952   47.53
 3683.5     9.725   71.873   47.105
 3684     9.736   71.18   46.773
 3684.5     9.746   72.037   49.03
 3685     9.755   75.902   51.208
 3685.5     9.765   79.106   52.633
 3686     9.774   79.632   53.741
 3686.5     9.784   78.923   53.629
 3687     9.794   78.083   57.245
 3687.5     9.803   77.243   60.857
 3688     9.813   76.867   65.052
 3688.5     9.822   76.687   69.326
 3689     9.832   76.507   71.255
 3689.5     9.841   76.452   69.544
 3690     9.852   76.699   65.604
 3690.5     9.862   76.946   61.665
 3691     9.873   77.192   57.34
 3691.5     9.884   77.439   54.426
 3692     9.894   77.686   54.582
 3692.5     9.905   77.933   54.739
 3693     9.915   78.374   54.895
 3693.5     9.926   78.834   55.051
 3694     9.937   79.295   55.873
 3694.5     9.947   79.755   56.92
 3695     9.958   80.111   53.372
 3695.5     9.969   77.987   52.525
 3696     9.986   74.317   53.308
 3696.5     10.009   75.97   56.535
 3697     10.033   77.623   54.146
 3697.5     10.056   79.102   53.962
 3698     10.08   79.307   54.205
 3698.5     10.103   78.948   57.341
 3699     10.126   78.392   60.735
 3699.5     10.15   78.269   63.525
 3700     10.173   78.89   61.756
 3700.5     10.197   79.792   59.461
 3701     10.22   80.695   56.89
 3701.5     10.22   81.677   56.835
 3702     10.215   82.68   57.141
 3702.5     10.209   82.663   56.386
 3703     10.204   82.645   54.843
 3703.5     10.199   81.98   51.465
 3704     10.194   80.642   50.748
 3704.5     10.189   79.303   51.227
 3705     10.183   79.284   53.368
 3705.5     10.178   80.321   55.983
 3706     10.173   81.357   54.503
 3706.5     10.167   81.876   52.253
 3707     10.158   81.987   50.002
 3707.5     10.149   82.098   46.979
 3708     10.14   82.209   48.99
 3708.5     10.131   82.32   51.001
 3709     10.122   82.431   52.232
 3709.5     10.113   81.924   53.278
 3710     10.104   81.248   53.988
 3710.5     10.095   80.572   52.917
 3711     10.077   80.24   51.846
 3711.5     10.051   80.294   50.776
 3712     10.023   80.348   49.635
 3712.5     9.982   80.403   49.011
 3713     9.942   78.826   49.291
 3713.5     9.902   76.908   49.57
 3714     9.863   75.352   49.851
 3714.5     9.824   74.48   50.833
 3715     9.785   73.609   51.814
 3715.5     9.746   73.219   56.335
 3716     9.707   72.872   60.735
 3716.5     9.668   72.526   61.246
 3717     9.629   72.45   61.758
 3717.5     9.6   72.645   62.269
 3718     9.581   72.84   65.246
 3718.5     9.563   73.036   64.677
 3719     9.544   72.685   65.264
 3719.5     9.525   72.328   67.67
 3720     9.507   71.971   71.768
 3720.5     9.488   71.7   71.623
 3721     9.469   71.538   70.659
 3721.5     9.45   71.375   69.285
 3722     9.432   71.212   69.697
 3722.5     9.413   70.703   70.539
 3723     9.394   70.017   70.836
 3723.5     9.375   69.956   70.103
 3724     9.357   70.191   69.369
 3724.5     9.338   70.608   69.872
 3725     9.319   71.026   70.571
 3725.5     9.3   70.891   71.261
 3726     9.282   70.439   71.703
 3726.5     9.263   69.652   70.933
 3727     9.253   69.232   70.163
 3727.5     9.254   69.087   71.371
 3728     9.254   69.078   76.628
 3728.5     9.255   69.385   84.459
 3729     9.255   69.691   90.572
 3729.5     9.256   69.688   93.517
 3730     9.256   69.086   87.954
 3730.5     9.257   67.675   78.399
 3731     9.257   66.264   70.227
 3731.5     9.258   65.647   64.011
 3732     9.258   65.562   61.345
 3732.5     9.259   66.12   61.459
 3733     9.259   66.678   61.574
 3733.5     9.26   66.908   64.662
 3734     9.26   67.069   68.024
 3734.5     9.261   67.229   76.646
 3735     9.261   67.582   85.267
 3735.5     9.262   68.431   93.889
 3736     9.263   69.432   102.82
 3736.5     9.263   70.432   108.568
 3737     9.264   70.631   107.938
 3737.5     9.264   70.527   103.401
 3738     9.265   70.423   84.167
 3738.5     9.265   70.727   79.925
 3739     9.266   71.05   75.683
 3739.5     9.266   71.373   71.025
 3740     9.267   71.449   65.04
 3740.5     9.267   71.225   59.054
 3741     9.271   71.001   53.43
 3741.5     9.277   70.828   49.541
 3742     9.284   71.135   48.998
 3742.5     9.29   72.595   51.345
 3743     9.296   74.054   54.426
 3743.5     9.303   75.505   57.508
 3744     9.309   76.37   59.912
 3744.5     9.312   76.196   61.248
 3745     9.313   75.492   59.145
 3745.5     9.313   74.564   53.864
 3746     9.314   72.56   53.408
 3746.5     9.314   70.518   52.952
 3747     9.315   70.004   50.939
 3747.5     9.315   69.31   48.131
 3748     9.316   68.251   47.173
 3748.5     9.316   68.495   47.714
 3749     9.317   69.081   48.255
 3749.5     9.324   71.972   49.149
 3750     9.33   75.014   52.059
 3750.5     9.337   74.977   55.684
 3751     9.344   74.367   59.31
 3751.5     9.35   73.679   63.511
 3752     9.357   73.293   67.767
 3752.5     9.363   74.588   67.391
 3753     9.37   75.924   65.106
 3753.5     9.376   77.213   53.007
 3754     9.383   77.036   49.36
 3754.5     9.39   74.485   47.645
 3755     9.397   72.005   45.941
 3755.5     9.405   70.615   44.289
 3756     9.412   70.851   45.499
 3756.5     9.419   72.566   46.888
 3757     9.426   74.281   47.882
 3757.5     9.433   74.482   45.954
 3758     9.441   74.533   45.571
 3758.5     9.448   74.2   46.106
 3759     9.455   73.359   48.723
 3759.5     9.462   72.519   51.55
 3760     9.47   72.181   54.407
 3760.5     9.477   73.326   55.809
 3761     9.484   74.921   55.752
 3761.5     9.491   76.483   53.182
 3762     9.498   76.482   51.536
 3762.5     9.506   76.174   51.326
 3763     9.513   75.691   51.955
 3763.5     9.506   75.209   54.902
 3764     9.495   74.727   55.096
 3764.5     9.484   74.244   54.752
 3765     9.473   73.813   53.466
 3765.5     9.461   74.179   53.012
 3766     9.45   74.545   53.424
 3766.5     9.439   74.856   53.836
 3767     9.428   74.924   53.713
 3767.5     9.417   74.667   53.314
 3768     9.406   73.973   52.915
 3768.5     9.395   73.279   51.495
 3769     9.383   72.585   49.859
 3769.5     9.372   71.891   48.751
 3770     9.361   71.864   49.724
 3770.5     9.35   72.388   50.735
 3771     9.339   72.926   51.746
