###############################################
##         ENVERUS                           ##
##         ESS - Open Hole                   ##
##         PERMIAN / DELAWARE                ##
##         Nov 04 2023  V4.0                 ##
##         42-389-30424-00-00                ##
###############################################
## Copyright 2017-2023  ENVERUS.  All Rights Reserved. 
## Confidential - Property of ENVERUS, use governed by terms and 
## conditions found within the existing Information Services Subscription Agreement 
## (as may be amended, the “ISSA”) between Customer and ENVERUS. 
## 
~VERSION INFORMATION
# MNEM.UNIT                               DATA : DESCRIPTION OF MNEMONIC
#-----.-----     ----------------------------- : -----------------------------
VERS.                                     2.00 : CWLS LOG ASCII STANDARD - VERSION 2.00
WRAP.                                       NO : MULTIPLE LINES PER DEPTH STEP
VEND.                                  ENVERUS : VENDOR
TYPE.                          ESS - OPEN HOLE : ENVERUS ESSENTIAL CURVES – ACCESSIBLE THROUGH ENVERUS PRISM(TM)
DOC.                                  32008121 : ENVERUS HEADER RAW DOCUMENT ID
#___________________________________________________________________________________________________ 
~WELL INFORMATION 
# BBd8zmUYmd+wUdICSlYDIOWaOe8iOeA0ELK9EhSbx74Kr6OX4zJxS/eo6cO6KK5SWMTSkVzaKbU2EBBfROvOKA== 
# MNEM.UNIT                                              DATA : DESCRIPTION OF MNEMONIC 
#-----.-----                    ----------------------------- : ----------------------------- 
CNTY.                                                  REEVES : COUNTY 
STATE.                                                  TEXAS : STATE 
CNTRY.                                                    USA : COUNTRY 
API.                                             42-389-30424 : API (10 Digit) 
API_14.                                    42-389-30424-00-00 : API (14 Digits) 
API_14_std.                                 42-389-30424-0000 : API (14 Digits Standard) 
UWI.                                           42389304240000 : UNIQUE WELL ID 
WELL.                                      LEWELLING STATE  1 : WELL NAME
STRT.FT                                                   7.0 : START DEPTH
STOP.FT                                               15912.0 : STOP DEPTH
STEP.FT                                                   0.5 : STEP BETWEEN DEPTHS
NULL.                                                 -999.25 : NULL VALUE
COMP.                           PENN VIRGINIA OIL & GAS CORP. : COMPANY 
DATE.                                             14-AUG-1976 : LOG DATE
#___________________________________________________________________________________________________ 
~CURVE INFORMATION 
# MNEM.UNIT           : CURVE DESCRIPTION 
#-----.-----          : ----------------------------- 
 DEPT.FT               : MEASURED DEPTH 
 CALI__A.IN            : CALIPER (CAL - CAL) 
 GR__A.API             : GAMMA RAY (GR) 
 DT__A.US/FT           : SONIC DELTA TRANSIT TIME (DT) 
 DPHI__A.V/V           : DENSITY POROSITY (DPHI) 
 NPHI__A.V/V           : NEUTRON POROSITY (NPHI) 
 #___________________________________________________________________________________________________ 
~A         DEPT        CALI__A          GR__A          DT__A        DPHI__A        NPHI__A
# ...
        12327.0         10.167         41.573       -999.250        0.05431        0.12599
        12327.5         10.175         43.285       -999.250        0.03640        0.10956
        12328.0         10.182         46.361       -999.250        0.03229        0.09313
        12328.5         10.190         48.435       -999.250        0.04962        0.10916
        12329.0         10.198         50.092       -999.250        0.06443        0.13085
        12329.5         10.206         50.574       -999.250        0.04754        0.14790
        12330.0         10.213         48.752       -999.250        0.02645        0.15382
        12330.5         10.221         45.754       -999.250        0.01539        0.14528
        12331.0         10.229         44.310       -999.250        0.02596        0.13674
        12331.5         10.237         43.668       -999.250        0.01759        0.13562
        12332.0         10.245         45.329       -999.250        0.01249        0.13562
        12332.5         10.252         44.874       -999.250        0.02052        0.14000
        12333.0         10.260         43.088       -999.250        0.02856        0.13286
        12333.5         10.268         39.908       -999.250        0.02378        0.11806
        12334.0         10.276         37.946       -999.250        0.01839        0.09232
        12334.5         10.283         38.526       -999.250        0.02484        0.06657
        12335.0         10.291         41.211       -999.250        0.03181        0.05900
        12335.5         10.303         44.172       -999.250        0.03878        0.07335
        12336.0         10.315         50.059       -999.250        0.04883        0.10001
        12336.5         10.328         50.201       -999.250        0.05561        0.13458
        12337.0         10.340         49.367       -999.250        0.06058        0.17423
        12337.5         10.352         41.933       -999.250        0.05652        0.17250
        12338.0         10.364         41.664       -999.250        0.04818        0.16933
        12338.5         10.376         40.914       -999.250        0.04034        0.16617
        12339.0         10.388         37.519       -999.250        0.03976        0.16300
        12339.5         10.401         32.908       -999.250        0.04225        0.15383
        12340.0         10.413         25.666       -999.250        0.04153        0.13373
        12340.5         10.417         25.984       -999.250        0.03695        0.08239
        12341.0         10.420         28.392       -999.250        0.04530        0.07488
        12341.5         10.422         32.221       -999.250        0.05531        0.08666
        12342.0         10.425         35.830       -999.250        0.06371        0.09845
        12342.5         10.428         39.411       -999.250        0.06022        0.11023
        12343.0         10.430         39.432       -999.250        0.05530        0.10841
        12343.5         10.433         39.194       -999.250        0.05924        0.09023
        12344.0         10.435         36.004       -999.250        0.05051        0.06921
        12344.5         10.438         33.507       -999.250        0.04565        0.05094
        12345.0         10.440         34.796       -999.250        0.05028        0.03267
        12345.5         10.443         37.557       -999.250        0.05838        0.04888
        12346.0         10.445         42.167       -999.250        0.06647        0.06554
        12346.5         10.448         49.229       -999.250        0.10223        0.11701
        12347.0         10.451         54.236       -999.250        0.10705        0.15424
        12347.5         10.453         53.811       -999.250        0.05809        0.19146
        12348.0         10.456         47.918       -999.250        0.04373        0.19295
        12348.5         10.458         41.135       -999.250        0.04371        0.19401
        12349.0         10.461         36.392       -999.250        0.04652        0.15269
        12349.5         10.463         32.499       -999.250        0.04535        0.09627
        12350.0         10.466         29.688       -999.250        0.03347        0.04308
        12350.5         10.468         28.749       -999.250        0.02157        0.02890
        12351.0         10.471         30.039       -999.250        0.01640        0.03581
        12351.5         10.474         34.250       -999.250        0.03500        0.04272
        12352.0         10.476         39.538       -999.250        0.05977        0.06214
        12352.5         10.479         45.500       -999.250        0.08572        0.09060
        12353.0         10.472         45.690       -999.250        0.09762        0.12688
        12353.5         10.443         41.294       -999.250        0.09193        0.16315
        12354.0         10.413         33.211       -999.250        0.06332        0.12368
        12354.5         10.383         29.310       -999.250        0.02648        0.04518
        12355.0         10.353         29.577       -999.250       -0.00771        0.02391
        12355.5         10.360         31.520       -999.250       -0.00593        0.03543
        12356.0         10.368         35.099       -999.250        0.01068        0.05185
        12356.5         10.377         37.017       -999.250        0.01773        0.07741
        12357.0         10.385         37.410       -999.250        0.02090        0.08335
        12357.5         10.393         38.174       -999.250        0.02379        0.08929
        12358.0         10.402         42.191       -999.250        0.02545        0.10941
        12358.5         10.387         44.592       -999.250        0.03079        0.14444
        12359.0         10.358         43.800       -999.250        0.03564        0.15785
        12359.5         10.329         35.730       -999.250        0.03761        0.12220
        12360.0         10.300         28.677       -999.250        0.02833        0.07701
        12360.5         10.271         25.324       -999.250        0.01906        0.04202
        12361.0         10.241         24.102       -999.250        0.01638        0.01376
        12361.5         10.228         22.916       -999.250        0.01656        0.00989
        12362.0         10.251         24.206       -999.250        0.01866        0.00602
        12362.5         10.274         25.589       -999.250        0.01718        0.00668
        12363.0         10.297         27.547       -999.250        0.01554        0.01065
        12363.5         10.320         31.200       -999.250        0.02419        0.02132
        12364.0         10.342         34.853       -999.250        0.03118        0.03200
        12364.5         10.365         36.214       -999.250        0.05121        0.04267
        12365.0         10.388         33.556       -999.250        0.05490        0.05335
        12365.5         10.401         31.535       -999.250        0.04735        0.05224
        12366.0         10.400         29.767       -999.250        0.03979        0.04208
        12366.5         10.400         28.224       -999.250        0.03255        0.03192
        12367.0         10.400         27.025       -999.250        0.02690        0.03526
        12367.5         10.400         29.301       -999.250        0.02795        0.04487
        12368.0         10.399         31.576       -999.250        0.03752        0.05251
        12368.5         10.399         32.311       -999.250        0.05181        0.05593
        12369.0         10.399         31.977       -999.250        0.05603        0.05869
        12369.5         10.398         31.643       -999.250        0.05642        0.05518
        12370.0         10.398         33.612       -999.250        0.05559        0.05167
        12370.5         10.398         36.633       -999.250        0.05063        0.04815
