#--------------------------------------------------#
#-------------------ENVERUS, INC.------------------#
#------------------WWW.ENVERUS.COM-----------------#
#------------------COPYRIGHT 2020------------------#
#--------------------------------------------------#
#THIS FILE MAY BE USED ONLY IN ACCORDANCE WITH A CURRENT SUBSCRIPTION AGREEMENT BETWEEN
#THE USER AND ENVERUS, INC. NO PART OF THIS FILE MAY BE REPRODUCED, USED, COPIED,
#MODIFIED, PROPAGATED, OR DISTRIBUTED EXCEPT IN ACCORDANCE WITH THE SUBSCRIPTION
#AGREEMENT. UNAUTHORIZED USE OR DISTRIBUTION OF ALL OR ANY PART OF THIS FILE MAY VIOLATE
#COPYRIGHT, TRADEMARK, AND/OR OTHER LAWS AND IS SUBJECT TO CIVIL AS WELL AS CRIMINAL
#SANCTIONS.
#--------------------------------------------------#
#THIS FILE IS PROVIDED "AS-IS" AND ALL WARRANTIES ARE EXPRESSLY DISCLAIMED, WHETHER
#EXPRESS, ORAL, IMPLIED, STATUTORY OR OTHERWISE, INCLUDING ANY IMPLIED WARRANTY OF FITNESS
#FOR A PARTICULAR PURPOSE, MERCHANTABILITY, TITLE OR NON-INFRINGEMENT, AND ANY WARRANTIES
#ARISING BY VIRTUE OF CUSTOM OF TRADE OR COURSE OF DEALING.  FURTHER, ENVERUS, INC.
#AND ITS LICENSORS DO NOT REPRESENT OR WARRANT THAT THIS FILE WILL MEET USER'S
#REQUIREMENTS OR ARE SUITABLE FOR USER'S NEEDS OR THAT THE DATA OR RESULTS PROVIDED IN
#CONJUNCTION THEREWITH ARE CORRECT, ACCURATE, TIMELY OR RELIABLE. THESE DISCLAIMERS SHALL
#APPLY REGARDLESS OF ANY FAILURE OF ESSENTIAL PURPOSE OF ANY LIMITED REMEDY.  SOME
#JURISDICTIONS DO NOT ALLOW THE EXCLUSION OF CERTAIN WARRANTIES SO SOME OF THE ABOVE
#EXCLUSIONS MAY NOT APPLY. IN NO EVENT SHALL ENVERUS, INC. OR ANY OF ITS AFFILIATES
#BE LIABLE UNDER ANY LEGAL THEORY, WHETHER IN TORT (INCLUDING WITHOUT LIMITATION
#NEGLIGENCE), CONTRACT, STRICT LIABILITY, STATUTORY OR OTHERWISE, FOR ANY SPECIAL,
#INCIDENTAL, CONSEQUENTIAL, EXEMPLARY, PUNITIVE OR INDIRECT DAMAGE OF ANY KIND, INCLUDING
#WITHOUT LIMITATION LOSS OF REVENUE, PROFITS, GOODWILL, USE, AND/OR DATA OR THE COST OF
#PROCUREMENT OF SUBSTITUTE GOODS OR SERVICES, EVEN IF APPRISED OF THE POSSIBILITY OF SUCH
#DAMAGES IN ADVANCE.
#--------------------------------------------------#

~VERSION INFORMATION
VERS. 2.0 : CWLS LOG ASCII STANDARD - VERSION 2.0
WRAP.  NO : ONE LINE PER DEPTH STEP
~WELL INFORMATION
#MNEMONIC     .UNIT              VALUE :DESCRIPTION
STRT       .FT                0 :START DEPTH
STOP       .FT                15770 :STOP DEPTH
STEP       .FT                   0.500 :STEP
NULL       .                  -999.250 :NULL
UWI        .              42389309020000 :UNIQUE WELL ID
API        .              42389309020000 :API NUMBER
COMP       .         WALSH & WATTS  INC. :COMPANY
WELL       .        SABRE  1WS :WELL
DATE       .                28-JAN-1987 :LOG DATE
~CURVE INFORMATION
#MNEMONIC     .UNIT      API CODE :CURVE DESCRIPTION
DEPTH       .FT                      :MEASURED DEPTH
CAL.INCH        UNKNOWN   :CAL
DT.US/FT        UNKNOWN   :DT
GR.API        UNKNOWN   :GR
~A    DEPTH    CAL    DT    GR
# ...
 7271.5     12.426   53.246   16.758
 7272     12.419   59.441   30.135
 7272.5     12.413   69.145   55.828
 7273     12.407   79.278   81.521
 7273.5     12.4   84.463   107.183
 7274     12.394   88.479   114.045
 7274.5     12.387   86.474   109.609
 7275     12.384   83.353   105.174
 7275.5     12.389   83.783   103.247
 7276     12.393   85.935   107.076
 7276.5     12.397   87.895   110.158
 7277     12.401   89.028   109.551
 7277.5     12.406   88.333   98.806
 7278     12.41   86.802   91.311
 7278.5     12.414   85.742   87.781
 7279     12.418   85.344   81.632
 7279.5     12.423   83.697   73.874
 7280     12.427   75.018   64.026
 7280.5     12.431   70.483   54.178
 7281     12.435   68.621   52.362
 7281.5     12.44   71.277   54.091
 7282     12.444   77.495   62.499
 7282.5     12.448   80.305   70.907
 7283     12.453   86.3   76.686
 7283.5     12.457   91.064   81.47
 7284     12.461   89.619   89.603
 7284.5     12.465   87.275   97.736
 7285     12.47   86.103   97.748
 7285.5     12.474   85.535   88.906
 7286     12.478   80.574   75.484
 7286.5     12.482   79.258   65.27
 7287     12.487   77.545   63.755
 7287.5     12.491   75.833   65.744
 7288     12.495   77.589   70.913
 7288.5     12.499   81.133   86.23
 7289     12.504   84.923   93.432
 7289.5     12.508   87.273   95.636
 7290     12.512   89.21   96.339
 7290.5     12.516   89.301   95.589
 7291     12.521   86.916   85.244
 7291.5     12.528   80.483   74.384
 7292     12.541   73.651   64.727
 7292.5     12.553   72.419   62.427
 7293     12.566   75.845   62.599
 7293.5     12.578   80.724   66.871
 7294     12.591   83.316   72.096
 7294.5     12.604   84.5   77.32
 7295     12.616   85.596   82.545
 7295.5     12.629   86.693   87.45
 7296     12.641   87.789   91.363
 7296.5     12.654   87.467   93.544
 7297     12.666   87.139   98.305
 7297.5     12.671   87.913   104.032
 7298     12.673   88.5   103.27
 7298.5     12.675   87.967   96.359
 7299     12.677   83.229   84.787
 7299.5     12.679   76.925   74.034
 7300     12.681   70.646   63.282
 7300.5     12.683   64.354   52.835
 7301     12.685   65.255   51.301
 7301.5     12.687   69.973   61.218
 7302     12.689   75.18   75.999
 7302.5     12.691   80.461   91.078
 7303     12.688   85.82   106.528
 7303.5     12.685   87.241   106.885
 7304     12.683   86.767   99.984
 7304.5     12.68   84.017   93.839
 7305     12.677   84.049   95.22
 7305.5     12.674   85.309   98.697
 7306     12.672   87.71   100.675
 7306.5     12.669   89.809   98.54
 7307     12.666   90.467   96.405
 7307.5     12.663   90.335   95.381
 7308     12.66   90.088   97.524
 7308.5     12.655   89.904   99.667
 7309     12.651   90.131   100.388
 7309.5     12.647   90.117   101.106
 7310     12.643   89.707   100.071
 7310.5     12.638   88.564   94.873
 7311     12.634   86.942   89.675
 7311.5     12.63   85.261   83.549
 7312     12.626   86.239   87.135
 7312.5     12.622   86.532   96.729
 7313     12.617   85.163   98.66
 7313.5     12.613   84.18   88.997
 7314     12.609   79.623   75.475
 7314.5     12.605   70.537   63.169
 7315     12.6   63.118   51.342
 7315.5     12.596   55.699   39.514
 7316     12.592   59.85   34.956
 7316.5     12.588   64.611   40.313
 7317     12.583   70.182   57.973
 7317.5     12.579   75.886   83.037
 7318     12.575   84.035   93.795
 7318.5     12.571   87.834   97.384
 7319     12.567   87.971   100.097
 7319.5     12.562   86.17   104.96
 7320     12.558   87.052   110.217
 7320.5     12.554   89.327   109.824
 7321     12.55   89.041   104.813
 7321.5     12.545   88.433   99.801
 7322     12.541   88.292   97.587
 7322.5     12.537   88.646   96.485
 7323     12.533   88.835   95.486
 7323.5     12.529   88.052   90.336
 7324     12.524   87.27   84.121
 7324.5     12.52   88.277   88.039
 7325     12.516   89.461   94.608
 7325.5     12.512   88.865   97.979
 7326     12.507   85.412   94.249
 7326.5     12.503   83.561   90.519
 7327     12.499   82.436   86.788
 7327.5     12.495   81.813   80.718
 7328     12.491   81.396   75.093
 7328.5     12.486   80.979   79.756
 7329     12.482   80.884   84.418
 7329.5     12.478   81.151   84.464
 7330     12.474   80.135   76.209
 7330.5     12.484   78.924   65.013
 7331     12.495   77.213   55.673
 7331.5     12.506   71.281   51.061
 7332     12.517   66.001   48.727
 7332.5     12.528   58.622   46.299
 7333     12.539   61.565   46.795
 7333.5     12.55   67.738   63.371
 7334     12.562   77.978   77.558
 7334.5     12.573   82.924   94.83
 7335     12.584   87.868   106.651
 7335.5     12.595   89.033   105.666
 7336     12.606   89.915   101.355
 7336.5     12.617   90.543   98.325
 7337     12.628   89.742   96.132
 7337.5     12.64   88.941   93.656
 7338     12.651   87.934   90.158
 7338.5     12.662   86.108   90.981
 7339     12.665   85.611   92.45
 7339.5     12.661   85.115   90.83
 7340     12.656   86.898   88.839
 7340.5     12.651   87.339   87.475
 7341     12.646   85.027   86.23
 7341.5     12.642   82.715   82.452
 7342     12.637   77.283   74.734
 7342.5     12.632   70.619   65.675
 7343     12.627   66.129   55.703
 7343.5     12.623   63.516   45.134
 7344     12.618   61.144   39.179
 7344.5     12.613   61.273   39.279
 7345     12.608   63.113   39.987
 7345.5     12.604   65.106   40.461
 7346     12.599   61.952   40.156
 7346.5     12.594   59.109   35.531
 7347     12.589   57.582   30.906
 7347.5     12.585   56.055   27.81
 7348     12.58   58.597   33.36
 7348.5     12.575   62.558   45.748
 7349     12.571   66.513   58.136
 7349.5     12.566   70.134   55.184
 7350     12.561   69.481   50.628
 7350.5     12.561   66.197   46.072
 7351     12.561   63.037   43.845
 7351.5     12.562   63.438   48.727
 7352     12.563   68.666   60.369
 7352.5     12.563   72.509   66.841
 7353     12.564   75.355   67.992
 7353.5     12.565   78.2   59.023
 7354     12.565   72   52.347
 7354.5     12.566   65.957   46.56
 7355     12.567   61.942   40.772
 7355.5     12.567   60.198   35.648
 7356     12.568   61.284   34.865
 7356.5     12.569   62.385   34.082
 7357     12.569   63.556   33.798
 7357.5     12.57   61.815   33.863
 7358     12.571   63.068   34.664
 7358.5     12.571   67.543   38.76
 7359     12.572   71.664   52.476
 7359.5     12.573   75.756   66.299
 7360     12.573   80.517   75.058
 7360.5     12.574   83.158   81.031
 7361     12.575   83.371   83.569
 7361.5     12.575   79.97   81.434
 7362     12.576   68.543   73.632
 7362.5     12.577   65.037   53.151
 7363     12.578   66.109   49.653
 7363.5     12.578   69.59   48.497
 7364     12.579   73.346   56.4
 7364.5     12.58   82.398   59.722
 7365     12.58   78.871   55.102
 7365.5     12.581   69.885   45.206
 7366     12.582   63.28   41.118
 7366.5     12.582   61.624   37.048
 7367     12.583   63.534   34.677
 7367.5     12.584   65.936   37.044
 7368     12.584   71.114   42.524
 7368.5     12.585   76.367   48.603
 7369     12.586   81.12   54.636
 7369.5     12.586   82.222   60.662
 7370     12.587   77.58   59.788
 7370.5     12.588   72.939   55.561
 7371     12.588   68.51   51.333
 7371.5     12.589   64.47   48.434
 7372     12.59   71.681   54.529
 7372.5     12.59   77.184   60.625
 7373     12.591   78.211   64.859
 7373.5     12.592   75.399   61.954
 7374     12.592   70.44   52.427
 7374.5     12.593   68.192   44.261
 7375     12.594   65.945   40.693
 7375.5     12.594   65.175   37.653
 7376     12.595   64.16   35.097
 7376.5     12.596   61.918   34.008
 7377     12.596   60.693   35.869
 7377.5     12.597   63.57   39.703
 7378     12.598   70.88   43.292
 7378.5     12.598   76.728   46.88
 7379     12.599   82.216   62.987
 7379.5     12.6   82.96   73.578
 7380     12.6   73.017   59.083
 7380.5     12.601   61.415   44.589
 7381     12.602   51.758   31.712
 7381.5     12.602   52.287   19.684
 7382     12.603   52.816   13.871
 7382.5     12.604   53.153   13.709
 7383     12.604   54.72   13.523
