###############################################
##         ENVERUS                           ##
##         ESS - Open Hole                   ##
##         PERMIAN / DELAWARE                ##
##         Nov 04 2023  V4.0                 ##
##         42-389-32245-00-00                ##
###############################################
## Copyright 2017-2023  ENVERUS.  All Rights Reserved. 
## Confidential - Property of ENVERUS, use governed by terms and 
## conditions found within the existing Information Services Subscription Agreement 
## (as may be amended, the “ISSA”) between Customer and ENVERUS. 
## 
~VERSION INFORMATION
# MNEM.UNIT                               DATA : DESCRIPTION OF MNEMONIC
#-----.-----     ----------------------------- : -----------------------------
VERS.                                     2.00 : CWLS LOG ASCII STANDARD - VERSION 2.00
WRAP.                                       NO : MULTIPLE LINES PER DEPTH STEP
VEND.                                  ENVERUS : VENDOR
TYPE.                          ESS - OPEN HOLE : ENVERUS ESSENTIAL CURVES – ACCESSIBLE THROUGH ENVERUS PRISM(TM)
DOC.                                  31784178 : ENVERUS HEADER RAW DOCUMENT ID
#___________________________________________________________________________________________________ 
~WELL INFORMATION 
# v5kOeJgG8V8Fdrn76qwaaSXPAkEfLGq57aawfXlCwOXh55ROPeN2VCvB7JmY2/dENYnWxxZwl4Ma/Wu+4c2YGQ== 
# MNEM.UNIT                                              DATA : DESCRIPTION OF MNEMONIC 
#-----.-----                    ----------------------------- : ----------------------------- 
CNTY.                                                  REEVES : COUNTY 
STATE.                                                  TEXAS : STATE 
CNTRY.                                                    USA : COUNTRY 
API.                                             42-389-32245 : API (10 Digit) 
API_14.                                    42-389-32245-00-00 : API (14 Digits) 
API_14_std.                                 42-389-32245-0000 : API (14 Digits Standard) 
UWI.                                           42389322450000 : UNIQUE WELL ID 
WELL.                          TEXAS PACIFIC LAND TRUST 25 1H : WELL NAME
STRT.FT                                                2519.0 : START DEPTH
STOP.FT                                               10624.0 : STOP DEPTH
STEP.FT                                                   0.5 : STEP BETWEEN DEPTHS
NULL.                                                 -999.25 : NULL VALUE
#___________________________________________________________________________________________________ 
~CURVE INFORMATION 
# MNEM.UNIT           : CURVE DESCRIPTION 
#-----.-----          : ----------------------------- 
 DEPT.FT               : MEASURED DEPTH 
 CALI__B.IN            : CALIPER (CAL - CAL) 
 GR__B.API             : GAMMA RAY (GR) 
 DT__B.US/FT           : SONIC DELTA TRANSIT TIME (DT) 
 #___________________________________________________________________________________________________ 
~A         DEPT        CALI__B          GR__B          DT__B
# ...
         3575.0         16.015         52.136         90.940
         3575.5         16.001         53.957         92.124
         3576.0         15.987         55.777         92.934
         3576.5         15.959         56.934         93.032
         3577.0         15.897         54.996         93.255
         3577.5         15.836         53.057         93.648
         3578.0         15.774         52.700         93.432
         3578.5         15.712         52.945         92.172
         3579.0         15.673         53.190         90.912
         3579.5         15.669         51.168         89.664
         3580.0         15.664         48.646         89.660
         3580.5         15.659         47.414         90.018
         3581.0         15.655         48.387         90.376
         3581.5         15.650         49.361         90.278
         3582.0         15.646         49.972         88.657
         3582.5         15.641         50.414         85.924
         3583.0         15.637         50.862         83.191
         3583.5         15.606         53.725         80.459
         3584.0         15.553         56.587         79.096
         3584.5         15.499         58.197         77.803
         3585.0         15.446         59.382         76.510
         3585.5         15.392         60.444         75.217
         3586.0         15.322         61.506         74.055
         3586.5         15.203         61.081         73.320
         3587.0         15.085         60.111         72.586
         3587.5         14.966         60.416         71.852
         3588.0         14.848         64.006         71.151
         3588.5         14.729         67.595         70.499
         3589.0         14.683         71.184         69.424
         3589.5         14.638         74.210         66.410
         3590.0         14.570         75.450         63.396
         3590.5         14.463         66.779         60.394
         3591.0         14.356         56.981         57.839
         3591.5         14.249         47.184         55.541
         3592.0         14.194         37.386         55.227
         3592.5         14.174         34.570         56.086
         3593.0         14.155         39.254         58.028
         3593.5         14.135         46.507         59.813
         3594.0         14.115         54.016         60.519
         3594.5         14.096         61.526         61.226
         3595.0         14.076         66.971         61.932
         3595.5         14.083         67.608         62.639
         3596.0         14.124         68.129         64.706
         3596.5         14.165         66.966         66.805
         3597.0         14.296         65.802         68.903
         3597.5         14.428         62.376         71.001
         3598.0         14.560         57.516         73.099
         3598.5         14.692         52.656         77.167
         3599.0         14.792         47.796         81.243
         3599.5         14.801         42.936         84.752
         3600.0         14.811         39.278         87.722
         3600.5         14.821         38.696         88.646
         3601.0         14.829         38.115         88.812
         3601.5         14.829         38.208         88.239
         3602.0         14.829         38.445         87.666
         3602.5         14.829         41.199         85.876
         3603.0         14.829         44.529         83.510
         3603.5         14.829         47.860         81.144
         3604.0         14.808         52.744         78.778
         3604.5         14.732         54.341         76.503
         3605.0         14.655         55.935         74.680
         3605.5         14.578         57.873         72.856
         3606.0         14.501         59.919         70.810
         3606.5         14.424         61.966         68.460
         3607.0         14.347         61.764         66.110
         3607.5         14.271         60.213         63.760
         3608.0         14.194         58.873         61.472
         3608.5         14.117         58.554         59.497
         3609.0         14.040         58.234         57.993
         3609.5         13.963         52.881         56.889
         3610.0         13.894         47.195         55.785
         3610.5         13.850         41.592         54.681
         3611.0         13.806         37.451         54.376
         3611.5         13.762         34.290         54.243
         3612.0         13.718         33.729         54.110
         3612.5         13.675         33.169         53.977
         3613.0         13.631         32.608         53.844
         3613.5         13.587         32.095         53.841
         3614.0         13.575         32.994         53.951
         3614.5         13.567         33.892         54.061
         3615.0         13.559         34.667         54.170
         3615.5         13.550         34.579         54.644
         3616.0         13.542         34.491         55.348
         3616.5         13.534         37.391         56.053
         3617.0         13.526         44.042         56.757
         3617.5         13.518         49.946         57.143
         3618.0         13.510         52.196         56.742
         3618.5         13.502         47.922         56.046
         3619.0         13.494         43.648         55.350
         3619.5         13.486         40.779         55.291
         3620.0         13.477         44.290         56.192
         3620.5         13.469         47.800         57.094
         3621.0         13.461         51.310         57.559
         3621.5         13.453         50.615         57.525
         3622.0         13.445         47.022         57.491
         3622.5         13.437         44.354         57.486
         3623.0         13.429         47.183         58.593
         3623.5         13.421         50.011         59.699
         3624.0         13.413         52.312         60.806
         3624.5         13.404         53.980         61.076
         3625.0         13.396         55.649         60.644
         3625.5         13.388         55.581         58.744
         3626.0         13.380         51.092         57.393
         3626.5         13.372         45.613         56.041
         3627.0         13.364         40.134         55.449
         3627.5         13.356         34.655         55.763
         3628.0         13.348         33.933         57.250
         3628.5         13.341         47.197         58.736
         3629.0         13.343         60.636         59.569
         3629.5         13.345         64.439         59.344
         3630.0         13.347         58.249         58.030
         3630.5         13.349         52.058         56.923
         3631.0         13.351         45.868         56.764
         3631.5         13.353         42.128         56.605
         3632.0         13.355         40.869         55.706
         3632.5         13.357         39.473         54.520
         3633.0         13.360         34.982         53.418
         3633.5         13.362         30.491         52.952
         3634.0         13.364         26.895         52.638
         3634.5         13.366         23.497         52.736
         3635.0         13.368         22.374         52.833
         3635.5         13.370         25.115         52.931
         3636.0         13.372         27.856         53.028
         3636.5         13.374         30.084         55.633
         3637.0         13.376         32.073         58.699
         3637.5         13.378         48.914         61.771
         3638.0         13.381         67.589         64.564
         3638.5         13.394         86.263         65.318
         3639.0         13.407         81.561         65.228
         3639.5         13.420         74.941         64.730
         3640.0         13.433         68.320         64.663
         3640.5         13.446         62.555         65.116
