###############################################
##         ENVERUS                           ##
##         ESS - Open Hole                   ##
##         PERMIAN / DELAWARE                ##
##         Nov 04 2023  V4.0                 ##
##         42-389-30414-00-00                ##
###############################################
## Copyright 2017-2023  ENVERUS.  All Rights Reserved. 
## Confidential - Property of ENVERUS, use governed by terms and 
## conditions found within the existing Information Services Subscription Agreement 
## (as may be amended, the “ISSA”) between Customer and ENVERUS. 
## 
~VERSION INFORMATION
# MNEM.UNIT                               DATA : DESCRIPTION OF MNEMONIC
#-----.-----     ----------------------------- : -----------------------------
VERS.                                     2.00 : CWLS LOG ASCII STANDARD - VERSION 2.00
WRAP.                                       NO : MULTIPLE LINES PER DEPTH STEP
VEND.                                  ENVERUS : VENDOR
TYPE.                          ESS - OPEN HOLE : ENVERUS ESSENTIAL CURVES – ACCESSIBLE THROUGH ENVERUS PRISM(TM)
DOC.                                  31965441 : ENVERUS HEADER RAW DOCUMENT ID
#___________________________________________________________________________________________________ 
~WELL INFORMATION 
# 4Nagw4FJNzCtYOfTAudVsymR6uv0ccMrNFKiy1Vrqa1gQVNLoB6NNR/Tzdk8H0Jxf2Akv2rjPRKaT9zVNBkTiw== 
# MNEM.UNIT                                              DATA : DESCRIPTION OF MNEMONIC 
#-----.-----                    ----------------------------- : ----------------------------- 
CNTY.                                                  REEVES : COUNTY 
STATE.                                                  TEXAS : STATE 
CNTRY.                                                    USA : COUNTRY 
API.                                             42-389-30414 : API (10 Digit) 
API_14.                                    42-389-30414-00-00 : API (14 Digits) 
API_14_std.                                 42-389-30414-0000 : API (14 Digits Standard) 
UWI.                                           42389304140000 : UNIQUE WELL ID 
WELL.                                            TXL 17-39  2 : WELL NAME
STRT.FT                                                 237.0 : START DEPTH
STOP.FT                                               13872.0 : STOP DEPTH
STEP.FT                                                   0.5 : STEP BETWEEN DEPTHS
NULL.                                                 -999.25 : NULL VALUE
COMP.                          ENDEAVOR ENERGY RESOURCES L.P. : COMPANY
#___________________________________________________________________________________________________ 
~CURVE INFORMATION 
# MNEM.UNIT           : CURVE DESCRIPTION 
#-----.-----          : ----------------------------- 
 DEPT.FT               : MEASURED DEPTH 
 CALI.IN               : CALIPER (CAL - CAL) 
 GR.API                : GAMMA RAY (GR) 
 DT.US/FT              : SONIC DELTA TRANSIT TIME (DT) 
 RESS.OHMM             : SHALLOW INDUCTION RESISTIVITY (ILS - ILS) 
 RESD.OHMM             : DEEP INDUCTION RESISTIVITY (ILD - ILD) 
 #___________________________________________________________________________________________________ 
~A         DEPT           CALI             GR             DT           RESS           RESD
# ...
         9037.0         10.028         30.894         54.006        200.870        281.710
         9037.5         10.028         35.250         55.252        206.778        308.943
         9038.0         10.028         39.606         60.692        215.363        336.176
         9038.5         10.028         43.961         66.133        218.765        324.968
         9039.0         10.029         48.317         69.214        189.898        272.591
         9039.5         10.029         52.673         70.787        164.835        220.213
         9040.0         10.029         55.047         72.359        161.755        180.118
         9040.5         10.029         53.294         73.932        158.675        154.557
         9041.0         10.029         51.540         70.815        100.331         94.664
         9041.5         10.029         49.787         67.656         62.985         69.736
         9042.0         10.029         48.034         64.498         73.626         73.860
         9042.5         10.029         46.280         63.386         84.267         92.791
         9043.0         10.029         46.259         66.113        111.959        185.720
         9043.5         10.029         48.587         68.738        169.255        278.650
         9044.0         10.030         50.915         65.967        218.943        371.579
         9044.5         10.030         53.244         63.195        222.956        318.242
         9045.0         10.030         51.195         60.424        202.677        219.332
         9045.5         10.030         48.875         59.812        149.533        120.423
         9046.0         10.030         46.555         63.330         96.389        140.926
         9046.5         10.030         44.235         66.849        119.083        197.341
         9047.0         10.030         52.693         70.367        150.229        253.756
         9047.5         10.030         63.810         73.886        181.375        310.171
         9048.0         10.030         74.926         77.404        212.522        316.113
         9048.5         10.030         86.043         80.922        178.391        247.431
         9049.0         10.031         97.160         78.104        131.664         66.074
         9049.5         10.031         92.966         72.385         79.061         75.778
         9050.0         10.031         83.865         66.667         70.207         85.481
         9050.5         10.031         74.764         62.345         77.533         95.184
         9051.0         10.031         65.663         62.472         84.859        104.887
         9051.5         10.031         56.563         62.599         92.184        116.687
         9052.0         10.031         47.462         62.726         99.496        159.461
         9052.5         10.031         41.983         62.853        109.539        202.235
         9053.0         10.031         38.259         62.980        130.013        245.009
         9053.5         10.031         39.942         61.410        150.488        244.374
         9054.0         10.032         42.302         59.833        128.714        164.779
         9054.5         10.032         44.662         60.922        108.809        187.539
         9055.0         10.032         47.022         64.907        139.531        219.096
         9055.5         10.032         60.559         70.939        170.254        317.807
         9056.0         10.032         76.430         78.625        200.976        501.768
         9056.5         10.032         92.300         86.310        231.699        434.427
         9057.0         10.032         99.990         84.377        144.391        175.216
         9057.5         10.032        100.303         80.405        113.992        142.733
         9058.0         10.032         98.398         74.265         88.523        110.250
         9058.5         10.032         86.796         68.124         84.130         96.129
         9059.0         10.033         75.194         63.569         79.441         93.617
         9059.5         10.033         63.592         64.378         54.315         91.104
         9060.0         10.033         60.291         65.187         47.992         88.591
         9060.5         10.033         65.435         66.245         53.055         86.078
         9061.0         10.033         70.579         69.131         71.659        115.266
         9061.5         10.033         75.723         72.017         91.317        158.647
         9062.0         10.033         80.867         74.903        110.975        164.915
         9062.5         10.033         86.011         77.789        130.633        140.886
         9063.0         10.033         84.217         77.769        112.638        116.857
         9063.5         10.033         80.211         74.085         96.960         93.700
         9064.0         10.034         76.205         70.400         84.873         87.408
         9064.5         10.034         72.200         67.115         78.016         81.117
         9065.0         10.034         68.194         64.053         77.530         74.825
         9065.5         10.034         64.188         65.161         77.043         80.226
         9066.0         10.034         60.183         68.922         77.858        115.319
         9066.5         10.034         56.357         72.683         83.440        150.412
         9067.0         10.034         63.965         76.443         89.830        185.506
         9067.5         10.034         71.573         80.204        105.064        220.599
         9068.0         10.034         79.181         76.843        120.299        191.926
         9068.5         10.035         86.204         71.980        127.990        155.124
         9069.0         10.035         76.445         67.118        128.890        124.184
         9069.5         10.035         63.562         62.255        115.204         93.243
         9070.0         10.035         50.678         58.295        101.518         92.642
         9070.5         10.035         42.459         59.598         92.090         97.184
         9071.0         10.035         43.215         60.901        100.663        217.531
         9071.5         10.035         43.971         62.205        109.235        355.793
         9072.0         10.035         47.254         71.025        131.517        494.055
         9072.5         10.035         54.017         70.505        161.423        632.317
         9073.0         10.035         60.779         69.985        191.329        589.450
         9073.5         10.036         67.542         69.465        221.236        488.523
         9074.0         10.036         74.304         68.945        207.511        387.596
         9074.5         10.036         78.721         68.425        172.806        286.669
         9075.0         10.036         77.467         70.062        138.101        185.742
         9075.5         10.036         76.212         72.398        107.945         96.625
         9076.0         10.036         76.726         74.734         83.188         87.180
         9076.5         10.036         80.564         74.608         82.216         77.735
         9077.0         10.036         83.988         71.914         81.244         68.291
         9077.5         10.036         77.698         69.219         66.434         58.846
         9078.0         10.036         71.409         66.524         42.195         49.401
         9078.5         10.037         65.119         65.050         50.001         42.896
         9079.0         10.037         58.830         65.181         58.878         61.850
         9079.5         10.037         53.648         65.311         67.756         80.805
         9080.0         10.037         52.214         64.445         78.462        101.275
         9080.5         10.037         50.781         61.916         89.554        127.920
