###############################################
##         ENVERUS                           ##
##         ESS - Open Hole                   ##
##         PERMIAN / DELAWARE                ##
##         Nov 04 2023  V4.0                 ##
##         42-389-32730-00-00                ##
###############################################
## Copyright 2017-2023  ENVERUS.  All Rights Reserved. 
## Confidential - Property of ENVERUS, use governed by terms and 
## conditions found within the existing Information Services Subscription Agreement 
## (as may be amended, the “ISSA”) between Customer and ENVERUS. 
## 
~VERSION INFORMATION
# MNEM.UNIT                               DATA : DESCRIPTION OF MNEMONIC
#-----.-----     ----------------------------- : -----------------------------
VERS.                                     2.00 : CWLS LOG ASCII STANDARD - VERSION 2.00
WRAP.                                       NO : MULTIPLE LINES PER DEPTH STEP
VEND.                                  ENVERUS : VENDOR
TYPE.                          ESS - OPEN HOLE : ENVERUS ESSENTIAL CURVES – ACCESSIBLE THROUGH ENVERUS PRISM(TM)
DOC.                                  19552736 : ENVERUS HEADER RAW DOCUMENT ID
#___________________________________________________________________________________________________ 
~WELL INFORMATION 
# Emv0q1Fc4UOVqi1FEPTQ50pHgS2U6oO6A9wxQf5ozJtTAVTQXtUhuyCOytio7eHVwvke0CQF/LYkoyLsbhUTsQ== 
# MNEM.UNIT                                              DATA : DESCRIPTION OF MNEMONIC 
#-----.-----                    ----------------------------- : ----------------------------- 
CNTY.                                                  REEVES : COUNTY 
STATE.                                                  TEXAS : STATE 
CNTRY.                                                    USA : COUNTRY 
API.                                             42-389-32730 : API (10 Digit) 
API_14.                                    42-389-32730-00-00 : API (14 Digits) 
API_14_std.                                 42-389-32730-0000 : API (14 Digits Standard) 
UWI.                                           42389327300000 : UNIQUE WELL ID 
WELL.                                  BIG SKY 55 - 16 NO. 1H : WELL NAME
STRT.FT                                                3850.0 : START DEPTH
STOP.FT                                               12070.5 : STOP DEPTH
STEP.FT                                                   0.5 : STEP BETWEEN DEPTHS
NULL.                                                 -999.25 : NULL VALUE
COMP.                                      CIMAREX ENERGY CO. : COMPANY 
FLD.                                                  WILDCAT : FIELD 
SRVC.                                             HALLIBURTON : SERVICE COMPANY 
DATE.                                              03/23/2011 : DATE 
TVD.                                                       NO : TVD FLAG 
WSTA.                                                     LOC : WELL STATUS
#___________________________________________________________________________________________________ 
~PARAMETER INFORMATION 
# MNEM.UNIT                                              DATA : DESCRIPTION OF MNEMONIC 
#-----.-----                    ----------------------------- : ----------------------------- 
RUN.                                                      ONE : RUN NUMBER 
PDAT.                                                      GL : PERMANENT DATUM 
EPD.FT                                              2996.0000 : ELEVATION OF PERM. DATUM 
LMF.                                            KELLY BUSHING : LOG MEASURED FROM 
EKB.FT                                              3021.0000 : ELEVATION OF KELLY BUSHING 
DF.FT                                               3020.0000 : ELEVATION OF DERRICK FLOOR 
GL.FT                                               2996.0000 : ELEVATION OF GROUND LEVEL 
TD.FT                                              12100.0000 : TOTAL DEPTH 
CSGD.FT                                                  3861 : CASING BOTTOM (DRILLER) 1 
CSGL.FT                                                  3855 : CASING BOTTOM (LOGGER) 1 
MUD.                                                    BRINE : DRILLING FLUID TYPE 
MUDV.CP                                               36.0000 : DRILLING FLUID VISCOSITY 
MUDD.LB/USG                                           10.1000 : DRILLING FLUID DENSITY 
PH.                                                   10.0000 : DRILLING FLUID PH 
MUDS.                                                FLOWLINE : MUD SAMPLE SOURCE 
RM.OHMM                                                0.0600 : RESISTIVITY OF MUD SAMPLE 
RMT.DEGF                                              75.0000 : MUD SAMPLE TEMPERATURE 
RMF.OHMM                                               0.0400 : MUD FILTRATE RESISTIVITY 
RMFT.DEGF                                             75.0000 : MUD FILTRATE SAMPLE TEMPERATURE 
RMC.OHMM                                               0.0600 : MUD CAKE RESISTIVITY 
RMCT.DEGF                                             75.0000 : MUD CAKE SAMPLE TEMPERATURE 
RMB.OHMM                                               0.0240 : MUD RESISTIVITY AT BHT 
TMAX.DEGF                                            200.0000 : BOTTOM HOLE TEMPERATURE
#___________________________________________________________________________________________________ 
~CURVE INFORMATION 
# MNEM.UNIT           : CURVE DESCRIPTION 
#-----.-----          : ----------------------------- 
 DEPT.FT               : MEASURED DEPTH 
 GR.API                : GAMMA RAY (GAMMA RAY) 
 DT.US/FT              : SONIC DELTA TRANSIT TIME (DELTA T) 
 RESD_LL.OHMM          : DEEP LATEROLOG (LLD - DEEP LATEROLOG) 
 DPHI.V/V              : DENSITY POROSITY (DENSITY POROSITY) 
 NPHI.V/V              : NEUTRON POROSITY (NEUTRON POROSITY) 
 #___________________________________________________________________________________________________ 
~A         DEPT             GR             DT        RESD_LL           DPHI           NPHI
# ...
         6578.0         48.109         66.515         7.0580        0.10500        0.09200
         6578.5         44.114         66.780         7.6840        0.11800        0.08500
         6579.0         40.124         65.830         8.5650        0.13400        0.08200
         6579.5         36.007         64.228         8.0940        0.13400        0.07800
         6580.0         34.789         63.627         7.2920        0.11100        0.07500
         6580.5         35.697         64.228         6.5700        0.09900        0.07900
         6581.0         37.908         65.067         6.1380        0.10900        0.08200
         6581.5         40.141         65.912         6.4320        0.12000        0.08300
         6582.0         41.081         65.551         6.7650        0.10600        0.08300
         6582.5         40.207         64.836         7.0600        0.09700        0.08300
         6583.0         39.249         64.543         7.2830        0.09400        0.08100
         6583.5         38.289         64.341         7.5120        0.09800        0.07700
         6584.0         37.346         64.139         8.0100        0.10100        0.07800
         6584.5         36.652         64.364         9.0390        0.10400        0.08100
         6585.0         37.817         64.601        10.2000        0.10100        0.08200
         6585.5         39.070         64.803        11.5110        0.09400        0.08100
         6586.0         40.299         64.654        12.9900        0.08800        0.08000
         6586.5         40.628         64.452        13.3250        0.08900        0.07700
         6587.0         40.356         64.442        13.3250        0.09100        0.07000
         6587.5         40.081         64.633        14.3460        0.09000        0.07000
         6588.0         40.366         64.825        15.7390        0.08500        0.07300
         6588.5         42.940         65.016        17.5480        0.07800        0.07600
         6589.0         45.471         64.877        20.0000        0.07200        0.07900
         6589.5         47.715         64.589        19.8560        0.07000        0.08400
         6590.0         47.719         64.626        19.7150        0.06700        0.08800
         6590.5         47.545         64.665        19.5750        0.06300        0.09200
         6591.0         47.808         64.704        19.4380        0.06800        0.09000
         6591.5         48.685         64.743        19.2720        0.07300        0.08800
         6592.0         49.633         64.782        21.8170        0.07300        0.08600
         6592.5         52.333         64.821        25.2930        0.07400        0.08600
         6593.0         55.035         64.860        29.3240        0.07300        0.09000
         6593.5         57.372         64.899        33.1170        0.06900        0.09400
         6594.0         59.147         64.938        37.1600        0.06400        0.09700
         6594.5         60.448         64.978        41.1610        0.06000        0.09700
         6595.0         62.788         65.017        44.7750        0.05500        0.09600
         6595.5         65.234         65.056        48.7320        0.05100        0.10200
         6596.0         67.132         64.712        53.0400        0.04600        0.10900
         6596.5         64.012         64.144        57.7120        0.03900        0.09300
         6597.0         57.724         63.575        60.1820        0.03600        0.09300
         6597.5         50.325         62.732        62.3650        0.04100        0.09300
         6598.0         43.020         61.560        63.9790        0.04600        0.08000
         6598.5         37.427         60.383        59.4350        0.05200        0.06100
         6599.0         34.751         59.944        56.1240        0.05200        0.05200
         6599.5         36.634         60.796        52.9870        0.04800        0.04800
         6600.0         41.467         62.120        50.3150        0.04700        0.07500
         6600.5         48.870         63.451        53.2160        0.04900        0.09700
         6601.0         56.133         64.709        56.9160        0.05500        0.09700
         6601.5         62.543         64.584        63.5160        0.06000        0.09700
         6602.0         63.155         64.228        70.8820        0.05800        0.10800
         6602.5         59.634         63.191        79.1020        0.05900        0.11900
         6603.0         54.244         62.230        90.8540        0.05800        0.10800
         6603.5         48.702         61.626        83.2710        0.05000        0.09700
         6604.0         46.719         61.937        73.9910        0.04200        0.08700
         6604.5         46.722         62.587        67.5250        0.04500        0.09200
         6605.0         48.075         63.181        62.8090        0.05200        0.09700
         6605.5         48.034         63.433        64.3550        0.05700        0.09900
         6606.0         48.048         63.684        66.0050        0.05900        0.09400
         6606.5         49.576         64.335        67.6980        0.05700        0.10000
         6607.0         54.886         65.120        69.4340        0.05300        0.10700
         6607.5         60.512         65.844        78.8480        0.05500        0.11500
         6608.0         65.741         66.548        97.0930        0.06100        0.12100
         6608.5         68.299         67.252       124.3960        0.06700        0.12500
         6609.0         69.717         67.865       159.5160        0.07400        0.12900
         6609.5         68.984         68.038       178.9700        0.07200        0.13400
         6610.0         67.103         67.467       194.8680        0.06900        0.13300
         6610.5         63.220         66.682       204.6680        0.06500        0.12500
         6611.0         58.861         65.471       202.0360        0.05700        0.11400
         6611.5         52.072         64.143       200.8690        0.05100        0.10100
         6612.0         45.299         63.242       211.3060        0.04900        0.08800
         6612.5         38.481         62.452       220.0330        0.05200        0.07500
         6613.0         33.708         61.801       228.6370        0.06300        0.06800
         6613.5         30.163         61.712       208.7480        0.07800        0.07300
         6614.0         30.243         62.507       191.5050        0.07500        0.07600
         6614.5         41.881         63.502       175.9620        0.06300        0.08500
         6615.0         50.296         64.496       162.3590        0.05400        0.10100
         6615.5         58.813         65.155       149.8070        0.06000        0.11400
         6616.0         61.088         64.444       139.2220        0.06600        0.11400
         6616.5         55.246         63.053       133.2020        0.06700        0.08500
         6617.0         46.744         61.376       130.9720        0.06800        0.07400
         6617.5         38.080         60.597       128.9840        0.05600        0.06300
         6618.0         33.974         60.400       133.6580        0.03400        0.06400
         6618.5         33.514         61.255       141.4430        0.01700        0.06800
         6619.0         39.272         63.001       140.6420        0.02900        0.07600
         6619.5         44.844         63.995       138.9350        0.04100        0.08800
         6620.0         50.427         64.708       151.4360        0.04500        0.10000
         6620.5         53.968         64.651       164.0050        0.04900        0.10800
         6621.0         55.396         64.198       153.5470        0.05300        0.10300
         6621.5         53.019         63.936       143.2190        0.05500        0.09300
