###############################################
##         ENVERUS                           ##
##         ESS - Open Hole                   ##
##         PERMIAN / DELAWARE                ##
##         Nov 04 2023  V4.0                 ##
##         42-389-31391-00-00                ##
###############################################
## Copyright 2017-2023  ENVERUS.  All Rights Reserved. 
## Confidential - Property of ENVERUS, use governed by terms and 
## conditions found within the existing Information Services Subscription Agreement 
## (as may be amended, the “ISSA”) between Customer and ENVERUS. 
## 
~VERSION INFORMATION
# MNEM.UNIT                               DATA : DESCRIPTION OF MNEMONIC
#-----.-----     ----------------------------- : -----------------------------
VERS.                                     2.00 : CWLS LOG ASCII STANDARD - VERSION 2.00
WRAP.                                       NO : MULTIPLE LINES PER DEPTH STEP
VEND.                                  ENVERUS : VENDOR
TYPE.                          ESS - OPEN HOLE : ENVERUS ESSENTIAL CURVES – ACCESSIBLE THROUGH ENVERUS PRISM(TM)
DOC.                                  23866972 : ENVERUS HEADER RAW DOCUMENT ID
#___________________________________________________________________________________________________ 
~WELL INFORMATION 
# fYFWm3OWRd9IdMsmH1sgiJ8+yI47SyIf11h8n9fSv2EtxvNnkQHcFoeZabdKB/2nhpfFDZXLrBDJ+4Q2ZBaHeQ== 
# MNEM.UNIT                                              DATA : DESCRIPTION OF MNEMONIC 
#-----.-----                    ----------------------------- : ----------------------------- 
CNTY.                                                  REEVES : COUNTY 
STATE.                                                  TEXAS : STATE 
CNTRY.                                                    USA : COUNTRY 
API.                                             42-389-31391 : API (10 Digit) 
API_14.                                    42-389-31391-00-00 : API (14 Digits) 
API_14_std.                                 42-389-31391-0000 : API (14 Digits Standard) 
UWI.                                           42389313910000 : UNIQUE WELL ID 
WELL.                                       DIXIELAND # 3 - 1 : WELL NAME
STRT.FT                                                4000.0 : START DEPTH
STOP.FT                                               12000.0 : STOP DEPTH
STEP.FT                                                   0.5 : STEP BETWEEN DEPTHS
NULL.                                                 -999.25 : NULL VALUE
COMP.                             R. K. PETROLEUM CORPORATION : COMPANY 
FLD.                                                  WILDCAT : FIELD 
DATE.                                              08/13/2015 : DATE 
TVD.                                                       NO : TVD FLAG 
WSTA.                                                     LOC : WELL STATUS
#___________________________________________________________________________________________________ 
~PARAMETER INFORMATION 
# MNEM.UNIT                                              DATA : DESCRIPTION OF MNEMONIC 
#-----.-----                    ----------------------------- : ----------------------------- 
RUN.                                                      ONE : RUN NUMBER 
PDAT.                                                      GL : PERMANENT DATUM 
LMF.                                            KELLY BUSHING : LOG MEASURED FROM
#___________________________________________________________________________________________________ 
~CURVE INFORMATION 
# MNEM.UNIT           : CURVE DESCRIPTION 
#-----.-----          : ----------------------------- 
 DEPT.FT               : MEASURED DEPTH 
 CALI.IN               : CALIPER (CALIPER) 
 GR.API                : GAMMA RAY (GAMMA RAY) 
 DT.US/FT              : SONIC DELTA TRANSIT TIME (DELTA-T) 
 RESD.OHMM             : DEEP INDUCTION RESISTIVITY (ILD - DEEP INDUCTION STANDARD PROCESSED RESISTIVITY) 
 RESD_LL.OHMM          : DEEP LATEROLOG (LLD - LATERO-LOG DEEP (RESISTIVITY)) 
 NPHI.V/V              : NEUTRON POROSITY (NEUTRON POROSITY) 
 #___________________________________________________________________________________________________ 
~A         DEPT           CALI             GR             DT           RESD        RESD_LL           NPHI
# ...
        11980.0          9.765         30.097         54.213        157.170      -999.2500        0.29636
        11980.5          9.765         33.609         54.580        178.633      -999.2500        0.13684
        11981.0          9.765         44.162         54.183        197.064      -999.2500        0.12713
        11981.5          9.765         50.036         54.525        173.116      -999.2500        0.11822
        11982.0          9.765         50.333         56.424        207.227      -999.2500        0.29798
        11982.5          9.765         54.146         59.280        245.494      -999.2500        0.35364
        11983.0          9.765         56.052         62.141        284.065      -999.2500        0.40480
        11983.5          9.765         67.503         65.002        308.322      -999.2500        0.38029
        11984.0          9.765         64.807         65.790        220.689      -999.2500        0.33127
        11984.5          9.765         57.358         65.980        173.312      -999.2500        0.29654
        11985.0          9.765         50.487         66.220        146.446      -999.2500        0.32481
        11985.5          9.765         43.774         66.460        151.998      -999.2500        0.37939
        11986.0          9.765         46.804         66.460        161.323      -999.2500        0.33003
        11986.5          9.765         50.070         66.700        186.521      -999.2500        0.29224
        11987.0          9.765         51.615         67.175        173.143      -999.2500        0.28431
        11987.5          9.765         50.764         67.780        151.998      -999.2500        0.24159
        11988.0          9.765         49.177         72.472        204.706      -999.2500        0.26411
        11988.5          9.765         37.719         77.674        186.174      -999.2500        0.29708
        11989.0          9.765         39.233         80.211        125.100      -999.2500        0.29682
        11989.5          9.765         35.054         77.520         91.972      -999.2500        0.29657
        11990.0          9.765         35.155         73.836         92.570      -999.2500        0.29636
        11990.5          9.765         30.402         70.214         93.183      -999.2500        0.17733
        11991.0          9.765         34.722         70.095        154.493      -999.2500        0.17895
        11991.5          9.765         38.204         69.975        153.790      -999.2500        0.18543
        11992.0          9.765         48.312         66.981        151.998      -999.2500        0.29840
        11992.5          9.765         47.364         60.465        200.133      -999.2500        0.31093
        11993.0          9.765         48.349         58.185        491.611      -999.2500        0.45992
        11993.5          9.765         45.868         55.893       1981.480      -999.2500        0.36045
        11994.0          9.764         43.967         53.021       1921.570      -999.2500        0.68421
        11994.5          9.764         40.866         53.695       1381.861      -999.2500        0.56202
        11995.0          9.767         44.383         58.337        301.448      -999.2500        0.45830
        11995.5          9.759         45.052         57.166         86.979      -999.2500        0.30607
        11996.0          9.795         47.731         56.857        544.730      -999.2500        0.29704
        11996.5          9.885         52.557         78.005       1583.676      -999.2500        0.29704
        11997.0          9.885         52.553         77.996       1583.676      -999.2500        0.29704
        11997.5          9.885         52.553         77.996       1583.676      -999.2500        0.29704
        11998.0          9.885         52.553         77.996       1583.676      -999.2500        0.29704
        11998.5          9.885         52.553         77.996       1583.676      -999.2500        0.29704
        11999.0          9.885         52.553         77.996       1583.676      -999.2500        0.29704
        11999.5          9.885         52.553         77.996       1583.676      -999.2500        0.29704
        12000.0          9.885         52.553         77.996       1583.676      -999.2500        0.29704
