~Version Information
 VERS.                  2.0:   CWLS log ASCII Standard -VERSION 2.0
 WRAP.                   NO:   One line per depth step
~Well Information Block
#MNEM.UNIT     VALUE/NAME     DESCRIPTION
#---------     -----------    ---------------------------
 STRT.F              8800.0000: START DEPTH
 STOP.F             14300.0000: STOP DEPTH
 STEP.F                 0.5000: STEP DEPTH
 NULL.                 -999.25: NULL VALUE
 LOC .     336'' FSL & 729' FWL:  LOCATION
 FL6 .        API 42-389-36322:  LOCATIONLINE6
 FL4 .           ABSTRACT 3622:  LOCATIONLINE4
 FL3 .        T&P RR CO SURVEY:  LOCATIONLINE3
 FL2 .     SECTION 36, BLOCK 58 T2:  LOCATIONLINE2
 FL1 .     336'' FSL & 729' FWL:  LOCATIONLINE1
 DMF .                      KB:  DRILL MEAS FROM
 PDAT.                      GL:  PERMANENT DATUM
 CNTY.                  REEVES:  COUNTY NAME
 FLD .     FORD, WEST (WOLFCAMP):  FIELD NAME
 WELL.        AVA STATE 36 #2H:  WELL NAME
 COMP.     CAPITAN ENERGY INC.:  COMPANY
 DATE.             01-Nov-2017:  DATE
 SVCO.             Halliburton:  SERVICECONAME
 PROV.                   TEXAS:  PROVINCE
 STAT.                   TEXAS:  STATE NAME
 CTRY.           UNITED STATES:  COUNTRY NAME
 HIDE.                        :  WELLNAMEOPERAT
 BASI.                 PERMIAN:  BASIN
 UWI .            42-389-36322LAT:  UNIQUE WELL IDENTIFIER
 API .            42-389-36322LAT:  API NUMBER
 RANG.                     N/A:  RANGE
 TOWN.                     N/A:  TOWNSHIP
 SECT.                     N/A:  SECTION
 SON .               904399722:  JOB NUMBER
 SRVC.             Halliburton:  SERVICE COMPANY
 LMF .                      KB:  LOG MEASURED FROM
 EGL .ft             3011.0000:  GROUND ELEVATION
 BAP .ft                0.0000:  GL ELEV ONSHORE
 GVFD.g                 1.0000:  GRAVITY FIELD
 EKB .ft             3037.0000:  KB ELEVATION
 EDF .ft             3036.0000:  DF ELEVATION
~Curve Information Block
#MNEM.UNIT                 API CODE     Curve Description
#---------               -----------    ---------------------------
 DEPT.F                 00 000 000 000:  Depth
 CCL .V                 00 000 000 000:  Casing Collar Locator
 NPHI_OH.pu             00 000 000 000:  NPHI_OH
 NPHI_CHI.pu            00 000 000 000:  NPHI_CHI
 GR_CHI.api             00 000 000 000:  GR_CHI
 GR_OH.api              00 000 000 000:  GR_OH
 RHOB_OH.g/cc           00 000 000 000:  RHOB_OH
 RHOB_CHI.g/cc          00 000 000 000:  RHOB_CHI
 PE_CHI.b/e             00 000 000 000:  PE_CHI
 PE_OH.b/e              00 000 000 000:  PE_OH
 DTC_OH.uspf            00 000 000 000:  DTC_OH
 DTC_CHI.uspf           00 000 000 000:  DTC_CHI
 SPHI_CHI.pu            00 000 000 000:  Acou Porosity CHI
 RT10_OH.ohmm           00 000 000 000:  RT10_OH
 RT10_CHI.ohmm          00 000 000 000:  RT10_CHI
 RT30_OH.ohmm           00 000 000 000:  RT30_OH
 RT30_CHI.ohmm          00 000 000 000:  RT30_CHI
 RT90_OH.ohmm           00 000 000 000:  RT90_OH
 RT90_CHI.ohmm          00 000 000 000:  RT90_CHI
 SGF .cu                00 000 000 000:  Formation Sigma
 CRNF.NONE              00 000 000 000:  CM GrsCaptRatio
 RIN .NONE              00 000 000 000:  CM GrsInelRatio
#Other Information
#
#WARRANTY: Halliburton will use its best efforts to furnish customers with 
#accurate information and interpretations that are part of, and incident to, the services 
#provided.  However, Halliburton cannot and does not warrant the accuracy 
#or correctness of such information and interpretations.  Under no circumstances should any 
#such information or interpretation be relied upon as the sole basis for any drilling, 
#completion, production, or financial decision or any procedure involving any risk to the 
#safety of any drilling venture, drilling rig or its crew or any other third party.  The 
#Customer has full responsibility for all drilling, completion and production operation.  
#Halliburton makes no representations or warranties, either expressed or 
#implied, including, but not limited to, the implied warranties of merchantability or fitness 
#for a particular purpose, with respect to the services rendered.  In no event will 
#Halliburton be liable for failure to obtain any particular results or for 
#any damages, including, but not limited to, indirect, special or consequential damages, 
#resulting from the use of any information or interpretation provided by Halliburton.
#
~A    DEPT      CCL   NPHI_OH NPHI_CHI   GR_CHI   GR_OH   RHOB_OH RHOB_CHI  PE_CHI   PE_OH  DTC_OH  DTC_CHI SPHI_CHI RT10_OH  RT10_CHI RT30_OH  RT30_CHI RT90_OH  RT90_CHI   SGF    CRNF   RIN   
# ...
   10270.0000  0.0000 -999.25    8.7504  78.7256  -999.25 -999.25    2.5821  4.3487 -999.25 -999.25 60.6570   9.2300  -999.25  47.3168  -999.25  54.5687  -999.25  61.9565 18.9115 0.8557 0.9372
   10270.5000  0.0000 -999.25    9.0615  84.7822  -999.25 -999.25    2.5797  4.2940 -999.25 -999.25 60.6465   9.2300  -999.25  48.3488  -999.25  55.8380  -999.25  63.4156 19.0188 0.8591 0.9418
   10271.0000  0.0000 -999.25    9.1251  85.3989  -999.25 -999.25    2.5793  4.2818 -999.25 -999.25 60.7331   9.2900  -999.25  48.6763  -999.25  55.9254  -999.25  63.4355 19.2396 0.8576 0.9476
   10271.5000  0.0000 -999.25    8.9665  82.7486  -999.25 -999.25    2.5809  4.3053 -999.25 -999.25 60.7055   9.2700  -999.25  48.5939  -999.25  55.4491  -999.25  62.8059 19.4816 0.8594 0.9524
   10272.0000  0.0000 -999.25    8.9463  81.4238  -999.25 -999.25    2.5808  4.2989 -999.25 -999.25 60.8282   9.3600  -999.25  48.1649  -999.25  54.7143  -999.25  61.8912 19.7977 0.8632 0.9540
   10272.5000  0.0000 -999.25    8.6647  77.6885  -999.25 -999.25    2.5832  4.3309 -999.25 -999.25 60.6763   9.2500  -999.25  47.6429  -999.25  53.8115  -999.25  60.7978 19.9824 0.8727 0.9560
   10273.0000  0.0000 -999.25    8.9816  82.9365  -999.25 -999.25    2.5801  4.2611 -999.25 -999.25 60.7942   9.3300  -999.25  47.7430  -999.25  53.9538  -999.25  60.9155 20.1065 0.8840 0.9582
   10273.5000  0.0000 -999.25    9.4888  90.9149  -999.25 -999.25    2.5754  4.1684 -999.25 -999.25 61.0263   9.5000  -999.25  48.2722  -999.25  54.6950  -999.25  61.7288 20.1753 0.8909 0.9612
   10274.0000  0.0000 -999.25    9.6197  90.0142  -999.25 -999.25    2.5739  4.1500 -999.25 -999.25 61.4142   9.7700  -999.25  47.9690  -999.25  53.9979  -999.25  60.8204 20.2778 0.8935 0.9646
   10274.5000  0.0000 -999.25    9.7460  87.4678  -999.25 -999.25    2.5722  4.1371 -999.25 -999.25 61.9552  10.1500  -999.25  47.3757  -999.25  53.0094  -999.25  59.5972 20.4688 0.8891 0.9650
   10275.0000  0.0000 -999.25    9.7943  85.2230  -999.25 -999.25    2.5712  4.1305 -999.25 -999.25 62.2996  10.4000  -999.25  46.8491  -999.25  52.1907  -999.25  58.6007 20.6364 0.8836 0.9648
   10275.5000  0.0000 -999.25    9.8698  85.1171  -999.25 -999.25    2.5700  4.1084 -999.25 -999.25 62.4818  10.5200  -999.25  46.4130  -999.25  51.6514  -999.25  57.9579 20.7576 0.8792 0.9635
   10276.0000  0.0000 -999.25    9.9013  87.3987  -999.25 -999.25    2.5696  4.0869 -999.25 -999.25 62.3190  10.4100  -999.25  46.3864  -999.25  51.7818  -999.25  58.1320 20.8529 0.8786 0.9623
   10276.5000  0.0000 -999.25    9.6030  84.4798  -999.25 -999.25    2.5724  4.1239 -999.25 -999.25 62.0033  10.1900  -999.25  46.0651  -999.25  51.3360  -999.25  57.6292 20.9261 0.8807 0.9621
   10277.0000  0.0000 -999.25    9.1607  79.0242  -999.25 -999.25    2.5766  4.1890 -999.25 -999.25 61.6716   9.9500  -999.25  45.6719  -999.25  50.6166  -999.25  56.7848 21.1116 0.8886 0.9638
   10277.5000  0.0000 -999.25    9.1962  81.0346  -999.25 -999.25    2.5768  4.1814 -999.25 -999.25 61.5344   9.8500  -999.25  46.1749  -999.25  51.0415  -999.25  57.2310 21.3066 0.8996 0.9692
   10278.0000  0.0000 -999.25    9.4984  86.7512  -999.25 -999.25    2.5745  4.1257 -999.25 -999.25 61.5870   9.8900  -999.25  46.6824  -999.25  51.5592  -999.25  57.7620 21.4006 0.9109 0.9748
   10278.5000  0.0000 -999.25    9.6669  87.5486  -999.25 -999.25    2.5730  4.0993 -999.25 -999.25 61.8858  10.1000  -999.25  46.5412  -999.25  51.0481  -999.25  57.0631 21.4506 0.9195 0.9803
   10279.0000  0.0000 -999.25    9.9872  89.5285  -999.25 -999.25    2.5701  4.0573 -999.25 -999.25 62.3972  10.4600  -999.25  46.4114  -999.25  50.6397  -999.25  56.4874 21.6115 0.9268 0.9846
   10279.5000  0.0000 -999.25   10.5406  95.6371  -999.25 -999.25    2.5650  3.9782 -999.25 -999.25 63.0499  10.9300  -999.25  46.4791  -999.25  50.7320  -999.25  56.5144 21.8666 0.9294 0.9868
   10280.0000  0.0000 -999.25   10.3104  87.2032  -999.25 -999.25    2.5666  4.0216 -999.25 -999.25 63.3625  11.1500  -999.25  45.5378  -999.25  49.0720  -999.25  54.5251 22.0888 0.9314 0.9885
   10280.5000  0.0000 -999.25   10.2398  81.6824  -999.25 -999.25    2.5663  4.0272 -999.25 -999.25 63.7380  11.4100  -999.25  44.6321  -999.25  47.7092  -999.25  52.9150 22.3021 0.9303 0.9872
   10281.0000  0.0000 -999.25   10.8257  92.4650  -999.25 -999.25    2.5610  3.9210 -999.25 -999.25 64.0430  11.6300  -999.25  45.0597  -999.25  48.5327  -999.25  53.8378 22.3856 0.9249 0.9876
   10281.5000  0.0000 -999.25   10.9116  93.3402  -999.25 -999.25    2.5600  3.8977 -999.25 -999.25 64.1742  11.7200  -999.25  44.8351  -999.25  48.2216  -999.25  53.4548 22.4837 0.9244 0.9879
   10282.0000  0.0000 -999.25   10.1815  79.7115  -999.25 -999.25    2.5666  4.0166 -999.25 -999.25 63.8387  11.4800  -999.25  43.9464  -999.25  46.5279  -999.25  51.4718 22.6800 0.9284 0.9912
   10282.5000  0.0000 -999.25    9.8201  76.4930  -999.25 -999.25    2.5705  4.0685 -999.25 -999.25 63.3887  11.1700  -999.25  43.9327  -999.25  46.2428  -999.25  51.1196 22.8398 0.9355 0.9959
   10283.0000  0.0000 -999.25    9.8523  78.6530  -999.25 -999.25    2.5707  4.0583 -999.25 -999.25 63.2806  11.0900  -999.25  44.0182  -999.25  46.2007  -999.25  51.0204 22.9803 0.9407 1.0006
   10283.5000  0.0000 -999.25   10.1800  84.5610  -999.25 -999.25    2.5682  4.0083 -999.25 -999.25 63.4859  11.2300  -999.25  44.1935  -999.25  46.3932  -999.25  51.1785 23.0825 0.9433 1.0046
   10284.0000  0.0000 -999.25   10.3185  84.5488  -999.25 -999.25    2.5669  3.9927 -999.25 -999.25 63.8234  11.4700  -999.25  43.8834  -999.25  45.8309  -999.25  50.4718 23.2655 0.9441 1.0071
   10284.5000  0.0000 -999.25   10.4344  85.5238  -999.25 -999.25    2.5662  3.9826 -999.25 -999.25 64.0395  11.6300  -999.25  43.7213  -999.25  45.4690  -999.25  49.9961 23.3652 0.9482 1.0107
   10285.0000  0.0000 -999.25   10.6954  90.9982  -999.25 -999.25    2.5642  3.9392 -999.25 -999.25 64.2253  11.7600  -999.25  43.7955  -999.25  45.6177  -999.25  50.1258 23.4504 0.9559 1.0128
   10285.5000  0.0000 -999.25   10.8721  95.7528  -999.25 -999.25    2.5630  3.9112 -999.25 -999.25 64.3003  11.8100  -999.25  43.9353  -999.25  45.8561  -999.25  50.3696 23.4367 0.9626 1.0149
   10286.0000  0.0000 -999.25   10.5861  86.3259  -999.25 -999.25    2.5649  3.9577 -999.25 -999.25 64.3933  11.8800  -999.25  43.2489  -999.25  44.6581  -999.25  48.9846 23.4050 0.9651 1.0145
   10286.5000  0.0000 -999.25   10.8611  88.3739  -999.25 -999.25    2.5623  3.9258 -999.25 -999.25 64.8641  12.2100  -999.25  43.1359  -999.25  44.5478  -999.25  48.8313 23.4131 0.9597 1.0139
   10287.0000  0.0000 -999.25   11.3383  96.6389  -999.25 -999.25    2.5581  3.8619 -999.25 -999.25 65.3819  12.5800  -999.25  43.3826  -999.25  45.0897  -999.25  49.4230 23.5160 0.9582 1.0136
   10287.5000  0.0000 -999.25   11.3020  94.0176  -999.25 -999.25    2.5582  3.8706 -999.25 -999.25 65.4818  12.6500  -999.25  43.1687  -999.25  44.7297  -999.25  49.0055 23.7031 0.9601 1.0132
   10288.0000  0.0000 -999.25   11.1885  94.2278  -999.25 -999.25    2.5593  3.8745 -999.25 -999.25 65.1954  12.4400  -999.25  43.2680  -999.25  44.8858  -999.25  49.2022 23.9241 0.9646 1.0132
   10288.5000  0.0000 -999.25   11.0068  89.6341  -999.25 -999.25    2.5603  3.8870 -999.25 -999.25 65.0972  12.3700  -999.25  42.9056  -999.25  44.3455  -999.25  48.6023 24.0917 0.9739 1.0112
   10289.0000  0.0000 -999.25   11.0457  88.8696  -999.25 -999.25    2.5594  3.8688 -999.25 -999.25 65.2462  12.4800  -999.25  42.5876  -999.25  43.9507  -999.25  48.1486 24.2089 0.9763 1.0095
   10289.5000  0.0000 -999.25   11.3635  93.4786  -999.25 -999.25    2.5562  3.8123 -999.25 -999.25 65.6368  12.7600  -999.25  42.5382  -999.25  44.0609  -999.25  48.2661 24.2305 0.9804 1.0073
   10290.0000  0.0000 -999.25   11.5936  93.9227  -999.25 -999.25    2.5538  3.7841 -999.25 -999.25 66.1695  13.1300  -999.25  42.1812  -999.25  43.5655  -999.25  47.6616 24.3167 0.9769 1.0068
   10290.5000  0.0000 -999.25   11.6594  93.8853  -999.25 -999.25    2.5530  3.7747 -999.25 -999.25 66.3188  13.2400  -999.25  42.0741  -999.25  43.4423  -999.25  47.5173 24.2576 0.9730 1.0060
