#--------------------------------------------------#
#-------------------ENVERUS, INC.------------------#
#------------------WWW.ENVERUS.COM-----------------#
#------------------COPYRIGHT 2020------------------#
#--------------------------------------------------#
#THIS FILE MAY BE USED ONLY IN ACCORDANCE WITH A CURRENT SUBSCRIPTION AGREEMENT BETWEEN
#THE USER AND ENVERUS, INC. NO PART OF THIS FILE MAY BE REPRODUCED, USED, COPIED,
#MODIFIED, PROPAGATED, OR DISTRIBUTED EXCEPT IN ACCORDANCE WITH THE SUBSCRIPTION
#AGREEMENT. UNAUTHORIZED USE OR DISTRIBUTION OF ALL OR ANY PART OF THIS FILE MAY VIOLATE
#COPYRIGHT, TRADEMARK, AND/OR OTHER LAWS AND IS SUBJECT TO CIVIL AS WELL AS CRIMINAL
#SANCTIONS.
#--------------------------------------------------#
#THIS FILE IS PROVIDED "AS-IS" AND ALL WARRANTIES ARE EXPRESSLY DISCLAIMED, WHETHER
#EXPRESS, ORAL, IMPLIED, STATUTORY OR OTHERWISE, INCLUDING ANY IMPLIED WARRANTY OF FITNESS
#FOR A PARTICULAR PURPOSE, MERCHANTABILITY, TITLE OR NON-INFRINGEMENT, AND ANY WARRANTIES
#ARISING BY VIRTUE OF CUSTOM OF TRADE OR COURSE OF DEALING.  FURTHER, ENVERUS, INC.
#AND ITS LICENSORS DO NOT REPRESENT OR WARRANT THAT THIS FILE WILL MEET USER'S
#REQUIREMENTS OR ARE SUITABLE FOR USER'S NEEDS OR THAT THE DATA OR RESULTS PROVIDED IN
#CONJUNCTION THEREWITH ARE CORRECT, ACCURATE, TIMELY OR RELIABLE. THESE DISCLAIMERS SHALL
#APPLY REGARDLESS OF ANY FAILURE OF ESSENTIAL PURPOSE OF ANY LIMITED REMEDY.  SOME
#JURISDICTIONS DO NOT ALLOW THE EXCLUSION OF CERTAIN WARRANTIES SO SOME OF THE ABOVE
#EXCLUSIONS MAY NOT APPLY. IN NO EVENT SHALL ENVERUS, INC. OR ANY OF ITS AFFILIATES
#BE LIABLE UNDER ANY LEGAL THEORY, WHETHER IN TORT (INCLUDING WITHOUT LIMITATION
#NEGLIGENCE), CONTRACT, STRICT LIABILITY, STATUTORY OR OTHERWISE, FOR ANY SPECIAL,
#INCIDENTAL, CONSEQUENTIAL, EXEMPLARY, PUNITIVE OR INDIRECT DAMAGE OF ANY KIND, INCLUDING
#WITHOUT LIMITATION LOSS OF REVENUE, PROFITS, GOODWILL, USE, AND/OR DATA OR THE COST OF
#PROCUREMENT OF SUBSTITUTE GOODS OR SERVICES, EVEN IF APPRISED OF THE POSSIBILITY OF SUCH
#DAMAGES IN ADVANCE.
#--------------------------------------------------#

~VERSION INFORMATION
VERS. 2.0 : CWLS LOG ASCII STANDARD - VERSION 2.0
WRAP.  NO : ONE LINE PER DEPTH STEP
~WELL INFORMATION
#MNEMONIC     .UNIT              VALUE :DESCRIPTION
STRT       .FT                0 :START DEPTH
STOP       .FT                13134 :STOP DEPTH
STEP       .FT                   0.500 :STEP
NULL       .                  -999.250 :NULL
UWI        .              42389303540000 :UNIQUE WELL ID
API        .              42389303540000 :API NUMBER
COMP       .         SMC OIL & GAS  INC. :COMPANY
WELL       .        TIFFANY STATE  1 :WELL
DATE       .                18-OCT-1995 :LOG DATE
~CURVE INFORMATION
#MNEMONIC     .UNIT      API CODE :CURVE DESCRIPTION
DEPTH       .FT                      :MEASURED DEPTH
DT.US/FT        UNKNOWN   :DT
CAL.INCH        UNKNOWN   :CAL
GR.API        UNKNOWN   :GR
~A    DEPTH    DT    CAL    GR
# ...
 5669     66.677   9.803   151.891
 5669.5     67.743   9.805   145.719
 5670     68.713   9.807   133.194
 5670.5     69.683   9.81   113.888
 5671     69.487   9.823   97.529
 5671.5     68.263   9.842   81.169
 5672     67.039   9.861   64.81
 5672.5     65.815   9.881   49.089
 5673     63.566   9.9   58.13
 5673.5     61.371   9.92   67.17
 5674     65.459   9.939   76.21
 5674.5     65.811   9.958   85.251
 5675     66.164   9.978   90.248
 5675.5     66.516   9.997   86.599
 5676     66.447   10.016   82.951
 5676.5     66.016   10.031   79.302
 5677     65.674   10.042   75.653
 5677.5     65.987   10.053   72.004
 5678     66.3   10.064   72.418
 5678.5     66.614   10.076   74.715
 5679     66.927   10.087   77.013
 5679.5     66.822   10.098   79.311
 5680     66.422   10.109   81.969
 5680.5     66.023   10.088   87.317
 5681     65.623   10.056   92.664
 5681.5     65.223   10.024   98.012
 5682     64.824   9.992   122.856
 5682.5     64.424   9.96   125.091
 5683     64.645   9.928   130.599
 5683.5     65.987   9.902   129.399
 5684     67.329   9.878   125.067
 5684.5     66.79   9.855   117.062
 5685     66.091   9.831   107.398
 5685.5     65.392   9.808   97.733
 5686     64.693   9.784   88.071
 5686.5     63.81   9.76   78.493
 5687     62.63   9.737   73.162
 5687.5     61.843   9.713   67.83
 5688     60.907   9.69   56.736
 5688.5     59.498   9.666   48.81
 5689     58.089   9.643   49.521
 5689.5     56.68   9.619   57.285
 5690     56.82   9.605   65.048
 5690.5     58.75   9.62   72.757
 5691     60.679   9.635   80.147
 5691.5     62.609   9.65   87.538
 5692     64.539   9.665   94.929
 5692.5     66.353   9.68   93.269
 5693     64.641   9.696   91.176
 5693.5     62.019   9.711   95.304
 5694     62.059   9.726   117.24
 5694.5     62.813   9.741   126.743
 5695     63.831   9.756   132.608
 5695.5     64.859   9.731   138.473
 5696     65.886   9.69   139.925
 5696.5     66.834   9.65   134.472
 5697     66.234   9.675   129.02
 5697.5     65.633   9.731   101.999
 5698     65.033   9.786   91.539
 5698.5     64.432   9.842   85.082
 5699     63.831   9.897   78.624
 5699.5     63.231   9.952   73.259
 5700     63.159   9.962   68.024
 5700.5     63.612   9.969   62.788
 5701     64.065   9.976   60.92
 5701.5     63.779   9.984   70.02
 5702     63.401   9.991   79.119
 5702.5     63.023   9.998   82.77
 5703     62.645   10.005   78.188
 5703.5     65.726   10.012   73.605
 5704     67.399   10.02   69.022
 5704.5     67.314   10.027   61.249
 5705     67.229   10.034   52.126
 5705.5     67.144   10.041   44.171
 5706     66.785   10.048   40.011
 5706.5     66.097   10.055   39.884
 5707     65.408   10.063   45.37
 5707.5     64.719   10.08   54.539
 5708     65.828   10.096   63.708
 5708.5     67.569   10.112   72.877
 5709     69.25   10.128   83.155
 5709.5     69.716   10.11   95.62
 5710     68.872   10.078   108.085
 5710.5     67.927   10.046   114.031
 5711     66.983   10.014   104.415
 5711.5     66.039   9.982   94.799
 5712     65.094   9.95   87.894
 5712.5     64.143   9.918   91.007
 5713     62.563   9.885   94.119
 5713.5     61.554   9.853   97.232
 5714     62.663   9.821   100.336
 5714.5     63.772   9.789   93.51
 5715     64.038   9.757   86.684
 5715.5     64.002   9.725   79.858
 5716     63.965   9.693   73.032
 5716.5     63.928   9.661   68.011
 5717     63.526   9.628   66.155
 5717.5     63.058   9.606   64.299
 5718     62.589   9.617   62.443
 5718.5     62.121   9.628   61.782
 5719     61.519   9.638   61.272
 5719.5     60.884   9.649   60.762
 5720     60.638   9.659   59.937
 5720.5     61.148   9.67   58.995
 5721     60.978   9.681   60.591
 5721.5     60.693   9.691   66.43
 5722     62.077   9.702   72.269
 5722.5     62.312   9.713   78.04
 5723     62.547   9.723   83.624
 5723.5     62.782   9.734   89.208
 5724     63.406   9.744   94.791
 5724.5     64.133   9.755   99.21
 5725     64.358   9.766   100.81
 5725.5     64.565   9.776   102.925
 5726     64.696   9.787   105.316
 5726.5     64.792   9.797   107.706
 5727     64.888   9.804   110.096
 5727.5     65.056   9.81   112.487
 5728     65.478   9.816   114.877
 5728.5     65.9   9.822   108.189
 5729     64.735   9.828   99.639
 5729.5     63.533   9.834   91.089
 5730     62.332   9.84   82.769
 5730.5     62.217   9.846   99.09
 5731     62.168   9.852   91.38
 5731.5     65.022   9.859   80.917
 5732     66.111   9.865   79.596
 5732.5     64.896   9.87   81.079
 5733     63.681   9.874   83.341
 5733.5     63.165   9.877   89.546
 5734     62.778   9.88   101.005
 5734.5     62.473   9.883   119.936
 5735     64.415   9.886   128.327
 5735.5     66.356   9.889   136.666
 5736     67.399   9.893   132.005
 5736.5     66.922   9.896   122.135
 5737     65.738   9.899   116.593
 5737.5     64.585   9.902   111.052
 5738     64.726   9.905   105.925
 5738.5     64.867   9.908   107.801
 5739     65.009   9.911   109.678
 5739.5     65.15   9.915   104.656
 5740     65.291   9.918   94.701
 5740.5     64.798   9.921   84.746
 5741     63.982   9.924   74.791
 5741.5     62.743   9.915   64.836
 5742     61.189   9.906   57.294
 5742.5     60.861   9.898   62.981
 5743     60.888   9.889   68.668
 5743.5     60.915   9.881   74.355
 5744     61.59   9.872   81.201
 5744.5     63.82   9.852   86.789
 5745     66.051   9.832   85.534
 5745.5     67.008   9.812   84.279
 5746     66.935   9.792   79.177
 5746.5     66.507   9.771   70.186
 5747     66.079   9.751   63.371
 5747.5     65.651   9.731   59.398
 5748     65.223   9.71   55.426
 5748.5     64.795   9.69   51.486
 5749     64.499   9.67   47.897
 5749.5     64.211   9.67   44.309
 5750     63.923   9.69   40.721
 5750.5     63.636   9.71   38.19
 5751     63.334   9.731   38.193
 5751.5     62.963   9.751   38.32
 5752     62.592   9.771   38.447
 5752.5     63.698   9.791   38.573
 5753     66.003   9.811   38.65
 5753.5     66.034   9.832   38.448
 5754     66.064   9.852   38.245
 5754.5     66.095   9.872   38.043
 5755     66.125   9.892   38.016
 5755.5     66.112   9.912   38.793
 5756     66.055   9.933   39.57
 5756.5     65.997   9.953   40.347
 5757     65.94   9.973   40.933
 5757.5     65.882   9.979   41.359
 5758     65.824   9.98   41.784
 5758.5     65.767   9.981   42.21
 5759     65.722   9.982   42.635
 5759.5     65.81   9.984   43.085
 5760     65.898   9.985   43.587
 5760.5     65.986   9.986   44.089
 5761     66.073   9.987   44.643
 5761.5     66.161   9.988   45.637
 5762     65.917   9.989   46.632
 5762.5     65.534   9.99   47.626
 5763     65.15   9.991   49.375
 5763.5     65.098   9.992   49.138
 5764     65.386   9.993   48.902
 5764.5     65.674   9.994   48.665
 5765     65.962   9.995   48.429
 5765.5     66.049   9.996   48.192
 5766     66.054   10   48.02
 5766.5     66.06   10.01   48.592
 5767     66.066   10.021   49.165
 5767.5     66.072   10.032   49.738
 5768     66.077   10.043   50.311
 5768.5     66.083   10.053   50.884
 5769     66.089   10.064   51.821
 5769.5     65.994   10.075   53.219
 5770     65.825   10.085   54.618
 5770.5     65.657   10.058   53.21
 5771     65.488   10.03   51.768
 5771.5     65.32   10.001   50.325
 5772     65.151   9.973   50.121
 5772.5     64.983   9.944   51.19
 5773     64.814   9.916   52.26
 5773.5     64.896   9.888   53.33
 5774     65.083   9.859   54.4
 5774.5     65.269   9.842   54.917
 5775     65.455   9.854   53.356
 5775.5     65.641   9.867   51.796
 5776     65.649   9.879   50.628
 5776.5     65.352   9.891   52.659
 5777     65.054   9.903   54.691
 5777.5     64.757   9.915   56.723
 5778     64.416   9.927   58.755
 5778.5     64.004   9.939   61.037
 5779     64.073   9.96   64.809
 5779.5     64.28   9.988   68.581
 5780     64.274   10.015   72.353
 5780.5     64.05   10.043   73.56
 5781     63.825   10.071   73.777
 5781.5     63.768   10.098   73.993
 5782     64.053   10.126   79.796
 5782.5     64.337   10.086   86.077
 5783     64.622   9.98   88.722
