#--------------------------------------------------#
#-------------------ENVERUS, INC.------------------#
#------------------WWW.ENVERUS.COM-----------------#
#------------------COPYRIGHT 2020------------------#
#--------------------------------------------------#
#THIS FILE MAY BE USED ONLY IN ACCORDANCE WITH A CURRENT SUBSCRIPTION AGREEMENT BETWEEN
#THE USER AND ENVERUS, INC. NO PART OF THIS FILE MAY BE REPRODUCED, USED, COPIED,
#MODIFIED, PROPAGATED, OR DISTRIBUTED EXCEPT IN ACCORDANCE WITH THE SUBSCRIPTION
#AGREEMENT. UNAUTHORIZED USE OR DISTRIBUTION OF ALL OR ANY PART OF THIS FILE MAY VIOLATE
#COPYRIGHT, TRADEMARK, AND/OR OTHER LAWS AND IS SUBJECT TO CIVIL AS WELL AS CRIMINAL
#SANCTIONS.
#--------------------------------------------------#
#THIS FILE IS PROVIDED "AS-IS" AND ALL WARRANTIES ARE EXPRESSLY DISCLAIMED, WHETHER
#EXPRESS, ORAL, IMPLIED, STATUTORY OR OTHERWISE, INCLUDING ANY IMPLIED WARRANTY OF FITNESS
#FOR A PARTICULAR PURPOSE, MERCHANTABILITY, TITLE OR NON-INFRINGEMENT, AND ANY WARRANTIES
#ARISING BY VIRTUE OF CUSTOM OF TRADE OR COURSE OF DEALING.  FURTHER, ENVERUS, INC.
#AND ITS LICENSORS DO NOT REPRESENT OR WARRANT THAT THIS FILE WILL MEET USER'S
#REQUIREMENTS OR ARE SUITABLE FOR USER'S NEEDS OR THAT THE DATA OR RESULTS PROVIDED IN
#CONJUNCTION THEREWITH ARE CORRECT, ACCURATE, TIMELY OR RELIABLE. THESE DISCLAIMERS SHALL
#APPLY REGARDLESS OF ANY FAILURE OF ESSENTIAL PURPOSE OF ANY LIMITED REMEDY.  SOME
#JURISDICTIONS DO NOT ALLOW THE EXCLUSION OF CERTAIN WARRANTIES SO SOME OF THE ABOVE
#EXCLUSIONS MAY NOT APPLY. IN NO EVENT SHALL ENVERUS, INC. OR ANY OF ITS AFFILIATES
#BE LIABLE UNDER ANY LEGAL THEORY, WHETHER IN TORT (INCLUDING WITHOUT LIMITATION
#NEGLIGENCE), CONTRACT, STRICT LIABILITY, STATUTORY OR OTHERWISE, FOR ANY SPECIAL,
#INCIDENTAL, CONSEQUENTIAL, EXEMPLARY, PUNITIVE OR INDIRECT DAMAGE OF ANY KIND, INCLUDING
#WITHOUT LIMITATION LOSS OF REVENUE, PROFITS, GOODWILL, USE, AND/OR DATA OR THE COST OF
#PROCUREMENT OF SUBSTITUTE GOODS OR SERVICES, EVEN IF APPRISED OF THE POSSIBILITY OF SUCH
#DAMAGES IN ADVANCE.
#--------------------------------------------------#

~VERSION INFORMATION
VERS. 2.0 : CWLS LOG ASCII STANDARD - VERSION 2.0
WRAP. NO : ONE LINE PER DEPTH STEP
~WELL INFORMATION
#MNEMONIC     .UNIT              VALUE :DESCRIPTION
STRT       .FT                2834.00000 :START DEPTH
STOP       .FT                7010.00000 :STOP DEPTH
STEP       .FT                0.50000 :STEP
NULL       .                -999.25000 :NULL VALUE
UWI       .                42389304120000 :UNIQUE WELL ID
API       .                42389304120000 :API NUMBER
COMP       .                 :COMPANY
WELL       .                 :WELL
FLD       .                 :FIELD
LOC       .                 :LOCATION
CNTY       .                 :COUNTY
STAT       .                 :STATE
CTRY       .                 :COUNTRY
SRVC       .                 :SERVICE COMPANY
DATE       .                 :DATE
~CURVE INFORMATION
#MNEMONIC     .UNIT      API CODE :CURVE DESCRIPTION
DEPTH       .FT                      :MEASURED DEPTH
CAL       .IN        UNKNOWN   :CAL
DT       .US/FT        UNKNOWN   :DT
GR       .GAPI        UNKNOWN   :GR
~A    DEPTH    CAL    DT    GR
# ...
5596.00000    14.28445    62.10803    25.23490
5596.50000    14.28981    62.12594    24.85967
5597.00000    14.30711    62.14385    24.48445
5597.50000    14.32441    62.16176    24.10922
5598.00000    14.34172    62.17967    23.73400
5598.50000    14.35902    62.12393    23.75466
5599.00000    14.37633    61.15304    24.62208
5599.50000    14.39363    60.18216    25.48950
5600.00000    14.41093    59.21127    26.35692
5600.50000    14.42824    58.24038    26.89411
5601.00000    14.44554    57.26950    26.84241
5601.50000    14.46285    56.64860    26.79072
5602.00000    14.48015    56.29524    26.73903
5602.50000    14.49746    55.94188    26.68733
5603.00000    14.51476    55.58853    26.63564
5603.50000    14.53206    55.23517    26.58394
5604.00000    14.54937    54.88181    26.53225
5604.50000    14.56667    54.52845    26.48056
5605.00000    14.58398    54.41628    26.42886
5605.50000    14.60128    55.16616    26.37717
5606.00000    14.61858    55.91604    26.55799
5606.50000    14.63589    56.66593    26.90956
5607.00000    14.65319    57.41581    27.26113
5607.50000    14.67050    58.16569    27.61270
5608.00000    14.68780    58.91558    27.96427
5608.50000    14.70510    59.76799    28.31584
5609.00000    14.72241    60.84136    28.66742
5609.50000    14.73971    61.91473    29.01899
5610.00000    14.75702    62.98810    29.37056
5610.50000    14.77432    64.06148    29.72213
5611.00000    14.79162    65.13485    32.08224
5611.50000    14.80893    66.20822    34.99256
5612.00000    14.82623    67.28159    37.90288
5612.50000    14.84354    68.30398    40.81320
5613.00000    14.86084    67.45661    43.72353
5613.50000    14.87815    66.60924    46.63385
5614.00000    14.89545    65.76187    49.54417
5614.50000    14.91275    64.91450    52.45449
5615.00000    14.93006    64.06712    55.36481
5615.50000    14.94736    63.21975    54.10995
5616.00000    14.96211    62.37238    49.43668
5616.50000    14.97610    61.52501    44.76342
5617.00000    14.99008    60.67764    40.09015
5617.50000    15.00407    59.83026    37.74647
5618.00000    15.01805    58.98289    37.60675
5618.50000    15.03204    58.13552    37.46703
5619.00000    15.04602    58.25509    37.32732
5619.50000    15.06001    59.80651    36.66439
5620.00000    15.07400    61.35793    35.39271
5620.50000    15.08798    62.90936    34.12103
5621.00000    15.10197    64.46078    32.84935
5621.50000    15.11595    66.01220    31.57767
5622.00000    15.12994    67.56363    30.87236
5622.50000    15.14392    69.11505    31.11782
5623.00000    15.15791    70.66648    31.36327
5623.50000    15.17189    72.21790    31.60873
5624.00000    15.18588    73.76932    31.85419
5624.50000    15.19987    74.99734    32.09964
5625.00000    15.21385    76.17577    32.34510
5625.50000    15.22784    77.35420    32.59056
5626.00000    15.24182    78.53262    32.83601
5626.50000    15.24609    79.71105    33.08382
5627.00000    15.23209    80.88948    33.73215
5627.50000    15.21809    80.95938    34.38049
5628.00000    15.20409    78.11626    35.02882
5628.50000    15.19009    75.27314    35.67716
5629.00000    15.17609    72.43002    36.32549
5629.50000    15.16209    69.58691    36.97383
5630.00000    15.14809    66.74379    38.92775
5630.50000    15.14135    63.90067    40.69781
5631.00000    15.15333    64.96182    38.94959
5631.50000    15.16530    67.51091    37.20136
5632.00000    15.17727    70.05999    35.45314
5632.50000    15.18925    72.60908    33.70491
5633.00000    15.20122    75.15816    32.42947
5633.50000    15.21320    77.70725    31.76913
5634.00000    15.22517    80.25633    31.10880
5634.50000    15.23714    81.98309    30.44847
5635.00000    15.24912    79.60382    29.78813
5635.50000    15.24281    77.22455    29.12780
5636.00000    15.22599    74.84529    29.21672
5636.50000    15.20917    72.46602    29.33428
5637.00000    15.19235    70.08675    29.45185
5637.50000    15.17553    68.64385    29.56942
5638.00000    15.15871    69.26782    29.70171
5638.50000    15.14189    69.89178    30.16846
5639.00000    15.12507    69.21299    30.63521
5639.50000    15.10825    67.00829    31.10196
5640.00000    15.09143    64.80358    31.56871
5640.50000    15.07461    62.59888    32.03545
5641.00000    15.08658    60.39418    32.50220
5641.50000    15.10271    61.92577    32.96895
5642.00000    15.11884    63.84995    33.43570
5642.50000    15.13496    65.77414    33.90245
5643.00000    15.15109    67.62241    34.36919
5643.50000    15.16721    67.38376    34.50541
5644.00000    15.18334    67.14512    34.13540
5644.50000    15.19946    66.90647    33.76540
5645.00000    15.21559    66.66783    33.39539
5645.50000    15.23171    66.93157    33.02539
5646.00000    15.24784    68.56124    32.65538
5646.50000    15.26396    70.19091    32.28538
5647.00000    15.27945    71.82059    31.91538
5647.50000    15.26703    73.45026    31.88776
5648.00000    15.25460    75.07993    32.00752
5648.50000    15.24217    76.70961    32.12728
5649.00000    15.22974    78.33928    32.24704
5649.50000    15.21732    79.96895    32.36680
5650.00000    15.20489    81.59862    32.48655
5650.50000    15.19246    83.22830    32.60631
5651.00000    15.18004    84.85797    32.72607
5651.50000    15.16761    86.48764    33.40937
5652.00000    15.15518    88.11732    34.39970
5652.50000    15.14276    87.52492    35.39002
5653.00000    15.13033    84.35135    36.38035
5653.50000    15.11790    81.17778    37.37068
5654.00000    15.10548    68.95097    38.71295
5654.50000    15.09185    55.83447    40.12754
5655.00000    15.07705    55.57647    41.54213
5655.50000    15.06225    57.18622    42.95672
5656.00000    15.04745    58.79598    44.37132
5656.50000    15.03265    60.40574    45.78591
5657.00000    15.01785    62.01549    45.84552
5657.50000    15.00305    63.62525    45.47859
5658.00000    14.98825    65.23501    45.11166
5658.50000    14.97344    66.84476    44.64059
5659.00000    14.95864    67.95157    43.52641
5659.50000    14.94384    68.87070    42.41224
5660.00000    14.92904    69.78983    41.29806
5660.50000    14.91424    70.70897    40.18389
5661.00000    14.89944    71.62810    39.31484
5661.50000    14.88464    72.54723    38.66595
5662.00000    14.86984    73.46636    38.01705
5662.50000    14.85504    74.38550    37.36816
5663.00000    14.84024    75.30463    36.22115
5663.50000    14.82544    68.57117    34.39734
5664.00000    14.81064    61.22115    32.57354
5664.50000    14.79584    58.95992    30.74973
5665.00000    14.78104    59.93095    30.39651
5665.50000    14.76624    60.90197    30.78400
5666.00000    14.75144    61.87299    31.17150
5666.50000    14.73664    62.84402    31.55899
5667.00000    14.72184    63.81504    31.94649
5667.50000    14.70703    64.78607    32.33399
5668.00000    14.69223    65.75709    32.72148
5668.50000    14.67743    66.08551    33.10898
5669.00000    14.66263    66.37690    33.49648
5669.50000    14.64783    66.66829    33.30790
5670.00000    14.63303    66.95968    32.95564
5670.50000    14.61823    67.25107    32.60339
5671.00000    14.60343    67.54246    32.25113
5671.50000    14.58863    67.83385    31.89888
5672.00000    14.57383    68.12524    31.54663
5672.50000    14.55903    67.84177    31.19437
5673.00000    14.54423    60.58458    30.84212
5673.50000    14.52943    54.11573    30.48987
5674.00000    14.51463    55.64981    30.13761
5674.50000    14.49983    57.18389    29.78536
5675.00000    14.48503    58.71797    29.74347
5675.50000    14.47022    60.25205    30.06048
5676.00000    14.45542    61.78613    30.37750
5676.50000    14.44062    63.32021    30.69451
5677.00000    14.42582    64.77664    31.01152
5677.50000    14.41102    65.97410    31.32853
5678.00000    14.39622    67.17156    31.64555
5678.50000    14.38142    68.36902    31.96256
5679.00000    14.36662    69.56649    32.28316
5679.50000    14.35182    70.76395    33.04248
5680.00000    14.33702    71.96141    33.80180
5680.50000    14.32222    73.15887    34.56112
5681.00000    14.30742    74.35633    35.32044
