###############################################
##         ENVERUS                           ##
##         ESS - Open Hole                   ##
##         PERMIAN / DELAWARE                ##
##         Nov 04 2023  V4.0                 ##
##         42-389-31391-00-00                ##
###############################################
## Copyright 2017-2023  ENVERUS.  All Rights Reserved. 
## Confidential - Property of ENVERUS, use governed by terms and 
## conditions found within the existing Information Services Subscription Agreement 
## (as may be amended, the “ISSA”) between Customer and ENVERUS. 
## 
~VERSION INFORMATION
# MNEM.UNIT                               DATA : DESCRIPTION OF MNEMONIC
#-----.-----     ----------------------------- : -----------------------------
VERS.                                     2.00 : CWLS LOG ASCII STANDARD - VERSION 2.00
WRAP.                                       NO : MULTIPLE LINES PER DEPTH STEP
VEND.                                  ENVERUS : VENDOR
TYPE.                          ESS - OPEN HOLE : ENVERUS ESSENTIAL CURVES – ACCESSIBLE THROUGH ENVERUS PRISM(TM)
DOC.                                  23866972 : ENVERUS HEADER RAW DOCUMENT ID
#___________________________________________________________________________________________________ 
~WELL INFORMATION 
# fYFWm3OWRd9IdMsmH1sgiJ8+yI47SyIf11h8n9fSv2EtxvNnkQHcFoeZabdKB/2nhpfFDZXLrBDJ+4Q2ZBaHeQ== 
# MNEM.UNIT                                              DATA : DESCRIPTION OF MNEMONIC 
#-----.-----                    ----------------------------- : ----------------------------- 
CNTY.                                                  REEVES : COUNTY 
STATE.                                                  TEXAS : STATE 
CNTRY.                                                    USA : COUNTRY 
API.                                             42-389-31391 : API (10 Digit) 
API_14.                                    42-389-31391-00-00 : API (14 Digits) 
API_14_std.                                 42-389-31391-0000 : API (14 Digits Standard) 
UWI.                                           42389313910000 : UNIQUE WELL ID 
WELL.                                       DIXIELAND # 3 - 1 : WELL NAME
STRT.FT                                                4000.0 : START DEPTH
STOP.FT                                               12000.0 : STOP DEPTH
STEP.FT                                                   0.5 : STEP BETWEEN DEPTHS
NULL.                                                 -999.25 : NULL VALUE
COMP.                             R. K. PETROLEUM CORPORATION : COMPANY 
FLD.                                                  WILDCAT : FIELD 
DATE.                                              08/13/2015 : DATE 
TVD.                                                       NO : TVD FLAG 
WSTA.                                                     LOC : WELL STATUS
#___________________________________________________________________________________________________ 
~PARAMETER INFORMATION 
# MNEM.UNIT                                              DATA : DESCRIPTION OF MNEMONIC 
#-----.-----                    ----------------------------- : ----------------------------- 
RUN.                                                      ONE : RUN NUMBER 
PDAT.                                                      GL : PERMANENT DATUM 
LMF.                                            KELLY BUSHING : LOG MEASURED FROM
#___________________________________________________________________________________________________ 
~CURVE INFORMATION 
# MNEM.UNIT           : CURVE DESCRIPTION 
#-----.-----          : ----------------------------- 
 DEPT.FT               : MEASURED DEPTH 
 CALI.IN               : CALIPER (CALIPER) 
 GR.API                : GAMMA RAY (GAMMA RAY) 
 DT.US/FT              : SONIC DELTA TRANSIT TIME (DELTA-T) 
 RESD.OHMM             : DEEP INDUCTION RESISTIVITY (ILD - DEEP INDUCTION STANDARD PROCESSED RESISTIVITY) 
 RESD_LL.OHMM          : DEEP LATEROLOG (LLD - LATERO-LOG DEEP (RESISTIVITY)) 
 NPHI.V/V              : NEUTRON POROSITY (NEUTRON POROSITY) 
 #___________________________________________________________________________________________________ 
~A         DEPT           CALI             GR             DT           RESD        RESD_LL           NPHI
# ...
         7192.0         12.940         67.667         63.008       -999.250       106.7173     -999.25000
         7192.5         12.948         84.853         63.431       -999.250       194.2734     -999.25000
         7193.0         12.956         95.017         63.853       -999.250       353.6648     -999.25000
         7193.5         12.966         94.698         64.228       -999.250       506.6186     -999.25000
         7194.0         12.979         87.216         63.343       -999.250       538.1561     -999.25000
         7194.5         12.943         80.255         62.115       -999.250       518.8116     -999.25000
         7195.0         12.896         72.842         60.886       -999.250       401.3328     -999.25000
         7195.5         12.908         64.904         59.633       -999.250       329.6617     -999.25000
         7196.0         12.945         66.480         59.982       -999.250       310.9084     -999.25000
         7196.5         12.938         73.361         60.680       -999.250       268.4226     -999.25000
         7197.0         12.940         81.406         61.378       -999.250       188.2179     -999.25000
         7197.5         12.939         90.434         62.076       -999.250       111.5528     -999.25000
         7198.0         12.944         91.614         62.906       -999.250        82.6558     -999.25000
         7198.5         12.907         87.567         63.417       -999.250        37.7478     -999.25000
         7199.0         12.908         81.419         63.878       -999.250        39.9239     -999.25000
         7199.5         12.921         75.256         64.349       -999.250        39.7462     -999.25000
         7200.0         12.939         70.980         63.789       -999.250        39.2766     -999.25000
         7200.5         12.938         65.878         63.231       -999.250        38.8125     -999.25000
         7201.0         12.936         61.542         62.674       -999.250        35.6904     -999.25000
         7201.5         12.933         56.618         62.165       -999.250        27.4765     -999.25000
         7202.0         12.930         50.214         61.951       -999.250        21.3914     -999.25000
         7202.5         12.928         45.698         62.337       -999.250        16.8653     -999.25000
         7203.0         12.925         42.007         62.724       -999.250        10.7965     -999.25000
         7203.5         12.923         37.941         63.036       -999.250        11.2075     -999.25000
         7204.0         12.920         36.807         63.837       -999.250        11.4188     -999.25000
         7204.5         12.918         38.643         64.249       -999.250        11.8536     -999.25000
         7205.0         12.915         40.486         64.661       -999.250        11.4188     -999.25000
         7205.5         12.913         42.389         64.950       -999.250        12.5369     -999.25000
         7206.0         12.911         46.700         64.950       -999.250        15.3780     -999.25000
         7206.5         12.907         52.492         64.350       -999.250        21.1135     -999.25000
         7207.0         12.907         59.887         63.820       -999.250        28.5225     -999.25000
         7207.5         12.901         67.097         63.387       -999.250        69.7730     -999.25000
         7208.0         12.889         74.833         63.245       -999.250       163.4202     -999.25000
         7208.5         12.780         81.390         63.593       -999.250       384.5700     -999.25000
         7209.0         12.732         84.783         63.940       -999.250       811.8609     -999.25000
         7209.5         12.664         87.804         64.469       -999.250       903.8490     -999.25000
         7210.0         12.661         89.845         64.467       -999.250       729.5886     -999.25000
         7210.5         12.672         90.055         64.303       -999.250       490.1883     -999.25000
         7211.0         12.684         90.055         64.138       -999.250       329.3195     -999.25000
         7211.5         12.694         89.934         63.979       -999.250       221.2114     -999.25000
         7212.0         12.718         83.637         63.819       -999.250       155.8054     -999.25000
         7212.5         12.772         76.933         63.643       -999.250       128.3312     -999.25000
         7213.0         12.846         67.355         63.088       -999.250       103.5204     -999.25000
         7213.5         12.920         58.701         62.081       -999.250       107.4616     -999.25000
         7214.0         12.941         52.332         60.781       -999.250       111.6083     -999.25000
         7214.5         12.940         47.741         58.917       -999.250       126.6954     -999.25000
         7215.0         12.920         43.155         57.052       -999.250       144.9007     -999.25000
         7215.5         12.913         38.382         55.812       -999.250       127.1380     -999.25000
         7216.0         12.875         35.578         55.699       -999.250        92.5201     -999.25000
         7216.5         12.895         37.911         56.980       -999.250        71.7972     -999.25000
         7217.0         12.851         43.211         58.260       -999.250        51.8589     -999.25000
         7217.5         12.823         48.503         59.419       -999.250        52.8368     -999.25000
         7218.0         12.782         53.751         61.944       -999.250        55.8827     -999.25000
         7218.5         12.778         58.526         61.988       -999.250        61.7338     -999.25000
         7219.0         12.748         63.299         62.033       -999.250        67.3618     -999.25000
         7219.5         12.718         68.278         62.184       -999.250        76.2619     -999.25000
         7220.0         12.698         72.896         62.393       -999.250        95.7081     -999.25000
         7220.5         12.700         75.425         62.805       -999.250       127.3044     -999.25000
         7221.0         12.700         87.684         63.217       -999.250       169.3316     -999.25000
         7221.5         12.699         98.074         63.627       -999.250       244.4844     -999.25000
         7222.0         12.700        107.779         63.887       -999.250       260.8424     -999.25000
         7222.5         12.675        117.899         64.505       -999.250       282.3536     -999.25000
         7223.0         12.665        119.650         65.123       -999.250       308.3631     -999.25000
         7223.5         12.683        118.896         65.671       -999.250       355.2408     -999.25000
         7224.0         12.704        117.967         65.792       -999.250       525.3170     -999.25000
         7224.5         12.768        103.246         64.842       -999.250       778.5629     -999.25000
         7225.0         12.824         90.056         63.838       -999.250       736.1273     -999.25000
         7225.5         12.879         87.296         62.665       -999.250       709.1298     -999.25000
         7226.0         12.937         84.434         61.703       -999.250       712.8490     -999.25000
         7226.5         12.949         81.954         60.772       -999.250       724.2368     -999.25000
         7227.0         12.956         76.902         59.870       -999.250       736.1273     -999.25000
         7227.5         12.872         68.658         58.944       -999.250       750.0091     -999.25000
         7228.0         12.802         60.963         57.398       -999.250       700.9138     -999.25000
         7228.5         12.744         64.254         57.930       -999.250       621.8265     -999.25000
         7229.0         12.739         81.456         59.456       -999.250       554.4388     -999.25000
         7229.5         12.739         99.254         60.984       -999.250       514.0673     -999.25000
