###############################################
##         ENVERUS                           ##
##         ESS - Open Hole                   ##
##         PERMIAN / DELAWARE                ##
##         Nov 04 2023  V4.0                 ##
##         42-389-32398-00-00                ##
###############################################
## Copyright 2017-2023  ENVERUS.  All Rights Reserved. 
## Confidential - Property of ENVERUS, use governed by terms and 
## conditions found within the existing Information Services Subscription Agreement 
## (as may be amended, the “ISSA”) between Customer and ENVERUS. 
## 
~VERSION INFORMATION
# MNEM.UNIT                               DATA : DESCRIPTION OF MNEMONIC
#-----.-----     ----------------------------- : -----------------------------
VERS.                                     2.00 : CWLS LOG ASCII STANDARD - VERSION 2.00
WRAP.                                       NO : MULTIPLE LINES PER DEPTH STEP
VEND.                                  ENVERUS : VENDOR
TYPE.                          ESS - OPEN HOLE : ENVERUS ESSENTIAL CURVES – ACCESSIBLE THROUGH ENVERUS PRISM(TM)
DOC.                                  31812117 : ENVERUS HEADER RAW DOCUMENT ID
#___________________________________________________________________________________________________ 
~WELL INFORMATION 
# uAwnbjLw6pKN5CeTb7gwROLhNOHLu74gercCwdGpUdKCBCGOTLsJuzWIBCYkU6KzQxtC+uHRBloynRtd0Ulspg== 
# MNEM.UNIT                                              DATA : DESCRIPTION OF MNEMONIC 
#-----.-----                    ----------------------------- : ----------------------------- 
CNTY.                                                  REEVES : COUNTY 
STATE.                                                  TEXAS : STATE 
CNTRY.                                                    USA : COUNTRY 
API.                                             42-389-32398 : API (10 Digit) 
API_14.                                    42-389-32398-00-00 : API (14 Digits) 
API_14_std.                                 42-389-32398-0000 : API (14 Digits Standard) 
UWI.                                           42389323980000 : UNIQUE WELL ID 
WELL.                                    BLOCK 58 STATE 32  1 : WELL NAME
STRT.FT                                                8311.0 : START DEPTH
STOP.FT                                               12834.0 : STOP DEPTH
STEP.FT                                                   0.5 : STEP BETWEEN DEPTHS
NULL.                                                 -999.25 : NULL VALUE
COMP.                                       SHELL WESTERN E&P : COMPANY 
DATE.                                             08-FEB-2006 : LOG DATE
#___________________________________________________________________________________________________ 
~CURVE INFORMATION 
# MNEM.UNIT           : CURVE DESCRIPTION 
#-----.-----          : ----------------------------- 
 DEPT.FT               : MEASURED DEPTH 
 CALI__B.IN            : CALIPER (CAL - CAL) 
 GR__B.API             : GAMMA RAY (GR) 
 DT__B.US/FT           : SONIC DELTA TRANSIT TIME (DT) 
 RESS__B.OHMM          : SHALLOW INDUCTION RESISTIVITY (ILS - ILS) 
 RESD__B.OHMM          : DEEP INDUCTION RESISTIVITY (ILD - ILD) 
 #___________________________________________________________________________________________________ 
~A         DEPT        CALI__B          GR__B          DT__B        RESS__B        RESD__B
# ...
         8531.0          8.654         34.983       -999.250       -999.250         30.141
         8531.5          8.655         33.134       -999.250       -999.250         30.134
         8532.0          8.661         33.130       -999.250       -999.250         30.127
         8532.5          8.666         34.768       -999.250       -999.250         30.120
         8533.0          8.672         36.878       -999.250       -999.250         30.113
         8533.5          8.673         39.432       -999.250       -999.250         30.105
         8534.0          8.673         42.865       -999.250       -999.250         30.098
         8534.5          8.673         48.118       -999.250       -999.250         30.091
         8535.0          8.673         53.372       -999.250       -999.250         30.084
         8535.5          8.673         57.072       -999.250       -999.250         30.077
         8536.0          8.673         56.746       -999.250       -999.250         30.070
         8536.5          8.673         56.421       -999.250       -999.250         30.063
         8537.0          8.673         56.779       -999.250       -999.250         30.056
         8537.5          8.673         57.183       -999.250       -999.250         30.049
         8538.0          8.673         55.374       -999.250       -999.250         30.042
         8538.5          8.673         50.538       -999.250       -999.250         30.035
         8539.0          8.673         46.809       -999.250       -999.250         30.028
         8539.5          8.673         46.100       -999.250       -999.250         30.020
         8540.0          8.673         45.392       -999.250       -999.250         30.013
         8540.5          8.673         41.925       -999.250       -999.250         30.006
         8541.0          8.673         37.585       -999.250         17.976         29.999
         8541.5          8.673         33.245       -999.250         17.980         29.992
         8542.0          8.673         32.146       -999.250         17.984         29.985
         8542.5          8.673         32.455       -999.250         17.987         29.978
         8543.0          8.673         36.967       -999.250         17.991         29.971
         8543.5          8.673         41.479       -999.250         17.995         29.964
         8544.0          8.673         38.729       -999.250         17.998         29.957
         8544.5          8.673         35.234       -999.250         18.002         29.950
         8545.0          8.673         32.067       -999.250         18.006         29.943
         8545.5          8.673         32.824       -999.250         18.009         29.935
         8546.0          8.673         38.051       -999.250         18.013         29.928
         8546.5          8.673         44.891       -999.250         18.017         29.921
         8547.0          8.673         51.731       -999.250         18.020         29.914
         8547.5          8.673         57.460       -999.250         18.024         29.907
         8548.0          8.672         56.941       -999.250         18.028         29.900
         8548.5          8.670         52.474       -999.250         18.031         29.893
         8549.0          8.667         48.498       -999.250         18.035         29.886
         8549.5          8.665         46.873       -999.250         18.039         29.879
         8550.0          8.663         45.249       -999.250         18.042         29.872
         8550.5          8.660         39.722       -999.250         18.046         29.865
         8551.0          8.658         32.274       -999.250         18.050         29.858
         8551.5          8.656         31.438       -999.250         18.053         29.850
         8552.0          8.654         38.110       -999.250         18.057         29.843
         8552.5          8.651         45.583       -999.250         18.061         29.836
         8553.0          8.649         50.982       -999.250         18.064         29.829
         8553.5          8.647         51.551       -999.250         18.068         29.822
         8554.0          8.644         52.119       -999.250         18.072         29.815
         8554.5          8.642         54.597       -999.250         18.075         29.808
         8555.0          8.640         58.253       -999.250         18.079         29.801
         8555.5          8.637         61.273       -999.250         18.083         29.794
         8556.0          8.635         62.443       -999.250         18.086         29.787
         8556.5          8.633         63.613       -999.250         18.090         29.780
         8557.0          8.631         64.782       -999.250         18.094         29.772
         8557.5          8.628         62.102       -999.250         18.097         29.765
         8558.0          8.626         56.440       -999.250         18.101         29.758
         8558.5          8.624         50.779       -999.250         18.105         29.751
         8559.0          8.621         43.146       -999.250         18.108         29.744
         8559.5          8.619         47.981       -999.250         18.112         29.737
         8560.0          8.617         56.359       -999.250         18.116         29.730
         8560.5          8.615         63.007       -999.250         18.119         29.723
         8561.0          8.612         63.007       -999.250         18.123         29.716
         8561.5          8.610         62.893       -999.250         18.127         29.709
         8562.0          8.608         59.014       -999.250         18.130         29.702
         8562.5          8.605         55.135       -999.250         18.134         29.695
         8563.0          8.603         51.256       -999.250         18.138         29.687
         8563.5          8.601         47.377       -999.250         18.141         29.680
         8564.0          8.598         42.865       -999.250         18.145         29.673
         8564.5          8.632         37.312       -999.250         18.149         29.666
         8565.0          8.668         33.826       -999.250         18.152         29.659
         8565.5          8.704         39.876       -999.250         18.156         29.652
         8566.0          8.685         55.128       -999.250         18.160         29.645
         8566.5          8.654         70.380       -999.250         18.163         29.638
         8567.0          8.622         85.632       -999.250         18.167         29.631
         8567.5          8.614         94.955       -999.250         18.171         29.624
         8568.0          8.610         96.901       -999.250         18.174         29.617
         8568.5          8.607         97.728       -999.250         18.178         29.610
         8569.0          8.603        106.064       -999.250         18.178         29.801
         8569.5          8.600        113.923       -999.250         18.178         30.831
         8570.0          8.594        113.188       -999.250         18.178         31.861
         8570.5          8.587        109.979       -999.250         18.178         32.891
         8571.0          8.581         96.252       -999.250         18.178         33.921
         8571.5          8.574         80.698       -999.250         18.468         35.602
         8572.0          8.568         70.460       -999.250         19.117         37.296
         8572.5          8.561         68.956       -999.250         19.578         38.990
         8573.0          8.554         80.509       -999.250         20.033         41.038
         8573.5          8.548        105.140       -999.250         20.745         43.163
         8574.0          8.540        117.828       -999.250         21.539         40.566
         8574.5          8.522        121.617       -999.250         22.166         37.585
