###############################################
##         ENVERUS                           ##
##         ESS - Open Hole                   ##
##         PERMIAN / DELAWARE                ##
##         Nov 04 2023  V4.0                 ##
##         42-389-31391-00-00                ##
###############################################
## Copyright 2017-2023  ENVERUS.  All Rights Reserved. 
## Confidential - Property of ENVERUS, use governed by terms and 
## conditions found within the existing Information Services Subscription Agreement 
## (as may be amended, the “ISSA”) between Customer and ENVERUS. 
## 
~VERSION INFORMATION
# MNEM.UNIT                               DATA : DESCRIPTION OF MNEMONIC
#-----.-----     ----------------------------- : -----------------------------
VERS.                                     2.00 : CWLS LOG ASCII STANDARD - VERSION 2.00
WRAP.                                       NO : MULTIPLE LINES PER DEPTH STEP
VEND.                                  ENVERUS : VENDOR
TYPE.                          ESS - OPEN HOLE : ENVERUS ESSENTIAL CURVES – ACCESSIBLE THROUGH ENVERUS PRISM(TM)
DOC.                                  23866972 : ENVERUS HEADER RAW DOCUMENT ID
#___________________________________________________________________________________________________ 
~WELL INFORMATION 
# fYFWm3OWRd9IdMsmH1sgiJ8+yI47SyIf11h8n9fSv2EtxvNnkQHcFoeZabdKB/2nhpfFDZXLrBDJ+4Q2ZBaHeQ== 
# MNEM.UNIT                                              DATA : DESCRIPTION OF MNEMONIC 
#-----.-----                    ----------------------------- : ----------------------------- 
CNTY.                                                  REEVES : COUNTY 
STATE.                                                  TEXAS : STATE 
CNTRY.                                                    USA : COUNTRY 
API.                                             42-389-31391 : API (10 Digit) 
API_14.                                    42-389-31391-00-00 : API (14 Digits) 
API_14_std.                                 42-389-31391-0000 : API (14 Digits Standard) 
UWI.                                           42389313910000 : UNIQUE WELL ID 
WELL.                                       DIXIELAND # 3 - 1 : WELL NAME
STRT.FT                                                4000.0 : START DEPTH
STOP.FT                                               12000.0 : STOP DEPTH
STEP.FT                                                   0.5 : STEP BETWEEN DEPTHS
NULL.                                                 -999.25 : NULL VALUE
COMP.                             R. K. PETROLEUM CORPORATION : COMPANY 
FLD.                                                  WILDCAT : FIELD 
DATE.                                              08/13/2015 : DATE 
TVD.                                                       NO : TVD FLAG 
WSTA.                                                     LOC : WELL STATUS
#___________________________________________________________________________________________________ 
~PARAMETER INFORMATION 
# MNEM.UNIT                                              DATA : DESCRIPTION OF MNEMONIC 
#-----.-----                    ----------------------------- : ----------------------------- 
RUN.                                                      ONE : RUN NUMBER 
PDAT.                                                      GL : PERMANENT DATUM 
LMF.                                            KELLY BUSHING : LOG MEASURED FROM
#___________________________________________________________________________________________________ 
~CURVE INFORMATION 
# MNEM.UNIT           : CURVE DESCRIPTION 
#-----.-----          : ----------------------------- 
 DEPT.FT               : MEASURED DEPTH 
 CALI.IN               : CALIPER (CALIPER) 
 GR.API                : GAMMA RAY (GAMMA RAY) 
 DT.US/FT              : SONIC DELTA TRANSIT TIME (DELTA-T) 
 RESD.OHMM             : DEEP INDUCTION RESISTIVITY (ILD - DEEP INDUCTION STANDARD PROCESSED RESISTIVITY) 
 RESD_LL.OHMM          : DEEP LATEROLOG (LLD - LATERO-LOG DEEP (RESISTIVITY)) 
 NPHI.V/V              : NEUTRON POROSITY (NEUTRON POROSITY) 
 #___________________________________________________________________________________________________ 
~A         DEPT           CALI             GR             DT           RESD        RESD_LL           NPHI
# ...
         6660.0         13.658         67.697         62.788       -999.250        83.3283     -999.25000
         6660.5         13.675         72.938         62.914       -999.250        77.3406     -999.25000
         6661.0         13.702         91.174         63.167       -999.250        71.2450     -999.25000
         6661.5         13.728        117.844         63.387       -999.250        76.7730     -999.25000
         6662.0         13.749        128.954         65.190       -999.250       112.8664     -999.25000
         6662.5         13.769        151.091         67.280       -999.250       175.7563     -999.25000
         6663.0         13.785        147.988         69.760       -999.250       273.6889     -999.25000
         6663.5         13.806        154.460         68.877       -999.250       420.2863     -999.25000
         6664.0         13.864        130.505         68.076       -999.250       361.9399     -999.25000
         6664.5         14.053        118.111         65.584       -999.250       400.5837     -999.25000
         6665.0         14.057         73.784         63.685       -999.250       397.3786     -999.25000
         6665.5         14.063         74.791         61.703       -999.250       375.7194     -999.25000
         6666.0         14.060         73.576         61.222       -999.250       279.4237     -999.25000
         6666.5         14.060         75.076         60.982       -999.250       231.1587     -999.25000
         6667.0         14.061         79.731         61.583       -999.250       222.6810     -999.25000
         6667.5         14.060         83.772         61.944       -999.250       206.6468     -999.25000
         6668.0         14.059         85.851         62.425       -999.250       207.3739     -999.25000
         6668.5         14.031         85.205         62.545       -999.250       209.3514     -999.25000
         6669.0         14.003         83.916         62.629       -999.250       214.5142     -999.25000
         6669.5         13.962         84.389         62.665       -999.250       218.5594     -999.25000
         6670.0         13.899         86.143         62.545       -999.250       228.5821     -999.25000
         6670.5         13.830         88.957         62.791       -999.250       241.3208     -999.25000
         6671.0         13.768         91.304         63.222       -999.250       253.7922     -999.25000
         6671.5         13.707         93.356         63.507       -999.250       244.4844     -999.25000
         6672.0         13.665         91.184         63.507       -999.250       190.4996     -999.25000
         6672.5         13.607         82.550         63.098       -999.250       153.2538     -999.25000
         6673.0         13.561         74.507         62.523       -999.250       122.4752     -999.25000
         6673.5         13.542         67.577         61.321       -999.250       107.4616     -999.25000
         6674.0         13.507         59.159         60.725       -999.250       109.4880     -999.25000
         6674.5         13.510         60.336         60.892       -999.250       104.2190     -999.25000
         6675.0         13.519         61.026         61.343       -999.250        99.7238     -999.25000
         6675.5         13.533         63.434         61.953       -999.250        56.2038     -999.25000
         6676.0         13.544         64.842         63.087       -999.250        28.1707     -999.25000
         6676.5         13.555         55.752         63.275       -999.250        14.1198     -999.25000
         6677.0         13.567         45.992         63.387       -999.250         8.0609     -999.25000
         6677.5         13.578         35.911         63.387       -999.250         6.6503     -999.25000
         6678.0         13.589         37.006         64.539       -999.250         5.4912     -999.25000
         6678.5         13.601         40.438         65.822       -999.250         4.3410     -999.25000
         6679.0         13.612         43.785         67.114       -999.250         4.4562     -999.25000
         6679.5         13.623         47.008         68.437       -999.250         4.8886     -999.25000
         6680.0         13.635         50.261         68.451       -999.250         4.1735     -999.25000
         6680.5         13.646         48.638         68.205       -999.250         4.5507     -999.25000
         6681.0         13.657         44.560         67.807       -999.250         4.7507     -999.25000
         6681.5         13.669         44.860         67.076       -999.250         5.0462     -999.25000
         6682.0         13.681         44.421         66.463       -999.250         7.6353     -999.25000
         6682.5         13.693         41.317         65.058       -999.250        16.4319     -999.25000
         6683.0         13.707         38.855         63.683       -999.250        13.6596     -999.25000
         6683.5         13.713         33.434         61.641       -999.250        10.2521     -999.25000
         6684.0         13.731         27.532         59.793       -999.250         7.8046     -999.25000
         6684.5         13.767         25.161         61.731       -999.250         5.9386     -999.25000
         6685.0         13.923         23.374         63.617       -999.250         4.5193     -999.25000
         6685.5         13.984         24.001         65.502       -999.250         3.3276     -999.25000
         6686.0         14.088         33.408         67.387       -999.250         3.6512     -999.25000
         6686.5         14.207         43.797         69.273       -999.250         4.3314     -999.25000
         6687.0         14.255         54.464         71.202       -999.250         7.2062     -999.25000
         6687.5         14.207         69.998         70.782       -999.250        13.0142     -999.25000
         6688.0         14.095         68.936         69.760       -999.250        12.4769     -999.25000
         6688.5         14.029         62.709         68.325       -999.250        12.3786     -999.25000
         6689.0         14.020         56.804         66.879       -999.250         7.1578     -999.25000
         6689.5         14.012         49.632         65.693       -999.250         8.6282     -999.25000
         6690.0         13.977         46.508         65.517       -999.250         7.7784     -999.25000
         6690.5         13.980         46.833         65.320       -999.250         6.8953     -999.25000
         6691.0         13.982         46.709         65.124       -999.250         7.8159     -999.25000
         6691.5         13.979         47.250         65.032       -999.250        11.7548     -999.25000
         6692.0         13.975         49.027         64.961       -999.250        17.6786     -999.25000
         6692.5         14.004         45.874         63.233       -999.250        26.5877     -999.25000
         6693.0         13.894         42.326         60.862       -999.250        35.9359     -999.25000
         6693.5         13.860         38.699         58.397       -999.250        41.6102     -999.25000
         6694.0         13.853         45.940         58.665       -999.250        45.3770     -999.25000
         6694.5         13.799         54.188         59.742       -999.250        51.6758     -999.25000
         6695.0         13.727         62.011         60.820       -999.250        46.6081     -999.25000
         6695.5         13.686         66.243         61.703       -999.250        54.4884     -999.25000
         6696.0         13.668         64.409         62.267       -999.250        59.7803     -999.25000
         6696.5         13.647         62.034         61.871       -999.250        66.6378     -999.25000
         6697.0         13.626         59.104         61.476       -999.250        74.4217     -999.25000
         6697.5         13.622         58.070         61.301       -999.250        95.5295     -999.25000
