#--------------------------------------------------#
#-------------------ENVERUS, INC.------------------#
#------------------WWW.ENVERUS.COM-----------------#
#------------------COPYRIGHT 2020------------------#
#--------------------------------------------------#
#THIS FILE MAY BE USED ONLY IN ACCORDANCE WITH A CURRENT SUBSCRIPTION AGREEMENT BETWEEN
#THE USER AND ENVERUS, INC. NO PART OF THIS FILE MAY BE REPRODUCED, USED, COPIED,
#MODIFIED, PROPAGATED, OR DISTRIBUTED EXCEPT IN ACCORDANCE WITH THE SUBSCRIPTION
#AGREEMENT. UNAUTHORIZED USE OR DISTRIBUTION OF ALL OR ANY PART OF THIS FILE MAY VIOLATE
#COPYRIGHT, TRADEMARK, AND/OR OTHER LAWS AND IS SUBJECT TO CIVIL AS WELL AS CRIMINAL
#SANCTIONS.
#--------------------------------------------------#
#THIS FILE IS PROVIDED "AS-IS" AND ALL WARRANTIES ARE EXPRESSLY DISCLAIMED, WHETHER
#EXPRESS, ORAL, IMPLIED, STATUTORY OR OTHERWISE, INCLUDING ANY IMPLIED WARRANTY OF FITNESS
#FOR A PARTICULAR PURPOSE, MERCHANTABILITY, TITLE OR NON-INFRINGEMENT, AND ANY WARRANTIES
#ARISING BY VIRTUE OF CUSTOM OF TRADE OR COURSE OF DEALING.  FURTHER, ENVERUS, INC.
#AND ITS LICENSORS DO NOT REPRESENT OR WARRANT THAT THIS FILE WILL MEET USER'S
#REQUIREMENTS OR ARE SUITABLE FOR USER'S NEEDS OR THAT THE DATA OR RESULTS PROVIDED IN
#CONJUNCTION THEREWITH ARE CORRECT, ACCURATE, TIMELY OR RELIABLE. THESE DISCLAIMERS SHALL
#APPLY REGARDLESS OF ANY FAILURE OF ESSENTIAL PURPOSE OF ANY LIMITED REMEDY.  SOME
#JURISDICTIONS DO NOT ALLOW THE EXCLUSION OF CERTAIN WARRANTIES SO SOME OF THE ABOVE
#EXCLUSIONS MAY NOT APPLY. IN NO EVENT SHALL ENVERUS, INC. OR ANY OF ITS AFFILIATES
#BE LIABLE UNDER ANY LEGAL THEORY, WHETHER IN TORT (INCLUDING WITHOUT LIMITATION
#NEGLIGENCE), CONTRACT, STRICT LIABILITY, STATUTORY OR OTHERWISE, FOR ANY SPECIAL,
#INCIDENTAL, CONSEQUENTIAL, EXEMPLARY, PUNITIVE OR INDIRECT DAMAGE OF ANY KIND, INCLUDING
#WITHOUT LIMITATION LOSS OF REVENUE, PROFITS, GOODWILL, USE, AND/OR DATA OR THE COST OF
#PROCUREMENT OF SUBSTITUTE GOODS OR SERVICES, EVEN IF APPRISED OF THE POSSIBILITY OF SUCH
#DAMAGES IN ADVANCE.
#--------------------------------------------------#

~VERSION INFORMATION
VERS. 2.0 : CWLS LOG ASCII STANDARD - VERSION 2.0
WRAP.  NO : ONE LINE PER DEPTH STEP
~WELL INFORMATION
#MNEMONIC     .UNIT              VALUE :DESCRIPTION
STRT       .FT                0 :START DEPTH
STOP       .FT                15761 :STOP DEPTH
STEP       .FT                   0.500 :STEP
NULL       .                  -999.250 :NULL
UWI        .              42389302550000 :UNIQUE WELL ID
API        .              42389302550000 :API NUMBER
COMP       .         COASTAL STATES GAS PROD. CO. :COMPANY
WELL       .        CHAPMAN  MCGUIRE & WYNNE  3B :WELL
DATE       .                            :LOG DATE
~CURVE INFORMATION
#MNEMONIC     .UNIT      API CODE :CURVE DESCRIPTION
DEPTH       .FT                      :MEASURED DEPTH
GR.API        UNKNOWN   :GR
DT.US/FT        UNKNOWN   :DT
CAL.INCH        UNKNOWN   :CAL
~A    DEPTH    GR    DT    CAL
# ...
 4731.5     43.609   71.075   14.473
 4732     44.432   70.425   14.5
 4732.5     45.254   70.577   14.521
 4733     44.534   70.729   14.521
 4733.5     43.378   70.669   14.521
 4734     42.222   69.759   14.521
 4734.5     41.066   68.85   14.52
 4735     41.234   68.424   14.52
 4735.5     41.963   68.441   14.52
 4736     42.693   69.237   14.52
 4736.5     41.856   69.761   14.52
 4737     40.429   68.966   14.52
 4737.5     39.003   64.943   14.52
 4738     37.576   62.913   14.52
 4738.5     37.458   62.839   14.52
 4739     37.457   62.78   14.52
 4739.5     37.456   62.747   14.52
 4740     37.454   62.713   14.52
 4740.5     37.488   62.992   14.52
 4741     38.347   64.301   14.52
 4741.5     39.206   65.61   14.52
 4742     40.065   65.888   14.519
 4742.5     40.605   65.255   14.519
 4743     40.204   63.536   14.517
 4743.5     39.804   62.851   14.515
 4744     39.259   64.682   14.513
 4744.5     38.591   65.366   14.511
 4745     37.923   66.389   14.509
 4745.5     38.117   68.689   14.507
 4746     40.507   70.242   14.505
 4746.5     42.897   69.718   14.502
 4747     44.595   69.742   14.5
 4747.5     46.179   69.796   14.498
 4748     47.763   70.805   14.496
 4748.5     47.148   71.692   14.494
 4749     47.09   71.571   14.492
 4749.5     49.409   71.451   14.49
 4750     51.728   70.766   14.488
 4750.5     53.687   69.532   14.486
 4751     54.782   69.447   14.484
 4751.5     55.878   69.362   14.471
 4752     56.908   69.024   14.451
 4752.5     57.8   68.478   14.43
 4753     58.692   68.397   14.409
 4753.5     59.677   68.935   14.388
 4754     61.765   69.406   14.367
 4754.5     63.853   69.877   14.346
 4755     70.933   70.39   14.325
 4755.5     80.689   70.931   14.305
 4756     100.028   71.93   14.284
 4756.5     111.492   73.367   14.263
 4757     115.738   73.474   14.242
 4757.5     108.138   72.575   14.221
 4758     89.32   69.704   14.2
 4758.5     74.755   65.526   14.179
 4759     72.856   65.969   14.159
 4759.5     73.091   66.412   14.138
 4760     75.905   66.019   14.117
 4760.5     78.719   65.859   14.098
 4761     78.23   66.201   14.097
 4761.5     74.364   66.543   14.096
 4762     70.499   66.884   14.095
 4762.5     66.633   67.226   14.094
 4763     64.978   67.698   14.092
 4763.5     63.479   68.156   14.091
 4764     59.986   67.115   14.09
 4764.5     55.855   66.074   14.089
 4765     46.278   65.223   14.088
 4765.5     42.399   64.415   14.087
 4766     42.295   64.005   14.085
 4766.5     42.191   65.277   14.084
 4767     42.233   66.548   14.083
 4767.5     42.862   66.703   14.082
 4768     43.491   66.67   14.081
 4768.5     44.12   66.637   14.089
 4769     44.749   65.994   14.103
 4769.5     44.378   65.112   14.117
 4770     43.341   65.989   14.131
 4770.5     42.464   67.086   14.144
 4771     42.463   68.799   14.158
 4771.5     42.882   70.385   14.172
 4772     44.522   70.253   14.186
 4772.5     46.162   70.121   14.2
 4773     49.232   69.927   14.214
 4773.5     52.599   69.565   14.228
 4774     50.106   69.203   14.235
 4774.5     44.832   67.436   14.23
 4775     39.557   64.846   14.225
 4775.5     34.283   62.256   14.22
 4776     30.806   62.755   14.215
 4776.5     31.876   64.398   14.21
 4777     32.946   68.69   14.206
 4777.5     36.306   71.405   14.201
 4778     41.334   71.425   14.212
 4778.5     46.361   71.445   14.222
 4779     51.389   71.336   14.232
 4779.5     53.904   71   14.242
 4780     55.916   70.664   14.253
 4780.5     58.294   70.328   14.263
 4781     60.847   70.313   14.273
 4781.5     63.4   70.411   14.283
 4782     65.822   70.337   14.292
 4782.5     67.801   70.143   14.298
 4783     69.525   69.949   14.305
 4783.5     70.964   69.754   14.312
 4784     69.833   69.56   14.319
 4784.5     64.932   69.365   14.321
 4785     62.696   69.174   14.317
 4785.5     63.417   68.988   14.314
 4786     64.137   68.803   14.311
 4786.5     64.858   68.618   14.307
 4787     62.767   68.447   14.304
 4787.5     60.551   68.639   14.301
 4788     58.335   68.832   14.297
 4788.5     56.119   69.025   14.294
 4789     54.097   69.171   14.291
 4789.5     55.605   69.3   14.287
 4790     57.112   69.359   14.284
 4790.5     60.403   69.213   14.281
 4791     62.392   68.99   14.277
 4791.5     63.134   68.668   14.274
 4792     63.577   68.346   14.271
 4792.5     61.676   68.049   14.266
 4793     60.387   67.9   14.259
 4793.5     61.46   67.75   14.252
 4794     62.926   68.199   14.245
 4794.5     64.459   68.955   14.239
 4795     72.407   69.717   14.232
 4795.5     81.367   70.48   14.225
 4796     83.948   70.493   14.218
 4796.5     85.096   70.151   14.212
 4797     81.381   69.872   14.205
 4797.5     81.125   70.986   14.198
 4798     82.323   71.263   14.191
 4798.5     79.535   71.199   14.185
 4799     76.747   70.846   14.178
 4799.5     76.56   69.863   14.171
 4800     78.912   72.021   14.164
 4800.5     77.575   76.483   14.184
 4801     68.12   78.152   14.208
 4801.5     54.678   79.143   14.232
 4802     48.93   77.515   14.256
 4802.5     44.632   75.886   14.28
 4803     45.624   74.257   14.277
 4803.5     49.462   72.123   14.266
 4804     53.301   69.852   14.255
 4804.5     57.236   68.537   14.244
 4805     61.678   68.931   14.234
 4805.5     66.006   69.167   14.223
 4806     70.051   68.788   14.212
 4806.5     74.096   68.409   14.201
 4807     76.682   68.897   14.191
 4807.5     78.293   70.647   14.18
 4808     79.903   72.462   14.169
 4808.5     77.91   74.496   14.158
 4809     66.279   74.697   14.148
 4809.5     48.08   69.594   14.137
 4810     40.771   62.948   14.126
 4810.5     34.461   59.854   14.115
 4811     32.684   58.098   14.105
 4811.5     33.818   59.82   14.094
 4812     37.341   63.635   14.083
 4812.5     40.864   67.451   14.076
 4813     44.233   68.972   14.082
 4813.5     44.902   68.625   14.087
 4814     45.57   68.743   14.093
 4814.5     48.374   70.005   14.098
 4815     55.167   70.87   14.104
 4815.5     60.975   71.735   14.109
 4816     63.213   69.954   14.076
 4816.5     65.45   68.102   14.044
 4817     66.073   68.084   14.012
 4817.5     66.264   68.644   13.979
 4818     69.035   69.295   13.947
 4818.5     72.086   69.64   13.915
 4819     72.754   69.559   13.882
 4819.5     71.288   69.479   13.89
 4820     66.669   68.999   13.898
 4820.5     62.222   68.418   13.906
 4821     57.774   67.837   13.914
 4821.5     56.82   67.907   13.921
 4822     58.721   68.141   13.929
 4822.5     60.622   67.706   13.937
 4823     62.069   67.928   13.945
 4823.5     62.513   68.135   13.953
 4824     62.958   68.055   13.961
 4824.5     64.187   67.975   13.968
 4825     65.527   67.895   13.959
 4825.5     66.867   67.843   13.947
 4826     64.991   67.8   13.935
 4826.5     64.508   67.923   13.924
 4827     68.727   68.486   13.912
 4827.5     72.888   69.05   13.901
 4828     76.632   69.613   13.889
 4828.5     80.377   69.62   13.878
 4829     78.373   69.318   13.866
 4829.5     73.974   68.649   13.854
 4830     69.802   67.985   13.85
 4830.5     65.631   68.359   13.862
 4831     61.459   68.725   13.874
 4831.5     59.1   68.626   13.885
 4832     58.543   68.527   13.897
 4832.5     57.986   68.441   13.909
 4833     57.667   68.358   13.921
 4833.5     58.079   68.274   13.933
 4834     58.49   68.205   13.945
 4834.5     58.901   68.312   13.956
 4835     59.792   68.419   13.967
 4835.5     60.863   68.463   13.948
 4836     61.934   68.463   13.928
 4836.5     63.005   68.463   13.909
 4837     64.076   68.405   13.889
 4837.5     65.09   68.279   13.869
 4838     65.981   68.152   13.85
 4838.5     66.872   68.026   13.83
 4839     71.435   67.9   13.811
 4839.5     76.48   67.794   13.791
 4840     81.525   69.016   13.771
 4840.5     107.49   70.238   13.752
 4841     129.423   72.331   13.732
 4841.5     130.76   72.093   13.713
 4842     121.61   71.099   13.693
 4842.5     112.461   70.062   13.673
 4843     102.985   69.165   13.705
 4843.5     92.765   69.303   13.746
