#--------------------------------------------------#
#-------------------ENVERUS, INC.------------------#
#------------------WWW.ENVERUS.COM-----------------#
#------------------COPYRIGHT 2020------------------#
#--------------------------------------------------#
#THIS FILE MAY BE USED ONLY IN ACCORDANCE WITH A CURRENT SUBSCRIPTION AGREEMENT BETWEEN
#THE USER AND ENVERUS, INC. NO PART OF THIS FILE MAY BE REPRODUCED, USED, COPIED,
#MODIFIED, PROPAGATED, OR DISTRIBUTED EXCEPT IN ACCORDANCE WITH THE SUBSCRIPTION
#AGREEMENT. UNAUTHORIZED USE OR DISTRIBUTION OF ALL OR ANY PART OF THIS FILE MAY VIOLATE
#COPYRIGHT, TRADEMARK, AND/OR OTHER LAWS AND IS SUBJECT TO CIVIL AS WELL AS CRIMINAL
#SANCTIONS.
#--------------------------------------------------#
#THIS FILE IS PROVIDED "AS-IS" AND ALL WARRANTIES ARE EXPRESSLY DISCLAIMED, WHETHER
#EXPRESS, ORAL, IMPLIED, STATUTORY OR OTHERWISE, INCLUDING ANY IMPLIED WARRANTY OF FITNESS
#FOR A PARTICULAR PURPOSE, MERCHANTABILITY, TITLE OR NON-INFRINGEMENT, AND ANY WARRANTIES
#ARISING BY VIRTUE OF CUSTOM OF TRADE OR COURSE OF DEALING.  FURTHER, ENVERUS, INC.
#AND ITS LICENSORS DO NOT REPRESENT OR WARRANT THAT THIS FILE WILL MEET USER'S
#REQUIREMENTS OR ARE SUITABLE FOR USER'S NEEDS OR THAT THE DATA OR RESULTS PROVIDED IN
#CONJUNCTION THEREWITH ARE CORRECT, ACCURATE, TIMELY OR RELIABLE. THESE DISCLAIMERS SHALL
#APPLY REGARDLESS OF ANY FAILURE OF ESSENTIAL PURPOSE OF ANY LIMITED REMEDY.  SOME
#JURISDICTIONS DO NOT ALLOW THE EXCLUSION OF CERTAIN WARRANTIES SO SOME OF THE ABOVE
#EXCLUSIONS MAY NOT APPLY. IN NO EVENT SHALL ENVERUS, INC. OR ANY OF ITS AFFILIATES
#BE LIABLE UNDER ANY LEGAL THEORY, WHETHER IN TORT (INCLUDING WITHOUT LIMITATION
#NEGLIGENCE), CONTRACT, STRICT LIABILITY, STATUTORY OR OTHERWISE, FOR ANY SPECIAL,
#INCIDENTAL, CONSEQUENTIAL, EXEMPLARY, PUNITIVE OR INDIRECT DAMAGE OF ANY KIND, INCLUDING
#WITHOUT LIMITATION LOSS OF REVENUE, PROFITS, GOODWILL, USE, AND/OR DATA OR THE COST OF
#PROCUREMENT OF SUBSTITUTE GOODS OR SERVICES, EVEN IF APPRISED OF THE POSSIBILITY OF SUCH
#DAMAGES IN ADVANCE.
#--------------------------------------------------#

~VERSION INFORMATION
VERS. 2.0 : CWLS LOG ASCII STANDARD - VERSION 2.0
WRAP.  NO : ONE LINE PER DEPTH STEP
~WELL INFORMATION
#MNEMONIC     .UNIT              VALUE :DESCRIPTION
STRT       .FT                0 :START DEPTH
STOP       .FT                13134 :STOP DEPTH
STEP       .FT                   0.500 :STEP
NULL       .                  -999.250 :NULL
UWI        .              42389303540000 :UNIQUE WELL ID
API        .              42389303540000 :API NUMBER
COMP       .         SMC OIL & GAS  INC. :COMPANY
WELL       .        TIFFANY STATE  1 :WELL
DATE       .                18-OCT-1995 :LOG DATE
~CURVE INFORMATION
#MNEMONIC     .UNIT      API CODE :CURVE DESCRIPTION
DEPTH       .FT                      :MEASURED DEPTH
DT.US/FT        UNKNOWN   :DT
CAL.INCH        UNKNOWN   :CAL
GR.API        UNKNOWN   :GR
~A    DEPTH    DT    CAL    GR
# ...
 9308.5     83.297   6.636   87.495
 9309     77.198   6.639   85.916
 9309.5     72.619   6.642   84.338
 9310     71.741   6.645   82.76
 9310.5     70.843   6.648   81.182
 9311     68.367   6.651   79.604
 9311.5     67.421   6.654   78.025
 9312     68.1   6.656   76.447
 9312.5     72.415   6.659   74.869
 9313     76.73   6.662   73.291
 9313.5     77.997   6.665   71.713
 9314     78.04   6.668   70.134
 9314.5     77.218   6.671   68.556
 9315     76.143   6.674   66.978
 9315.5     70.311   6.676   65.4
 9316     68.451   6.679   63.822
 9316.5     66.592   6.682   62.243
 9317     66.355   6.685   60.665
 9317.5     67.125   6.688   59.087
 9318     67.895   6.693   58.135
 9318.5     73.809   6.697   60.398
 9319     79.053   6.702   62.661
 9319.5     78.92   6.707   64.924
 9320     78.405   6.712   67.188
 9320.5     77.89   6.717   69.451
 9321     77.375   6.722   71.714
 9321.5     77.927   6.727   73.977
 9322     78.855   6.732   76.24
 9322.5     78.619   6.736   76.393
 9323     76.456   6.741   75.098
 9323.5     74.182   6.746   73.803
 9324     71.363   6.751   72.508
 9324.5     68.544   6.756   71.213
 9325     70.659   6.761   69.918
 9325.5     73.979   6.766   68.623
 9326     77.299   6.77   67.328
 9326.5     76.54   6.775   66.033
 9327     75.568   6.78   67.362
 9327.5     74.596   6.785   71.284
 9328     72.732   6.79   75.207
 9328.5     75.603   6.795   79.129
 9329     78.691   6.8   83.052
 9329.5     79.494   6.804   86.974
 9330     76.85   6.809   90.897
 9330.5     73.94   6.806   94.819
 9331     70.666   6.8   98.742
 9331.5     67.391   6.795   101.786
 9332     65.241   6.789   101.724
 9332.5     66.821   6.784   101.661
 9333     70.692   6.778   101.598
 9333.5     74.563   6.773   101.536
 9334     77.276   6.767   101.473
 9334.5     79.18   6.762   101.411
 9335     80.995   6.756   101.348
 9335.5     81.648   6.751   101.285
 9336     80.243   6.745   101.223
 9336.5     78.838   6.74   101.16
 9337     75.499   6.734   101.098
 9337.5     71.678   6.729   101.035
 9338     69.147   6.723   100.972
 9338.5     66.617   6.718   100.91
 9339     65.501   6.712   100.847
 9339.5     70.911   6.707   97.506
 9340     76.321   6.701   93.604
 9340.5     80.124   6.696   89.703
 9341     81.789   6.69   85.802
 9341.5     81.983   6.685   81.9
 9342     80.632   6.679   81.184
 9342.5     79.262   6.674   81.72
 9343     77.592   6.669   82.256
 9343.5     75.922   6.673   82.792
 9344     74.252   6.677   83.328
 9344.5     72.582   6.682   83.865
 9345     70.911   6.686   84.401
 9345.5     70.688   6.691   87.089
 9346     70.475   6.695   94.596
 9346.5     70.262   6.7   102.104
 9347     69.482   6.704   109.611
 9347.5     67.337   6.709   117.118
 9348     65.191   6.713   119.187
 9348.5     66.186   6.718   117.404
 9349     68.972   6.722   115.621
 9349.5     68.918   6.727   113.837
 9350     66.76   6.731   112.054
 9350.5     64.602   6.736   110.271
 9351     64.647   6.74   108.488
 9351.5     64.902   6.745   106.704
 9352     65.157   6.749   104.921
 9352.5     65.412   6.754   103.138
 9353     65.667   6.751   101.354
 9353.5     66.728   6.745   100.218
 9354     68.378   6.739   102.283
 9354.5     74.007   6.732   104.347
 9355     77.256   6.726   106.412
 9355.5     76.681   6.719   108.477
 9356     73.877   6.713   110.541
 9356.5     71.073   6.706   112.606
 9357     68.557   6.7   114.671
 9357.5     67.148   6.694   116.735
 9358     67.963   6.687   118.8
 9358.5     70.543   6.681   118.303
 9359     73.123   6.674   117.606
 9359.5     78.356   6.668   116.908
 9360     79.912   6.669   116.211
 9360.5     77.734   6.672   115.514
 9361     75.556   6.675   114.816
 9361.5     73.896   6.677   114.119
 9362     74.654   6.68   113.422
 9362.5     75.411   6.683   112.725
 9363     76.395   6.685   112.027
 9363.5     78.324   6.688   104.207
 9364     76.986   6.691   95.467
 9364.5     76.817   6.693   86.726
 9365     76.861   6.696   77.986
 9365.5     74.727   6.699   69.246
 9366     72.594   6.701   72.427
 9366.5     70.46   6.704   76.176
 9367     68.326   6.707   79.926
 9367.5     65.627   6.709   83.675
 9368     63.576   6.712   87.424
 9368.5     63.131   6.715   91.174
 9369     63.066   6.718   94.923
 9369.5     67.964   6.72   98.673
 9370     68.502   6.723   100.109
 9370.5     65.191   6.726   99.709
 9371     61.879   6.728   99.309
 9371.5     59.467   6.731   98.909
 9372     58.612   6.734   98.509
 9372.5     59.716   6.736   98.11
 9373     60.821   6.739   97.71
 9373.5     62.459   6.742   97.31
 9374     64.466   6.744   96.91
 9374.5     66.473   6.747   96.51
 9375     69.807   6.75   96.11
 9375.5     74.536   6.752   95.71
 9376     78.731   6.755   97.732
 9376.5     80.116   6.758   100.03
 9377     78.912   6.76   98.938
 9377.5     77.29   6.763   97.846
 9378     76.198   6.766   96.753
 9378.5     75.281   6.769   95.661
 9379     74.364   6.771   94.569
 9379.5     73.447   6.774   93.477
 9380     75.391   6.777   92.384
 9380.5     74.448   6.779   91.292
 9381     73.506   6.782   90.2
 9381.5     72.563   6.785   89.775
 9382     71.621   6.787   90.51
 9382.5     70.039   6.79   91.244
 9383     67.922   6.793   91.978
 9383.5     65.806   6.795   92.712
 9384     65.331   6.798   93.447
 9384.5     66.967   6.801   94.181
 9385     68.604   6.803   94.915
 9385.5     68.595   6.805   95.649
 9386     67.343   6.806   94.444
 9386.5     66.091   6.806   92.435
 9387     66.22   6.807   90.426
 9387.5     69.376   6.807   88.417
 9388     72.531   6.808   86.408
 9388.5     73.703   6.808   84.399
 9389     74.185   6.809   82.39
 9389.5     73.069   6.809   80.381
 9390     71.094   6.81   78.372
 9390.5     64.039   6.81   76.363
 9391     68.025   6.811   74.354
 9391.5     72.01   6.811   72.697
 9392     75.996   6.811   75.922
 9392.5     79.982   6.812   79.148
 9393     78.73   6.812   82.373
 9393.5     76.922   6.813   85.598
 9394     75.114   6.813   88.823
 9394.5     73.875   6.814   92.048
 9395     73.301   6.814   95.273
 9395.5     75.755   6.815   98.498
 9396     75.218   6.815   98.609
 9396.5     73.617   6.816   98.097
 9397     72.016   6.816   97.585
 9397.5     70.414   6.817   97.073
 9398     68.662   6.817   96.561
 9398.5     66.778   6.818   96.049
 9399     64.893   6.818   95.537
 9399.5     67.593   6.818   95.026
 9400     70.648   6.819   94.514
 9400.5     80.273   6.819   94.002
 9401     78.26   6.82   94.375
 9401.5     76.248   6.82   97.262
 9402     74.235   6.821   100.149
 9402.5     72.223   6.821   103.036
 9403     70.061   6.822   102.368
 9403.5     67.746   6.822   101.535
 9404     65.431   6.823   100.702
 9404.5     62.566   6.823   99.869
 9405     63.717   6.824   99.036
 9405.5     66.018   6.824   98.203
 9406     68.32   6.824   97.37
 9406.5     70.849   6.825   96.537
 9407     73.452   6.825   96.215
 9407.5     76.055   6.826   96.804
 9408     78.658   6.826   97.394
 9408.5     80.567   6.827   97.983
 9409     81.108   6.827   98.572
 9409.5     79.968   6.828   99.161
 9410     82.005   6.828   99.75
 9410.5     83.315   6.829   100.34
 9411     82.146   6.829   100.929
 9411.5     80.977   6.83   101.518
 9412     79.808   6.83   102.107
 9412.5     74.817   6.83   102.696
 9413     69.583   6.831   102.962
 9413.5     66.879   6.831   102.892
 9414     64.174   6.832   102.823
 9414.5     69.355   6.832   102.753
 9415     73.237   6.833   102.684
 9415.5     76.32   6.833   100.57
 9416     78.37   6.834   98.163
 9416.5     77.975   6.834   95.757
 9417     77.294   6.835   93.35
 9417.5     76.425   6.835   90.943
 9418     75.55   6.836   88.536
 9418.5     74.469   6.836   86.129
 9419     72.62   6.837   86.436
 9419.5     70.771   6.837   88.078
 9420     69.647   6.837   89.719
 9420.5     71.923   6.839   91.36
 9421     74.295   6.842   93.001
 9421.5     76.964   6.844   94.643
 9422     75.718   6.846   96.284
 9422.5     74.471   6.848   97.925
