###############################################
##         ENVERUS                           ##
##         ESS - Open Hole                   ##
##         PERMIAN / DELAWARE                ##
##         Nov 04 2023  V4.0                 ##
##         42-389-32398-00-00                ##
###############################################
## Copyright 2017-2023  ENVERUS.  All Rights Reserved. 
## Confidential - Property of ENVERUS, use governed by terms and 
## conditions found within the existing Information Services Subscription Agreement 
## (as may be amended, the “ISSA”) between Customer and ENVERUS. 
## 
~VERSION INFORMATION
# MNEM.UNIT                               DATA : DESCRIPTION OF MNEMONIC
#-----.-----     ----------------------------- : -----------------------------
VERS.                                     2.00 : CWLS LOG ASCII STANDARD - VERSION 2.00
WRAP.                                       NO : MULTIPLE LINES PER DEPTH STEP
VEND.                                  ENVERUS : VENDOR
TYPE.                          ESS - OPEN HOLE : ENVERUS ESSENTIAL CURVES – ACCESSIBLE THROUGH ENVERUS PRISM(TM)
DOC.                                  31812117 : ENVERUS HEADER RAW DOCUMENT ID
#___________________________________________________________________________________________________ 
~WELL INFORMATION 
# uAwnbjLw6pKN5CeTb7gwROLhNOHLu74gercCwdGpUdKCBCGOTLsJuzWIBCYkU6KzQxtC+uHRBloynRtd0Ulspg== 
# MNEM.UNIT                                              DATA : DESCRIPTION OF MNEMONIC 
#-----.-----                    ----------------------------- : ----------------------------- 
CNTY.                                                  REEVES : COUNTY 
STATE.                                                  TEXAS : STATE 
CNTRY.                                                    USA : COUNTRY 
API.                                             42-389-32398 : API (10 Digit) 
API_14.                                    42-389-32398-00-00 : API (14 Digits) 
API_14_std.                                 42-389-32398-0000 : API (14 Digits Standard) 
UWI.                                           42389323980000 : UNIQUE WELL ID 
WELL.                                    BLOCK 58 STATE 32  1 : WELL NAME
STRT.FT                                                8311.0 : START DEPTH
STOP.FT                                               12834.0 : STOP DEPTH
STEP.FT                                                   0.5 : STEP BETWEEN DEPTHS
NULL.                                                 -999.25 : NULL VALUE
COMP.                                       SHELL WESTERN E&P : COMPANY 
DATE.                                             08-FEB-2006 : LOG DATE
#___________________________________________________________________________________________________ 
~CURVE INFORMATION 
# MNEM.UNIT           : CURVE DESCRIPTION 
#-----.-----          : ----------------------------- 
 DEPT.FT               : MEASURED DEPTH 
 CALI__B.IN            : CALIPER (CAL - CAL) 
 GR__B.API             : GAMMA RAY (GR) 
 DT__B.US/FT           : SONIC DELTA TRANSIT TIME (DT) 
 RESS__B.OHMM          : SHALLOW INDUCTION RESISTIVITY (ILS - ILS) 
 RESD__B.OHMM          : DEEP INDUCTION RESISTIVITY (ILD - ILD) 
 #___________________________________________________________________________________________________ 
~A         DEPT        CALI__B          GR__B          DT__B        RESS__B        RESD__B
# ...
        12227.0          8.295        173.306         84.189         32.008         36.520
        12227.5          8.295        166.021         84.259         29.842         34.085
        12228.0          8.295        157.415         84.648         27.930         31.649
        12228.5          8.295        151.576         85.345         26.867         29.214
        12229.0          8.295        150.799         86.764         25.805         26.779
        12229.5          8.295        154.561         88.100         24.845         25.514
        12230.0          8.295        158.322         88.143         24.142         25.462
        12230.5          8.295        159.786         88.253         24.031         25.409
        12231.0          8.295        161.182         88.691         24.263         25.357
        12231.5          8.295        161.304         88.568         24.671         25.304
        12232.0          8.295        161.087         88.435         23.947         25.252
        12232.5          8.294        160.871         88.753         22.804         23.466
        12233.0          8.293        161.710         89.573         22.929         23.850
        12233.5          8.293        165.299         89.866         24.007         24.979
        12234.0          8.292        168.474         89.354         24.308         25.455
        12234.5          8.292        167.171         87.984         23.248         24.810
        12235.0          8.291        165.869         86.538         22.719         24.166
        12235.5          8.290        165.540         85.270         22.312         23.521
        12236.0          8.290        165.540         84.423         21.906         22.877
        12236.5          8.289        162.121         83.777         21.953         22.786
        12237.0          8.288        158.349         83.687         22.308         22.733
        12237.5          8.288        156.539         84.124         21.993         22.569
        12238.0          8.287        157.485         84.866         20.892         22.238
        12238.5          8.287        158.431         85.584         20.570         21.907
        12239.0          8.286        156.635         86.299         20.703         21.577
        12239.5          8.285        153.838         86.317         20.944         21.595
        12240.0          8.285        163.188         85.822         22.929         24.932
        12240.5          8.284        176.898         85.284         25.364         28.099
        12241.0          8.283        180.497         84.745         25.406         28.631
        12241.5          8.283        173.789         84.206         23.484         28.840
        12242.0          8.282        167.082         83.740         23.890         27.350
        12242.5          8.282        160.374         83.585         23.679         25.860
        12243.0          8.281        156.174         83.857         22.916         24.370
        12243.5          8.280        156.246         84.481         21.469         22.880
        12244.0          8.280        156.319         85.322         20.121         21.390
        12244.5          8.279        156.391         86.105         19.424         20.107
        12245.0          8.278        153.692         86.767         18.482         18.967
        12245.5          8.278        150.521         86.789         17.281         18.285
        12246.0          8.277        155.264         86.443         17.839         19.575
        12246.5          8.277        163.513         85.940         19.822         20.750
        12247.0          8.277        170.494         85.389         20.641         21.312
        12247.5          8.277        169.601         84.838         20.913         21.404
        12248.0          8.277        168.707         84.700         20.343         20.734
        12248.5          8.277        171.300         84.849         19.298         20.065
        12249.0          8.277        182.082         85.217         20.253         20.830
        12249.5          8.277        192.863         85.053         22.020         23.213
        12250.0          8.277        203.645         84.504         23.919         25.595
        12250.5          8.277        209.259         84.201         25.153         27.978
        12251.0          8.278        210.318         84.005         25.689         30.360
        12251.5          8.278        211.377         83.615         26.664         32.733
        12252.0          8.276        210.938         82.931         27.777         34.143
        12252.5          8.274        203.476         82.248         28.890         35.552
        12253.0          8.271        196.014         81.414         30.003         36.961
        12253.5          8.269        188.552         80.205         31.116         38.370
        12254.0          8.266        181.091         78.608         32.229         40.899
        12254.5          8.264        173.629         76.812         35.317         48.224
        12255.0          8.262        155.271         75.016         38.707         55.549
        12255.5          8.259        143.604         74.358         42.097         62.874
        12256.0          8.260        136.839         74.492         45.487         65.892
        12256.5          8.261        131.266         75.511         48.257         66.365
        12257.0          8.263        133.040         77.099         47.421         58.749
        12257.5          8.264        134.814         78.608         40.053         50.977
        12258.0          8.265        136.587         80.117         34.450         43.205
        12258.5          8.266        138.856         81.627         32.573         37.447
        12259.0          8.267        142.424         83.073         30.697         35.975
        12259.5          8.269        145.993         84.464         28.380         32.806
        12260.0          8.270        149.909         85.854         26.053         27.302
        12260.5          8.271        158.184         86.425         22.421         24.173
        12261.0          8.272        163.618         86.224         21.034         22.299
        12261.5          8.273        166.633         85.629         19.472         20.425
        12262.0          8.274        161.682         84.846         17.206         18.655
        12262.5          8.276        155.391         84.064         15.768         16.886
        12263.0          8.277        149.100         84.043         14.456         15.117
        12263.5          8.278        146.227         84.178         13.144         13.348
        12264.0          8.279        148.796         84.237         12.691         13.801
        12264.5          8.280        155.809         84.182         14.379         15.891
        12265.0          8.282        164.685         83.883         17.324         17.688
        12265.5          8.283        173.561         83.560         18.037         19.069
        12266.0          8.284        182.437         83.845         18.751         20.451
        12266.5          8.285        190.942         83.991         20.002         21.833
        12267.0          8.286        196.124         83.755         21.192         23.215
        12267.5          8.288        198.706         83.382         21.719         23.476
        12268.0          8.289        192.130         82.522         21.612         23.705
        12268.5          8.290        175.582         81.562         20.670         23.934
        12269.0          8.291        159.145         80.813         19.173         21.055
        12269.5          8.292        146.931         80.358         18.022         18.051
        12270.0          8.294        142.813         79.980         17.920         18.104
        12270.5          8.295        139.645         79.284         18.149         18.147
