###############################################
##         ENVERUS                           ##
##         ESS - Open Hole                   ##
##         PERMIAN / DELAWARE                ##
##         Nov 04 2023  V4.0                 ##
##         42-389-32730-00-00                ##
###############################################
## Copyright 2017-2023  ENVERUS.  All Rights Reserved. 
## Confidential - Property of ENVERUS, use governed by terms and 
## conditions found within the existing Information Services Subscription Agreement 
## (as may be amended, the “ISSA”) between Customer and ENVERUS. 
## 
~VERSION INFORMATION
# MNEM.UNIT                               DATA : DESCRIPTION OF MNEMONIC
#-----.-----     ----------------------------- : -----------------------------
VERS.                                     2.00 : CWLS LOG ASCII STANDARD - VERSION 2.00
WRAP.                                       NO : MULTIPLE LINES PER DEPTH STEP
VEND.                                  ENVERUS : VENDOR
TYPE.                          ESS - OPEN HOLE : ENVERUS ESSENTIAL CURVES – ACCESSIBLE THROUGH ENVERUS PRISM(TM)
DOC.                                  19552736 : ENVERUS HEADER RAW DOCUMENT ID
#___________________________________________________________________________________________________ 
~WELL INFORMATION 
# Emv0q1Fc4UOVqi1FEPTQ50pHgS2U6oO6A9wxQf5ozJtTAVTQXtUhuyCOytio7eHVwvke0CQF/LYkoyLsbhUTsQ== 
# MNEM.UNIT                                              DATA : DESCRIPTION OF MNEMONIC 
#-----.-----                    ----------------------------- : ----------------------------- 
CNTY.                                                  REEVES : COUNTY 
STATE.                                                  TEXAS : STATE 
CNTRY.                                                    USA : COUNTRY 
API.                                             42-389-32730 : API (10 Digit) 
API_14.                                    42-389-32730-00-00 : API (14 Digits) 
API_14_std.                                 42-389-32730-0000 : API (14 Digits Standard) 
UWI.                                           42389327300000 : UNIQUE WELL ID 
WELL.                                  BIG SKY 55 - 16 NO. 1H : WELL NAME
STRT.FT                                                3850.0 : START DEPTH
STOP.FT                                               12070.5 : STOP DEPTH
STEP.FT                                                   0.5 : STEP BETWEEN DEPTHS
NULL.                                                 -999.25 : NULL VALUE
COMP.                                      CIMAREX ENERGY CO. : COMPANY 
FLD.                                                  WILDCAT : FIELD 
SRVC.                                             HALLIBURTON : SERVICE COMPANY 
DATE.                                              03/23/2011 : DATE 
TVD.                                                       NO : TVD FLAG 
WSTA.                                                     LOC : WELL STATUS
#___________________________________________________________________________________________________ 
~PARAMETER INFORMATION 
# MNEM.UNIT                                              DATA : DESCRIPTION OF MNEMONIC 
#-----.-----                    ----------------------------- : ----------------------------- 
RUN.                                                      ONE : RUN NUMBER 
PDAT.                                                      GL : PERMANENT DATUM 
EPD.FT                                              2996.0000 : ELEVATION OF PERM. DATUM 
LMF.                                            KELLY BUSHING : LOG MEASURED FROM 
EKB.FT                                              3021.0000 : ELEVATION OF KELLY BUSHING 
DF.FT                                               3020.0000 : ELEVATION OF DERRICK FLOOR 
GL.FT                                               2996.0000 : ELEVATION OF GROUND LEVEL 
TD.FT                                              12100.0000 : TOTAL DEPTH 
CSGD.FT                                                  3861 : CASING BOTTOM (DRILLER) 1 
CSGL.FT                                                  3855 : CASING BOTTOM (LOGGER) 1 
MUD.                                                    BRINE : DRILLING FLUID TYPE 
MUDV.CP                                               36.0000 : DRILLING FLUID VISCOSITY 
MUDD.LB/USG                                           10.1000 : DRILLING FLUID DENSITY 
PH.                                                   10.0000 : DRILLING FLUID PH 
MUDS.                                                FLOWLINE : MUD SAMPLE SOURCE 
RM.OHMM                                                0.0600 : RESISTIVITY OF MUD SAMPLE 
RMT.DEGF                                              75.0000 : MUD SAMPLE TEMPERATURE 
RMF.OHMM                                               0.0400 : MUD FILTRATE RESISTIVITY 
RMFT.DEGF                                             75.0000 : MUD FILTRATE SAMPLE TEMPERATURE 
RMC.OHMM                                               0.0600 : MUD CAKE RESISTIVITY 
RMCT.DEGF                                             75.0000 : MUD CAKE SAMPLE TEMPERATURE 
RMB.OHMM                                               0.0240 : MUD RESISTIVITY AT BHT 
TMAX.DEGF                                            200.0000 : BOTTOM HOLE TEMPERATURE
#___________________________________________________________________________________________________ 
~CURVE INFORMATION 
# MNEM.UNIT           : CURVE DESCRIPTION 
#-----.-----          : ----------------------------- 
 DEPT.FT               : MEASURED DEPTH 
 GR.API                : GAMMA RAY (GAMMA RAY) 
 DT.US/FT              : SONIC DELTA TRANSIT TIME (DELTA T) 
 RESD_LL.OHMM          : DEEP LATEROLOG (LLD - DEEP LATEROLOG) 
 DPHI.V/V              : DENSITY POROSITY (DENSITY POROSITY) 
 NPHI.V/V              : NEUTRON POROSITY (NEUTRON POROSITY) 
 #___________________________________________________________________________________________________ 
~A         DEPT             GR             DT        RESD_LL           DPHI           NPHI
# ...
         9262.0         46.710         71.144        11.6830        0.09600        0.10600
         9262.5         52.545         72.315        10.3510        0.08900        0.12300
         9263.0         52.570         72.407         9.7420        0.08200        0.13800
         9263.5         49.907         72.150         9.3840        0.07700        0.13500
         9264.0         46.970         71.867        10.2250        0.08000        0.13100
         9264.5         44.325         71.563        11.5280        0.08400        0.12600
         9265.0         44.134         70.602        13.0720        0.08400        0.13100
         9265.5         43.743         69.519        14.3240        0.08000        0.12300
         9266.0         38.484         68.370        15.7610        0.07700        0.11000
         9266.5         32.819         67.231        17.3500        0.07600        0.09700
         9267.0         28.581         66.754        19.0980        0.07500        0.09200
         9267.5         31.047         66.754        21.0230        0.07400        0.08800
         9268.0         37.437         68.782        23.1420        0.07500        0.09100
         9268.5         46.050         73.545        24.0540        0.07800        0.11300
         9269.0         54.654         75.834        22.4870        0.08200        0.13500
         9269.5         61.080         77.285        21.0160        0.08600        0.15400
         9270.0         64.146         77.774        19.6410        0.08800        0.16300
         9270.5         63.204         77.387        17.9130        0.08700        0.16400
         9271.0         61.505         75.885        19.2900        0.08400        0.15900
         9271.5         59.912         74.202        21.7770        0.08900        0.15400
         9272.0         53.322         72.235        24.5630        0.09000        0.15000
         9272.5         46.017         70.114        27.6960        0.07400        0.13100
         9273.0         38.618         67.993        31.7270        0.04800        0.12400
         9273.5         34.753         66.032        27.7280        0.02800        0.12300
         9274.0         30.588         65.431        23.7440        0.02200        0.11500
         9274.5         31.413         66.744        20.3390        0.06200        0.10900
         9275.0         32.611         67.730        18.8480        0.08900        0.10700
         9275.5         32.638         67.869        18.1150        0.10700        0.10400
         9276.0         34.836         67.878        17.9030        0.10400        0.10100
         9276.5         38.551         69.353        17.5410        0.09400        0.09700
         9277.0         46.670         72.078        16.4590        0.08800        0.09900
         9277.5         52.889         72.784        15.4440        0.08200        0.12900
         9278.0         47.232         71.331        14.4920        0.07600        0.13400
         9278.5         39.320         69.196        13.5580        0.07000        0.13600
         9279.0         31.281         67.577        12.6640        0.06400        0.12100
         9279.5         26.797         67.839        11.8240        0.06800        0.10400
         9280.0         24.717         69.335        11.0410        0.08500        0.10200
         9280.5         27.517         70.742        10.2370        0.10900        0.10300
         9281.0         33.246         71.441         9.8380        0.11400        0.10400
         9281.5         38.516         71.582         9.6360        0.10500        0.11100
         9282.0         43.787         71.722         8.8710        0.08600        0.11900
         9282.5         49.135         71.735         7.8300        0.07700        0.12600
         9283.0         50.614         71.569         6.9120        0.08100        0.13300
         9283.5         46.606         71.325         6.1380        0.09500        0.13300
         9284.0         43.855         70.842         5.9150        0.10900        0.13400
         9284.5         41.083         69.089         6.2520        0.10900        0.11700
         9285.0         38.151         65.277        10.0310        0.07300        0.10400
         9285.5         34.948         62.633        12.6080        0.03100        0.10400
         9286.0         31.756         61.801        10.6100        0.01500        0.09900
         9286.5         28.511         62.731         8.7020        0.03200        0.09400
         9287.0         27.562         64.246         7.1330        0.05800        0.10200
         9287.5         28.420         65.752         6.8780        0.06600        0.10900
         9288.0         33.498         67.368         6.7630        0.06900        0.11600
         9288.5         39.411         69.580         6.4890        0.07500        0.11700
         9289.0         42.749         71.694         6.1620        0.09100        0.11900
         9289.5         41.549         72.562         5.8510        0.10800        0.12000
         9290.0         40.003         73.460         5.5350        0.12500        0.12200
         9290.5         38.793         74.352         5.1110        0.14800        0.12300
         9291.0         39.719         74.930         5.0070        0.14700        0.12500
         9291.5         40.626         74.930         5.0070        0.14600        0.12800
         9292.0         41.519         74.930         5.2400        0.14800        0.13500
         9292.5         43.820         74.282         5.8900        0.14800        0.14100
         9293.0         47.446         73.074         7.8420        0.12900        0.13900
         9293.5         50.968         71.506        10.4410        0.09800        0.11400
         9294.0         51.272         69.937        12.6080        0.05900        0.12800
         9294.5         43.399         68.369        11.3060        0.04600        0.14100
         9295.0         33.807         67.386         9.4490        0.05600        0.12700
         9295.5         29.956         67.361         7.8980        0.07700        0.11200
         9296.0         29.371         69.076         7.2830        0.09800        0.10800
         9296.5         29.828         70.768         6.8530        0.11700        0.10300
         9297.0         32.116         72.452         6.4480        0.13100        0.10400
         9297.5         34.158         73.560         6.0680        0.14200        0.11400
         9298.0         34.371         73.985         5.7100        0.14200        0.11700
         9298.5         34.718         74.170         5.5470        0.14000        0.11300
         9299.0         35.826         74.088         5.4740        0.14200        0.11900
         9299.5         36.886         74.007         5.3940        0.14400        0.11800
         9300.0         36.901         73.925         5.4150        0.13600        0.11600
         9300.5         36.868         73.843         5.4390        0.12900        0.11700
         9301.0         38.464         73.762         5.4630        0.12700        0.11800
         9301.5         40.676         73.680         5.4870        0.12500        0.11800
         9302.0         42.868         73.559         5.8830        0.12600        0.11600
         9302.5         44.529         73.107         6.4770        0.12400        0.11500
         9303.0         44.742         72.168         7.1310        0.12500        0.11800
         9303.5         45.042         70.762         7.8500        0.12400        0.11500
         9304.0         47.522         69.823         8.6420        0.12200        0.11100
         9304.5         50.369         69.158         9.2120        0.11900        0.10500
         9305.0         50.480         69.351         8.3940        0.11700        0.10100
         9305.5         47.937         69.663         7.6010        0.11200        0.10500
