###############################################
##         ENVERUS                           ##
##         ESS - Open Hole                   ##
##         PERMIAN / DELAWARE                ##
##         Nov 04 2023  V4.0                 ##
##         42-389-30283-00-00                ##
###############################################
## Copyright 2017-2023  ENVERUS.  All Rights Reserved. 
## Confidential - Property of ENVERUS, use governed by terms and 
## conditions found within the existing Information Services Subscription Agreement 
## (as may be amended, the “ISSA”) between Customer and ENVERUS. 
## 
~VERSION INFORMATION
# MNEM.UNIT                               DATA : DESCRIPTION OF MNEMONIC
#-----.-----     ----------------------------- : -----------------------------
VERS.                                     2.00 : CWLS LOG ASCII STANDARD - VERSION 2.00
WRAP.                                       NO : MULTIPLE LINES PER DEPTH STEP
VEND.                                  ENVERUS : VENDOR
TYPE.                          ESS - OPEN HOLE : ENVERUS ESSENTIAL CURVES – ACCESSIBLE THROUGH ENVERUS PRISM(TM)
DOC.                                  32052778 : ENVERUS HEADER RAW DOCUMENT ID
#___________________________________________________________________________________________________ 
~WELL INFORMATION 
# CKTmoz7OsKELnwE/IP0i4B9qEmEewtam1JWnvb6ghWZsYWfxLv+2EOc67unJ6Yof0W+RqImtxqI23GomxkzDLA== 
# MNEM.UNIT                                              DATA : DESCRIPTION OF MNEMONIC 
#-----.-----                    ----------------------------- : ----------------------------- 
CNTY.                                                  REEVES : COUNTY 
STATE.                                                  TEXAS : STATE 
CNTRY.                                                    USA : COUNTRY 
API.                                             42-389-30283 : API (10 Digit) 
API_14.                                    42-389-30283-00-00 : API (14 Digits) 
API_14_std.                                 42-389-30283-0000 : API (14 Digits Standard) 
UWI.                                           42389302830000 : UNIQUE WELL ID 
WELL.                       RANDOLPH  A. T.  ET AL-STATE  1 L : WELL NAME
STRT.FT                                                 155.0 : START DEPTH
STOP.FT                                               15740.0 : STOP DEPTH
STEP.FT                                                   0.5 : STEP BETWEEN DEPTHS
NULL.                                                 -999.25 : NULL VALUE
COMP.                                     RIO PETROLEUM  INC. : COMPANY
#___________________________________________________________________________________________________ 
~CURVE INFORMATION 
# MNEM.UNIT           : CURVE DESCRIPTION 
#-----.-----          : ----------------------------- 
 DEPT.FT               : MEASURED DEPTH 
 CALI__A.IN            : CALIPER (CAL - CAL) 
 GR__A.API             : GAMMA RAY (GR) 
 SP__A.MV              : SPONTANEOUS POTENTIAL (SP) 
 DT__A.US/FT           : SONIC DELTA TRANSIT TIME (DT) 
 RESD__A.OHMM          : DEEP INDUCTION RESISTIVITY (ILD - ILD) 
 NPHI__A.V/V           : NEUTRON POROSITY (NPH - NPH) 
 #___________________________________________________________________________________________________ 
~A         DEPT        CALI__A          GR__A          SP__A          DT__A        RESD__A        NPHI__A
# ...
         5361.0         13.792         37.994       -999.250         66.684       -999.250     -999.25000
         5361.5         13.783         40.242       -999.250         68.540       -999.250     -999.25000
         5362.0         13.785         42.489       -999.250         69.744       -999.250     -999.25000
         5362.5         13.805         43.934       -999.250         70.775       -999.250     -999.25000
         5363.0         13.825         40.939       -999.250         71.721       -999.250     -999.25000
         5363.5         13.846         37.962       -999.250         72.600       -999.250     -999.25000
         5364.0         13.866         37.032       -999.250         73.480       -999.250     -999.25000
         5364.5         13.887         38.382       -999.250         74.612       -999.250     -999.25000
         5365.0         13.907         39.031       -999.250         76.138       -999.250     -999.25000
         5365.5         13.927         38.193       -999.250         77.664       -999.250     -999.25000
         5366.0         13.948         38.083       -999.250         78.626       -999.250     -999.25000
         5366.5         13.968         40.932       -999.250         77.100       -999.250     -999.25000
         5367.0         13.989         43.711       -999.250         75.574       -999.250     -999.25000
         5367.5         14.009         45.014       -999.250         75.155       -999.250     -999.25000
         5368.0         14.029         45.025       -999.250         76.213       -999.250     -999.25000
         5368.5         14.050         43.801       -999.250         77.270       -999.250     -999.25000
         5369.0         14.070         42.239       -999.250         77.866       -999.250     -999.25000
         5369.5         14.090         41.224       -999.250         78.400       -999.250     -999.25000
         5370.0         14.078         40.493       -999.250         78.934       -999.250     -999.25000
         5370.5         14.048         40.854       -999.250         79.468       -999.250     -999.25000
         5371.0         14.019         41.310       -999.250         79.019       -999.250     -999.25000
         5371.5         13.989         41.766       -999.250         77.381       -999.250     -999.25000
         5372.0         13.959         43.111       -999.250         74.963       -999.250     -999.25000
         5372.5         13.930         45.510       -999.250         72.545       -999.250     -999.25000
         5373.0         13.900         47.909       -999.250         69.641       -999.250     -999.25000
         5373.5         13.870         50.315       -999.250         66.281       -999.250     -999.25000
         5374.0         13.840         53.352       -999.250         66.154       -999.250     -999.25000
         5374.5         13.811         53.824       -999.250         67.228       -999.250     -999.25000
         5375.0         13.781         51.530       -999.250         67.891       -999.250     -999.25000
         5375.5         13.751         49.235       -999.250         68.142       -999.250     -999.25000
         5376.0         13.721         46.941       -999.250         67.121       -999.250     -999.25000
         5376.5         13.692         45.535       -999.250         65.999       -999.250     -999.25000
         5377.0         13.669         44.354       -999.250         64.932       -999.250     -999.25000
         5377.5         13.676         43.173       -999.250         64.163       -999.250     -999.25000
         5378.0         13.683         41.946       -999.250         63.393       -999.250     -999.25000
         5378.5         13.690         40.406       -999.250         64.014       -999.250     -999.25000
         5379.0         13.697         38.866       -999.250         65.288       -999.250     -999.25000
         5379.5         13.704         39.900       -999.250         66.562       -999.250     -999.25000
         5380.0         13.711         41.562       -999.250         67.836       -999.250     -999.25000
         5380.5         13.718         42.474       -999.250         68.335       -999.250     -999.25000
         5381.0         13.724         41.722       -999.250         68.140       -999.250     -999.25000
         5381.5         13.731         40.971       -999.250         67.946       -999.250     -999.25000
         5382.0         13.738         41.722       -999.250         68.746       -999.250     -999.25000
         5382.5         13.745         43.441       -999.250         71.029       -999.250     -999.25000
         5383.0         13.752         44.239       -999.250         73.050       -999.250     -999.25000
         5383.5         13.759         44.117       -999.250         73.239       -999.250     -999.25000
         5384.0         13.766         43.994       -999.250         72.049       -999.250     -999.25000
         5384.5         13.773         43.872       -999.250         69.849       -999.250     -999.25000
         5385.0         13.780         45.050       -999.250         68.545       -999.250     -999.25000
         5385.5         13.787         46.939       -999.250         67.600       -999.250     -999.25000
         5386.0         13.794         49.619       -999.250         68.020       -999.250     -999.25000
         5386.5         13.801         50.504       -999.250         68.508       -999.250     -999.25000
         5387.0         13.808         47.737       -999.250         69.161       -999.250     -999.25000
         5387.5         13.814         44.257       -999.250         70.237       -999.250     -999.25000
         5388.0         13.821         40.751       -999.250         71.314       -999.250     -999.25000
         5388.5         13.828         38.343       -999.250         70.748       -999.250     -999.25000
         5389.0         13.835         39.477       -999.250         69.531       -999.250     -999.25000
         5389.5         13.842         41.399       -999.250         67.524       -999.250     -999.25000
         5390.0         13.849         43.872       -999.250         65.518       -999.250     -999.25000
         5390.5         13.856         42.549       -999.250         63.511       -999.250     -999.25000
         5391.0         13.863         41.987       -999.250         64.341       -999.250     -999.25000
         5391.5         13.860         45.543       -999.250         65.361       -999.250     -999.25000
         5392.0         13.852         44.522       -999.250         64.728       -999.250     -999.25000
         5392.5         13.844         40.714       -999.250         61.938       -999.250     -999.25000
         5393.0         13.836         38.680       -999.250         60.744       -999.250     -999.25000
         5393.5         13.829         36.659       -999.250         60.519       -999.250     -999.25000
         5394.0         13.821         34.672       -999.250         62.076       -999.250     -999.25000
         5394.5         13.813         36.482       -999.250         63.633       -999.250     -999.25000
         5395.0         13.805         40.542       -999.250         64.904       -999.250     -999.25000
         5395.5         13.797         43.712       -999.250         65.569       -999.250     -999.25000
         5396.0         13.790         45.811       -999.250         65.971       -999.250     -999.25000
         5396.5         13.789         44.772       -999.250         66.372       -999.250     -999.25000
         5397.0         13.800         44.231       -999.250         66.776       -999.250     -999.25000
         5397.5         13.811         44.955       -999.250         67.222       -999.250     -999.25000
         5398.0         13.822         45.680       -999.250         67.667       -999.250     -999.25000
         5398.5         13.833         44.802       -999.250         68.113       -999.250     -999.25000
