###############################################
##         ENVERUS                           ##
##         ESS - Open Hole                   ##
##         PERMIAN / DELAWARE                ##
##         Nov 04 2023  V4.0                 ##
##         42-389-32730-00-00                ##
###############################################
## Copyright 2017-2023  ENVERUS.  All Rights Reserved. 
## Confidential - Property of ENVERUS, use governed by terms and 
## conditions found within the existing Information Services Subscription Agreement 
## (as may be amended, the “ISSA”) between Customer and ENVERUS. 
## 
~VERSION INFORMATION
# MNEM.UNIT                               DATA : DESCRIPTION OF MNEMONIC
#-----.-----     ----------------------------- : -----------------------------
VERS.                                     2.00 : CWLS LOG ASCII STANDARD - VERSION 2.00
WRAP.                                       NO : MULTIPLE LINES PER DEPTH STEP
VEND.                                  ENVERUS : VENDOR
TYPE.                          ESS - OPEN HOLE : ENVERUS ESSENTIAL CURVES – ACCESSIBLE THROUGH ENVERUS PRISM(TM)
DOC.                                  19552736 : ENVERUS HEADER RAW DOCUMENT ID
#___________________________________________________________________________________________________ 
~WELL INFORMATION 
# Emv0q1Fc4UOVqi1FEPTQ50pHgS2U6oO6A9wxQf5ozJtTAVTQXtUhuyCOytio7eHVwvke0CQF/LYkoyLsbhUTsQ== 
# MNEM.UNIT                                              DATA : DESCRIPTION OF MNEMONIC 
#-----.-----                    ----------------------------- : ----------------------------- 
CNTY.                                                  REEVES : COUNTY 
STATE.                                                  TEXAS : STATE 
CNTRY.                                                    USA : COUNTRY 
API.                                             42-389-32730 : API (10 Digit) 
API_14.                                    42-389-32730-00-00 : API (14 Digits) 
API_14_std.                                 42-389-32730-0000 : API (14 Digits Standard) 
UWI.                                           42389327300000 : UNIQUE WELL ID 
WELL.                                  BIG SKY 55 - 16 NO. 1H : WELL NAME
STRT.FT                                                3850.0 : START DEPTH
STOP.FT                                               12070.5 : STOP DEPTH
STEP.FT                                                   0.5 : STEP BETWEEN DEPTHS
NULL.                                                 -999.25 : NULL VALUE
COMP.                                      CIMAREX ENERGY CO. : COMPANY 
FLD.                                                  WILDCAT : FIELD 
SRVC.                                             HALLIBURTON : SERVICE COMPANY 
DATE.                                              03/23/2011 : DATE 
TVD.                                                       NO : TVD FLAG 
WSTA.                                                     LOC : WELL STATUS
#___________________________________________________________________________________________________ 
~PARAMETER INFORMATION 
# MNEM.UNIT                                              DATA : DESCRIPTION OF MNEMONIC 
#-----.-----                    ----------------------------- : ----------------------------- 
RUN.                                                      ONE : RUN NUMBER 
PDAT.                                                      GL : PERMANENT DATUM 
EPD.FT                                              2996.0000 : ELEVATION OF PERM. DATUM 
LMF.                                            KELLY BUSHING : LOG MEASURED FROM 
EKB.FT                                              3021.0000 : ELEVATION OF KELLY BUSHING 
DF.FT                                               3020.0000 : ELEVATION OF DERRICK FLOOR 
GL.FT                                               2996.0000 : ELEVATION OF GROUND LEVEL 
TD.FT                                              12100.0000 : TOTAL DEPTH 
CSGD.FT                                                  3861 : CASING BOTTOM (DRILLER) 1 
CSGL.FT                                                  3855 : CASING BOTTOM (LOGGER) 1 
MUD.                                                    BRINE : DRILLING FLUID TYPE 
MUDV.CP                                               36.0000 : DRILLING FLUID VISCOSITY 
MUDD.LB/USG                                           10.1000 : DRILLING FLUID DENSITY 
PH.                                                   10.0000 : DRILLING FLUID PH 
MUDS.                                                FLOWLINE : MUD SAMPLE SOURCE 
RM.OHMM                                                0.0600 : RESISTIVITY OF MUD SAMPLE 
RMT.DEGF                                              75.0000 : MUD SAMPLE TEMPERATURE 
RMF.OHMM                                               0.0400 : MUD FILTRATE RESISTIVITY 
RMFT.DEGF                                             75.0000 : MUD FILTRATE SAMPLE TEMPERATURE 
RMC.OHMM                                               0.0600 : MUD CAKE RESISTIVITY 
RMCT.DEGF                                             75.0000 : MUD CAKE SAMPLE TEMPERATURE 
RMB.OHMM                                               0.0240 : MUD RESISTIVITY AT BHT 
TMAX.DEGF                                            200.0000 : BOTTOM HOLE TEMPERATURE
#___________________________________________________________________________________________________ 
~CURVE INFORMATION 
# MNEM.UNIT           : CURVE DESCRIPTION 
#-----.-----          : ----------------------------- 
 DEPT.FT               : MEASURED DEPTH 
 GR.API                : GAMMA RAY (GAMMA RAY) 
 DT.US/FT              : SONIC DELTA TRANSIT TIME (DELTA T) 
 RESD_LL.OHMM          : DEEP LATEROLOG (LLD - DEEP LATEROLOG) 
 DPHI.V/V              : DENSITY POROSITY (DENSITY POROSITY) 
 NPHI.V/V              : NEUTRON POROSITY (NEUTRON POROSITY) 
 #___________________________________________________________________________________________________ 
~A         DEPT             GR             DT        RESD_LL           DPHI           NPHI
# ...
         5478.0         80.771         70.329        37.3260        0.11000        0.18000
         5478.5         67.802         67.688        28.4280        0.11400        0.15500
         5479.0         54.973         66.169        21.9340        0.11500        0.11700
         5479.5         44.338         65.981        20.2920        0.10800        0.11000
         5480.0         40.930         65.920        18.8390        0.10000        0.10900
         5480.5         38.463         65.738        17.5760        0.09200        0.10300
         5481.0         37.272         65.152        18.4670        0.08400        0.09800
         5481.5         36.083         64.225        19.3450        0.07600        0.09300
         5482.0         34.897         62.905        20.0000        0.07500        0.08600
         5482.5         33.729         61.703        15.6380        0.07300        0.08000
         5483.0         33.167         62.665        12.9080        0.07200        0.07300
         5483.5         32.702         65.221        10.7300        0.09700        0.07500
         5484.0         32.236         67.554         9.0680        0.12600        0.08000
         5484.5         31.769         69.347         7.6700        0.15200        0.09500
         5485.0         31.273         69.952         6.5240        0.15400        0.10500
         5485.5         31.777         70.399         5.9550        0.14600        0.10300
         5486.0         32.602         70.701         5.3940        0.15200        0.10400
         5486.5         33.435         70.772         5.3630        0.16100        0.10700
         5487.0         34.266         70.643         5.3300        0.16000        0.10900
         5487.5         35.098         70.513         5.2950        0.15400        0.11100
         5488.0         35.919         70.898         5.2950        0.14900        0.11400
         5488.5         37.992         71.452         5.2950        0.14800        0.11600
         5489.0         41.020         71.752         5.2950        0.15700        0.11800
         5489.5         44.096         71.609         5.2950        0.16400        0.11900
         5490.0         46.025         71.467         5.2950        0.16700        0.12300
         5490.5         47.737         71.323         5.2970        0.15800        0.12700
         5491.0         48.089         71.621         5.2990        0.14900        0.12900
         5491.5         46.244         71.923         5.0130        0.14600        0.12900
         5492.0         43.972         72.226         4.5670        0.15500        0.12900
         5492.5         41.688         72.528         4.1620        0.16500        0.13000
         5493.0         39.389         72.622         3.8500        0.16200        0.13600
         5493.5         39.399         72.584         3.7610        0.15700        0.14200
         5494.0         41.059         72.547         3.6610        0.15200        0.14300
         5494.5         42.822         72.586         3.7240        0.15100        0.14600
         5495.0         43.910         72.725         3.7980        0.15700        0.14900
         5495.5         44.083         72.862         3.6780        0.16300        0.14800
         5496.0         44.270         73.170         3.5660        0.16500        0.14600
         5496.5         44.377         73.487         3.4630        0.16400        0.14200
         5497.0         43.272         73.339         3.5620        0.16300        0.14500
         5497.5         42.161         73.200         3.7170        0.16200        0.14800
         5498.0         41.059         72.963         3.8790        0.16100        0.15000
         5498.5         39.935         72.645         4.0470        0.16100        0.14500
         5499.0         40.070         71.683         4.2430        0.16200        0.14000
         5499.5         40.714         71.683         4.2260        0.15800        0.13200
         5500.0         41.378         72.275         4.2060        0.16000        0.12400
         5500.5         42.040         72.936         4.1870        0.16500        0.13100
         5501.0         42.493         72.838         4.1660        0.16700        0.13900
         5501.5         41.162         72.433         4.0210        0.16000        0.13100
         5502.0         39.820         72.246         3.8660        0.14400        0.12100
         5502.5         38.471         72.931         3.7190        0.12400        0.11000
         5503.0         38.628         74.318         3.5930        0.13400        0.11500
         5503.5         39.405         75.012         3.7820        0.15700        0.12300
         5504.0         40.163         75.053         4.5620        0.15500        0.13000
         5504.5         40.751         72.920         7.1230        0.15700        0.12600
         5505.0         40.112         69.881         9.7370        0.13200        0.11700
         5505.5         39.484         66.821         7.8900        0.10700        0.09800
         5506.0         38.846         66.540         5.9410        0.07900        0.07800
         5506.5         38.516         68.000         4.4730        0.09500        0.09600
         5507.0         38.347         71.521         3.6240        0.12100        0.11800
         5507.5         37.949         74.044         3.1140        0.14700        0.13800
         5508.0         37.553         76.032         2.7770        0.16800        0.15400
         5508.5         37.160         77.355         2.6430        0.17800        0.16900
         5509.0         36.759         77.916         2.5160        0.18200        0.17200
         5509.5         36.963         78.476         2.4260        0.18000        0.17400
         5510.0         37.587         78.627         2.3920        0.18200        0.17800
         5510.5         38.218         78.728         2.3510        0.18600        0.18200
         5511.0         38.850         78.830         2.4620        0.19500        0.18400
         5511.5         39.488         78.791         2.6750        0.19700        0.18500
         5512.0         39.334         78.464         2.5720        0.19900        0.18700
         5512.5         38.624         78.137         2.4390        0.19600        0.18400
         5513.0         37.932         77.621         2.5760        0.19300        0.17900
         5513.5         38.057         77.486         2.7210        0.19300        0.17500
         5514.0         39.484         77.668         2.8740        0.19600        0.18200
         5514.5         40.920         77.944         3.0360        0.19700        0.18300
         5515.0         43.732         77.554         3.6290        0.20200        0.17700
         5515.5         48.621         75.848         5.0270        0.20500        0.16800
         5516.0         53.498         73.561         7.8910        0.18200        0.15900
         5516.5         55.917         71.279        12.3870        0.12300        0.14500
         5517.0         53.904         69.733        15.2160        0.09400        0.12800
         5517.5         49.451         69.405        16.0050        0.09900        0.11800
         5518.0         48.997         69.868        17.6440        0.10400        0.10400
         5518.5         53.336         71.093        22.5170        0.10800        0.11500
         5519.0         66.864         73.778        28.7340        0.10600        0.13100
         5519.5         79.997         74.984        36.6690        0.09900        0.15300
         5520.0         90.170         75.230        41.8480        0.08900        0.17500
         5520.5         91.891         74.654        41.0080        0.07700        0.18400
         5521.0         78.909         72.579        40.4420        0.06400        0.16200
         5521.5         68.276         70.361        39.9190        0.05100        0.14300
