#--------------------------------------------------#
#-------------------ENVERUS, INC.------------------#
#------------------WWW.ENVERUS.COM-----------------#
#------------------COPYRIGHT 2020------------------#
#--------------------------------------------------#
#THIS FILE MAY BE USED ONLY IN ACCORDANCE WITH A CURRENT SUBSCRIPTION AGREEMENT BETWEEN
#THE USER AND ENVERUS, INC. NO PART OF THIS FILE MAY BE REPRODUCED, USED, COPIED,
#MODIFIED, PROPAGATED, OR DISTRIBUTED EXCEPT IN ACCORDANCE WITH THE SUBSCRIPTION
#AGREEMENT. UNAUTHORIZED USE OR DISTRIBUTION OF ALL OR ANY PART OF THIS FILE MAY VIOLATE
#COPYRIGHT, TRADEMARK, AND/OR OTHER LAWS AND IS SUBJECT TO CIVIL AS WELL AS CRIMINAL
#SANCTIONS.
#--------------------------------------------------#
#THIS FILE IS PROVIDED "AS-IS" AND ALL WARRANTIES ARE EXPRESSLY DISCLAIMED, WHETHER
#EXPRESS, ORAL, IMPLIED, STATUTORY OR OTHERWISE, INCLUDING ANY IMPLIED WARRANTY OF FITNESS
#FOR A PARTICULAR PURPOSE, MERCHANTABILITY, TITLE OR NON-INFRINGEMENT, AND ANY WARRANTIES
#ARISING BY VIRTUE OF CUSTOM OF TRADE OR COURSE OF DEALING.  FURTHER, ENVERUS, INC.
#AND ITS LICENSORS DO NOT REPRESENT OR WARRANT THAT THIS FILE WILL MEET USER'S
#REQUIREMENTS OR ARE SUITABLE FOR USER'S NEEDS OR THAT THE DATA OR RESULTS PROVIDED IN
#CONJUNCTION THEREWITH ARE CORRECT, ACCURATE, TIMELY OR RELIABLE. THESE DISCLAIMERS SHALL
#APPLY REGARDLESS OF ANY FAILURE OF ESSENTIAL PURPOSE OF ANY LIMITED REMEDY.  SOME
#JURISDICTIONS DO NOT ALLOW THE EXCLUSION OF CERTAIN WARRANTIES SO SOME OF THE ABOVE
#EXCLUSIONS MAY NOT APPLY. IN NO EVENT SHALL ENVERUS, INC. OR ANY OF ITS AFFILIATES
#BE LIABLE UNDER ANY LEGAL THEORY, WHETHER IN TORT (INCLUDING WITHOUT LIMITATION
#NEGLIGENCE), CONTRACT, STRICT LIABILITY, STATUTORY OR OTHERWISE, FOR ANY SPECIAL,
#INCIDENTAL, CONSEQUENTIAL, EXEMPLARY, PUNITIVE OR INDIRECT DAMAGE OF ANY KIND, INCLUDING
#WITHOUT LIMITATION LOSS OF REVENUE, PROFITS, GOODWILL, USE, AND/OR DATA OR THE COST OF
#PROCUREMENT OF SUBSTITUTE GOODS OR SERVICES, EVEN IF APPRISED OF THE POSSIBILITY OF SUCH
#DAMAGES IN ADVANCE.
#--------------------------------------------------#

~VERSION INFORMATION
VERS. 2.0 : CWLS LOG ASCII STANDARD - VERSION 2.0
WRAP.  NO : ONE LINE PER DEPTH STEP
~WELL INFORMATION
#MNEMONIC     .UNIT              VALUE :DESCRIPTION
STRT       .FT                24 :START DEPTH
STOP       .FT                5035 :STOP DEPTH
STEP       .FT                   0.500 :STEP
NULL       .                  -999.250 :NULL
UWI        .              42389314500000 :UNIQUE WELL ID
API        .              42389314500000 :API NUMBER
COMP       .         SLEDGE BROS. OIL CO. :COMPANY
WELL       .        ELIZABETH MITCHELL  1 :WELL
DATE       .                18-DEC-1983 :LOG DATE
~CURVE INFORMATION
#MNEMONIC     .UNIT      API CODE :CURVE DESCRIPTION
DEPTH       .FT                      :MEASURED DEPTH
CAL.INCH        UNKNOWN   :CAL
DT.US/FT        UNKNOWN   :DT
GR.API        UNKNOWN   :GR
~A    DEPTH    CAL    DT    GR
# ...
 4921     8.752   82.819   49.453
 4921.5     8.747   83.206   49.665
 4922     8.742   83.287   50.601
 4922.5     8.737   83.368   52.825
 4923     8.732   84.149   53.934
 4923.5     8.727   85.125   51.699
 4924     8.722   85.49   49.425
 4924.5     8.717   85.598   47.136
 4925     8.711   85.706   48.039
 4925.5     8.706   85.679   51.104
 4926     8.701   85.385   52.782
 4926.5     8.696   84.063   54.461
 4927     8.691   82.69   55.042
 4927.5     8.692   81.964   53.835
 4928     8.692   81.88   52.373
 4928.5     8.692   81.798   50.91
 4929     8.692   81.717   49.71
 4929.5     8.692   81.635   48.652
 4930     8.692   81.554   47.594
 4930.5     8.692   80.77   47.612
 4931     8.692   79.973   48.32
 4931.5     8.692   79.742   49.028
 4932     8.693   79.838   50.962
 4932.5     8.693   80.997   56.446
 4933     8.693   82.155   62.284
 4933.5     8.693   81.844   65.929
 4934     8.69   81.048   69.459
 4934.5     8.679   79.077   71.86
 4935     8.669   78.795   67.44
 4935.5     8.659   80.138   63.02
 4936     8.66   81.616   58.555
 4936.5     8.68   82.294   50.083
 4937     8.7   82.127   46.884
 4937.5     8.72   82.007   45.623
 4938     8.74   81.887   44.653
 4938.5     8.76   82.097   45.217
 4939     8.78   82.361   46.02
 4939.5     8.8   82.616   46.824
 4940     8.82   82.841   47.627
 4940.5     8.838   83.11   48.431
 4941     8.844   83.404   49.182
 4941.5     8.85   83.667   49.184
 4942     8.857   83.755   49.185
 4942.5     8.863   83.575   51.865
 4943     8.869   81.981   54.562
 4943.5     8.875   80.388   57.258
 4944     8.88   79.063   59.58
 4944.5     8.882   77.957   61.348
 4945     8.884   77.2   54.812
 4945.5     8.886   77.555   53.346
 4946     8.888   78.071   51.963
 4946.5     8.891   78.641   51.176
 4947     8.893   79.636   50.39
 4947.5     8.895   80.772   49.603
 4948     8.897   83.128   49.611
 4948.5     8.899   85.247   49.664
 4949     8.889   86.333   49.717
 4949.5     8.87   86.266   49.443
 4950     8.852   85.41   48.831
 4950.5     8.842   84.555   48.219
 4951     8.852   83.7   44.435
 4951.5     8.862   83.116   43.717
 4952     8.872   82.793   44.377
 4952.5     8.876   82.471   46.29
 4953     8.85   81.944   51.217
 4953.5     8.825   81.078   55.622
 4954     8.737   79.972   57.45
 4954.5     8.633   78.776   57.451
 4955     8.552   77.513   53.278
 4955.5     8.54   77.513   50.704
 4956     8.529   77.995   49.088
 4956.5     8.518   78.482   49.492
 4957     8.514   78.969   49.896
 4957.5     8.514   79.397   50.299
 4958     8.514   79.515   50.666
 4958.5     8.515   79.455   51.477
 4959     8.515   78.979   54.044
 4959.5     8.515   78.313   53.901
 4960     8.515   77.648   55.315
 4960.5     8.515   77.07   56.871
 4961     8.515   76.549   57.851
 4961.5     8.515   76.386   57.317
 4962     8.515   76.482   56.783
 4962.5     8.515   76.578   56.248
 4963     8.516   76.598   56.381
 4963.5     8.516   76.336   58.171
 4964     8.516   76.121   59.961
 4964.5     8.516   76.097   60.557
 4965     8.516   76.074   59.264
 4965.5     8.516   76.05   57.97
 4966     8.516   75.64   56.677
 4966.5     8.516   75.061   55.383
 4967     8.516   74.472   54.179
 4967.5     8.516   73.582   53.779
 4968     8.517   72.771   54.279
 4968.5     8.517   72.572   57.307
 4969     8.517   72.373   59.094
 4969.5     8.517   72.174   58.75
 4970     8.517   70.722   57.748
 4970.5     8.517   69.041   57.142
 4971     8.53   66.56   57.143
 4971.5     8.543   64.366   57.145
 4972     8.556   63.455   55.666
 4972.5     8.569   64.374   54.466
 4973     8.579   65.42   54.467
 4973.5     8.579   66.466   54.755
 4974     8.579   67.609   56.447
 4974.5     8.579   68.863   61.198
 4975     8.579   69.79   64.106
 4975.5     8.579   70.42   65.362
 4976     8.579   71.051   63.811
 4976.5     8.579   71.073   61.268
 4977     8.579   70.825   60.428
 4977.5     8.579   70.578   59.588
 4978     8.579   70.33   57.298
 4978.5     8.579   70.453   53.406
 4979     8.579   71.064   50.98
 4979.5     8.579   72.013   50.524
 4980     8.579   73.385   50.361
 4980.5     8.579   74.758   51.305
 4981     8.579   75.056   49.837
 4981.5     8.579   74.056   47.943
 4982     8.579   72.779   47.238
 4982.5     8.579   70.426   47.936
 4983     8.579   68.682   48.952
 4983.5     8.579   68.817   50.049
 4984     8.579   70.574   50.495
 4984.5     8.579   72.788   50.83
 4985     8.579   73.414   51.166
 4985.5     8.579   72.817   51.502
 4986     8.579   71.4   52.921
 4986.5     8.58   69.983   55.143
 4987     8.58   67.788   56.324
 4987.5     8.58   66.457   56.923
 4988     8.58   65.449   55.784
 4988.5     8.58   65.575   54.269
 4989     8.58   66.02   52.733
 4989.5     8.58   66.465   51.67
 4990     8.573   66.654   50.959
 4990.5     8.564   66.295   49.882
 4991     8.556   65.936   49.823
 4991.5     8.548   65.594   50.81
 4992     8.54   65.716   51.798
 4992.5     8.531   65.851   54.904
 4993     8.523   66.304   55.39
 4993.5     8.515   66.757   54.077
 4994     8.507   67.682   52.099
 4994.5     8.502   69.198   51.586
 4995     8.503   70.33   52.045
 4995.5     8.504   70.454   53.125
 4996     8.506   70.108   54.206
 4996.5     8.507   68.675   53.989
 4997     8.508   66.988   52.096
 4997.5     8.509   66.534   50.708
 4998     8.51   66.161   52.21
 4998.5     8.511   65.526   54.489
 4999     8.512   64.666   53.713
 4999.5     8.513   64.111   52.7
 5000     8.515   64.081   50.968
 5000.5     8.516   65.959   51.248
 5001     8.517   67.856   56.749
 5001.5     8.518   69.066   -999.250
 5002     8.519   70.013   -999.250
 5002.5     8.52   70.717   -999.250
 5003     8.521   70.798   -999.250
 5003.5     8.522   69.667   -999.250
 5004     8.523   68.196   -999.250
 5004.5     8.525   66.726   -999.250
 5005     8.526   65.319   -999.250
 5005.5     8.527   64.078   -999.250
 5006     8.528   62.838   -999.250
 5006.5     8.528   62.215   -999.250
 5007     8.527   61.821   -999.250
 5007.5     8.527   62.374   -999.250
 5008     8.527   63.159   -999.250
 5008.5     8.526   63.945   -999.250
 5009     8.526   64.211   -999.250
 5009.5     8.526   64.288   -999.250
 5010     8.526   64.416   -999.250
 5010.5     8.525   64.947   -999.250
 5011     8.525   65.208   -999.250
 5011.5     8.525   65.208   -999.250
 5012     8.524   65.258   -999.250
 5012.5     8.524   65.391   -999.250
 5013     8.524   65.523   -999.250
 5013.5     8.523   65.504   -999.250
 5014     8.523   65.399   -999.250
 5014.5     8.523   65.294   -999.250
 5015     8.523   65.189   -999.250
 5015.5     8.522   65.122   -999.250
 5016     8.522   65.12   -999.250
 5016.5     8.522   65.118   -999.250
 5017     8.521   65.115   -999.250
 5017.5     8.521   65.113   -999.250
 5018     8.521   65.11   -999.250
 5018.5     8.521   65.108   -999.250
 5019     8.52   65.106   -999.250
 5019.5     8.52   65.103   -999.250
 5020     8.52   65.101   -999.250
 5020.5     8.519   65.099   -999.250
 5021     8.519   65.096   -999.250
 5021.5     8.519   65.094   -999.250
 5022     8.519   65.092   -999.250
 5022.5     8.518   65.089   -999.250
 5023     8.518   65.087   -999.250
 5023.5     8.518   65.084   -999.250
 5024     8.517   65.082   -999.250
 5024.5     8.517   65.08   -999.250
 5025     8.517   65.077   -999.250
 5025.5     8.516   65.075   -999.250
 5026     8.516   65.073   -999.250
 5026.5     8.516   65.07   -999.250
 5027     8.516   65.068   -999.250
 5027.5     8.515   65.066   -999.250
 5028     8.515   65.063   -999.250
 5028.5     8.515   65.061   -999.250
 5029     8.514   65.058   -999.250
 5029.5     8.514   65.056   -999.250
 5030     8.514   65.054   -999.250
 5030.5     8.514   65.051   -999.250
 5031     8.513   65.049   -999.250
 5031.5     8.513   65.047   -999.250
 5032     8.513   65.044   -999.250
 5032.5     8.512   65.042   -999.250
 5033     8.512   65.039   -999.250
 5033.5     8.512   65.037   -999.250
 5034     8.512   65.035   -999.250
 5034.5     -999.250   65.032   -999.250
