#--------------------------------------------------#
#-------------------ENVERUS, INC.------------------#
#------------------WWW.ENVERUS.COM-----------------#
#------------------COPYRIGHT 2020------------------#
#--------------------------------------------------#
#THIS FILE MAY BE USED ONLY IN ACCORDANCE WITH A CURRENT SUBSCRIPTION AGREEMENT BETWEEN
#THE USER AND ENVERUS, INC. NO PART OF THIS FILE MAY BE REPRODUCED, USED, COPIED,
#MODIFIED, PROPAGATED, OR DISTRIBUTED EXCEPT IN ACCORDANCE WITH THE SUBSCRIPTION
#AGREEMENT. UNAUTHORIZED USE OR DISTRIBUTION OF ALL OR ANY PART OF THIS FILE MAY VIOLATE
#COPYRIGHT, TRADEMARK, AND/OR OTHER LAWS AND IS SUBJECT TO CIVIL AS WELL AS CRIMINAL
#SANCTIONS.
#--------------------------------------------------#
#THIS FILE IS PROVIDED "AS-IS" AND ALL WARRANTIES ARE EXPRESSLY DISCLAIMED, WHETHER
#EXPRESS, ORAL, IMPLIED, STATUTORY OR OTHERWISE, INCLUDING ANY IMPLIED WARRANTY OF FITNESS
#FOR A PARTICULAR PURPOSE, MERCHANTABILITY, TITLE OR NON-INFRINGEMENT, AND ANY WARRANTIES
#ARISING BY VIRTUE OF CUSTOM OF TRADE OR COURSE OF DEALING.  FURTHER, ENVERUS, INC.
#AND ITS LICENSORS DO NOT REPRESENT OR WARRANT THAT THIS FILE WILL MEET USER'S
#REQUIREMENTS OR ARE SUITABLE FOR USER'S NEEDS OR THAT THE DATA OR RESULTS PROVIDED IN
#CONJUNCTION THEREWITH ARE CORRECT, ACCURATE, TIMELY OR RELIABLE. THESE DISCLAIMERS SHALL
#APPLY REGARDLESS OF ANY FAILURE OF ESSENTIAL PURPOSE OF ANY LIMITED REMEDY.  SOME
#JURISDICTIONS DO NOT ALLOW THE EXCLUSION OF CERTAIN WARRANTIES SO SOME OF THE ABOVE
#EXCLUSIONS MAY NOT APPLY. IN NO EVENT SHALL ENVERUS, INC. OR ANY OF ITS AFFILIATES
#BE LIABLE UNDER ANY LEGAL THEORY, WHETHER IN TORT (INCLUDING WITHOUT LIMITATION
#NEGLIGENCE), CONTRACT, STRICT LIABILITY, STATUTORY OR OTHERWISE, FOR ANY SPECIAL,
#INCIDENTAL, CONSEQUENTIAL, EXEMPLARY, PUNITIVE OR INDIRECT DAMAGE OF ANY KIND, INCLUDING
#WITHOUT LIMITATION LOSS OF REVENUE, PROFITS, GOODWILL, USE, AND/OR DATA OR THE COST OF
#PROCUREMENT OF SUBSTITUTE GOODS OR SERVICES, EVEN IF APPRISED OF THE POSSIBILITY OF SUCH
#DAMAGES IN ADVANCE.
#--------------------------------------------------#

~VERSION INFORMATION
VERS. 2.0 : CWLS LOG ASCII STANDARD - VERSION 2.0
WRAP.  NO : ONE LINE PER DEPTH STEP
~WELL INFORMATION
#MNEMONIC     .UNIT              VALUE :DESCRIPTION
STRT       .FT                51 :START DEPTH
STOP       .FT                4494 :STOP DEPTH
STEP       .FT                   0.500 :STEP
NULL       .                  -999.990 :NULL
UWI        .              42389102200000 :UNIQUE WELL ID
API        .              42389102200000 :API NUMBER
COMP       .         GRUY PETROLEUM MANAGEMENT CO. :COMPANY
WELL       .        REEVES -AQ- FEE  2 :WELL
DATE       .                30-NOV-1992 :LOG DATE
~CURVE INFORMATION
#MNEMONIC     .UNIT      API CODE :CURVE DESCRIPTION
DEPTH       .FT                      :MEASURED DEPTH
CAL.INCH        UNKNOWN   :CAL
GR.API        UNKNOWN   :GR
DT.US/FT        UNKNOWN   :DT
~A    DEPTH    CAL    GR    DT
# ...
 1846     8.675   9.393   50.811
 1846.5     8.675   8.807   50.877
 1847     8.675   8.22   50.894
 1847.5     8.675   7.634   50.911
 1848     8.675   7.29   50.928
 1848.5     8.675   7.292   50.876
 1849     8.675   7.293   50.74
 1849.5     8.675   7.722   50.603
 1850     8.675   8.266   50.467
 1850.5     8.676   8.226   50.331
 1851     8.676   8.186   50.308
 1851.5     8.676   8.145   50.394
 1852     8.676   8.105   50.479
 1852.5     8.676   8.143   50.565
 1853     8.676   8.278   50.584
 1853.5     8.676   8.413   50.291
 1854     8.676   8.548   49.999
 1854.5     8.677   8.683   49.707
 1855     8.677   8.817   49.414
 1855.5     8.677   9.022   49.122
 1856     8.677   9.266   48.829
 1856.5     8.677   9.318   48.537
 1857     8.677   9.369   48.537
 1857.5     8.677   9.42   48.623
 1858     8.677   9.431   48.708
 1858.5     8.678   9.183   48.794
 1859     8.678   8.935   48.788
 1859.5     8.678   8.687   48.667
 1860     8.678   8.439   48.546
 1860.5     8.678   8.414   48.425
 1861     8.678   8.24   48.565
 1861.5     8.678   7.854   48.798
 1862     8.678   7.469   49.03
 1862.5     8.678   7.083   49.263
 1863     8.679   6.697   49.496
 1863.5     8.679   6.311   49.729
 1864     8.679   5.925   49.962
 1864.5     8.679   5.717   50.195
 1865     8.679   5.619   50.427
 1865.5     8.679   5.521   50.66
 1866     8.679   5.422   50.49
 1866.5     8.679   5.324   50.234
 1867     8.68   5.226   49.979
 1867.5     8.68   5.497   49.724
 1868     8.68   5.884   49.468
 1868.5     8.68   6.272   49.294
 1869     8.68   6.659   49.339
 1869.5     8.68   7.046   49.384
 1870     8.68   7.029   49.429
 1870.5     8.68   6.843   49.474
 1871     8.68   6.658   49.4
 1871.5     8.681   6.683   49.077
 1872     8.681   6.861   48.754
 1872.5     8.681   7.039   48.432
 1873     8.681   7.217   48.441
 1873.5     8.681   7.396   48.651
 1874     8.681   7.574   48.861
 1874.5     8.681   7.752   49.072
 1875     8.681   7.742   49.282
 1875.5     8.682   7.722   49.492
 1876     8.682   7.703   49.702
 1876.5     8.682   7.684   49.873
 1877     8.682   7.665   49.872
 1877.5     8.682   7.645   49.872
 1878     8.682   7.626   49.872
 1878.5     8.682   7.607   49.722
 1879     8.682   7.588   49.41
 1879.5     8.682   7.718   49.099
 1880     8.682   7.953   48.788
 1880.5     8.681   8.188   48.549
 1881     8.681   8.424   48.681
 1881.5     8.681   8.659   48.813
 1882     8.68   8.894   48.946
 1882.5     8.68   8.885   49.078
 1883     8.679   8.793   49.21
 1883.5     8.679   8.701   49.342
 1884     8.679   8.609   49.38
 1884.5     8.678   8.516   49.416
 1885     8.678   8.424   49.452
 1885.5     8.678   8.453   49.488
 1886     8.677   8.605   49.523
 1886.5     8.677   8.757   49.559
 1887     8.677   8.909   49.4
 1887.5     8.676   8.829   49.188
 1888     8.676   8.596   48.976
 1888.5     8.676   8.363   48.764
 1889     8.675   8.13   48.552
 1889.5     8.675   7.896   48.735
 1890     8.675   7.663   48.986
 1890.5     8.674   7.43   49.237
 1891     8.674   7.752   49.489
 1891.5     8.674   8.101   49.74
 1892     8.673   8.449   49.991
 1892.5     8.673   8.798   50.228
 1893     8.673   9.147   50.077
 1893.5     8.672   10.088   49.925
 1894     8.672   11.098   49.774
 1894.5     8.672   11.841   49.623
 1895     8.671   11.435   49.497
 1895.5     8.671   11.029   49.617
 1896     8.671   10.623   49.737
 1896.5     8.67   10.217   49.52
 1897     8.67   10.327   49.096
 1897.5     8.669   10.508   48.672
 1898     8.669   10.688   48.248
 1898.5     8.669   10.868   48.29
 1899     8.668   11.049   48.37
 1899.5     8.668   10.662   48.45
 1900     8.668   9.509   48.529
 1900.5     8.667   8.426   48.609
 1901     8.667   8.428   48.689
 1901.5     8.667   8.43   48.769
 1902     8.666   8.431   48.785
 1902.5     8.666   8.491   48.736
 1903     8.666   8.861   48.688
 1903.5     8.665   9.23   48.757
 1904     8.665   9.599   48.997
 1904.5     8.665   9.969   49.237
 1905     8.664   10.338   49.478
 1905.5     8.659   10.531   49.718
 1906     8.65   10.356   49.777
 1906.5     8.642   10.182   49.616
 1907     8.633   10.007   49.454
 1907.5     8.624   9.832   49.293
 1908     8.615   9.658   49.364
 1908.5     8.607   9.483   49.514
 1909     8.598   9.673   49.664
 1909.5     8.589   10.033   49.815
 1910     8.58   10.393   49.965
 1910.5     8.572   10.409   49.803
 1911     8.566   10.411   49.561
 1911.5     8.566   10.413   49.319
 1912     8.565   10.487   49.077
 1912.5     8.565   11.788   48.835
 1913     8.564   13.09   48.671
 1913.5     8.564   14.343   48.751
 1914     8.563   15.51   48.83
 1914.5     8.563   16.676   48.91
 1915     8.562   17.843   49.766
 1915.5     8.561   19.01   51.313
 1916     8.561   19.719   51.706
 1916.5     8.56   19.522   51.477
 1917     8.56   18.634   51.247
 1917.5     8.559   16.628   51.018
 1918     8.559   14.622   50.789
 1918.5     8.558   12.616   50.559
 1919     8.558   10.623   50.33
 1919.5     8.557   9.845   50.101
 1920     8.556   9.067   49.871
 1920.5     8.556   8.492   49.642
 1921     8.555   8.493   49.413
 1921.5     8.555   8.495   49.183
 1922     8.554   8.816   49.314
 1922.5     8.554   9.164   49.475
 1923     8.553   9.513   49.635
 1923.5     8.553   9.862   49.741
 1924     8.552   10.21   49.644
 1924.5     8.551   10.137   49.547
 1925     8.551   9.996   49.472
 1925.5     8.55   9.855   49.559
 1926     8.55   9.715   49.647
 1926.5     8.549   9.574   49.734
 1927     8.549   9.386   49.821
 1927.5     8.548   9.125   49.908
 1928     8.548   8.864   49.995
 1928.5     8.547   8.603   50.112
 1929     8.556   8.342   50.292
 1929.5     8.574   8.082   50.472
 1930     8.592   7.821   50.653
 1930.5     8.61   7.56   50.833
 1931     8.628   7.874   50.868
 1931.5     8.646   8.21   50.646
 1932     8.664   8.546   50.424
 1932.5     8.682   8.882   50.202
 1933     8.7   9.133   50.175
 1933.5     8.718   9.18   50.248
 1934     8.736   9.227   50.322
 1934.5     8.742   9.274   50.396
 1935     8.733   9.322   50.47
 1935.5     8.724   9.482   50.543
 1936     8.714   9.641   50.617
 1936.5     8.705   9.801   50.691
 1937     8.696   9.961   50.747
 1937.5     8.687   10.121   50.791
 1938     8.677   10.28   50.836
 1938.5     8.668   10.44   50.881
 1939     8.659   10.392   50.926
 1939.5     8.65   10.207   50.866
 1940     8.677   10.021   50.754
 1940.5     8.708   9.739   50.642
 1941     8.74   9.349   50.53
 1941.5     8.772   8.96   50.418
 1942     8.803   8.57   50.307
 1942.5     8.835   8.181   50.195
 1943     8.867   7.791   50.083
 1943.5     8.898   8.089   50.102
 1944     8.923   8.391   50.195
 1944.5     8.926   8.694   50.289
 1945     8.929   8.996   50.382
 1945.5     8.932   9.299   50.475
 1946     8.935   9.452   50.559
 1946.5     8.938   8.804   50.508
 1947     8.941   8.156   50.457
 1947.5     8.944   7.508   50.406
 1948     8.947   6.86   50.356
 1948.5     8.954   6.275   50.305
 1949     8.964   6.778   50.254
 1949.5     8.974   7.282   50.204
 1950     8.984   7.786   48.917
 1950.5     8.994   8.29   48.88
 1951     9.005   8.794   48.843
 1951.5     9.015   9.132   48.807
 1952     9.023   8.907   48.77
 1952.5     9.024   8.682   48.733
 1953     9.025   8.457   48.697
 1953.5     9.026   8.232   48.66
 1954     9.027   7.756   48.624
 1954.5     9.028   7.26   48.587
 1955     9.029   6.764   48.55
 1955.5     9.03   6.275   48.514
 1956     9.031   6.667   48.477
 1956.5     9.032   7.059   48.51
 1957     9.033   7.45   48.576
 1957.5     9.033   7.517   48.641
 1958     9.034   7.27   48.706
 1958.5     9.035   7.022   48.772
 1959     9.036   6.775   48.837
 1959.5     9.037   6.527   48.902
 1960     9.038   6.296   48.76
 1960.5     9.039   6.537   48.591
 1961     9.04   6.779   48.421
 1961.5     9.041   7.02   48.434
 1962     9.042   7.261   48.494
 1962.5     9.043   7.503   48.604
 1963     9.044   7.744   48.818
 1963.5     9.045   7.985   49.033
 1964     9.045   8.227   49.247
