#--------------------------------------------------#
#-------------------ENVERUS, INC.------------------#
#------------------WWW.ENVERUS.COM-----------------#
#------------------COPYRIGHT 2020------------------#
#--------------------------------------------------#
#THIS FILE MAY BE USED ONLY IN ACCORDANCE WITH A CURRENT SUBSCRIPTION AGREEMENT BETWEEN
#THE USER AND ENVERUS, INC. NO PART OF THIS FILE MAY BE REPRODUCED, USED, COPIED,
#MODIFIED, PROPAGATED, OR DISTRIBUTED EXCEPT IN ACCORDANCE WITH THE SUBSCRIPTION
#AGREEMENT. UNAUTHORIZED USE OR DISTRIBUTION OF ALL OR ANY PART OF THIS FILE MAY VIOLATE
#COPYRIGHT, TRADEMARK, AND/OR OTHER LAWS AND IS SUBJECT TO CIVIL AS WELL AS CRIMINAL
#SANCTIONS.
#--------------------------------------------------#
#THIS FILE IS PROVIDED "AS-IS" AND ALL WARRANTIES ARE EXPRESSLY DISCLAIMED, WHETHER
#EXPRESS, ORAL, IMPLIED, STATUTORY OR OTHERWISE, INCLUDING ANY IMPLIED WARRANTY OF FITNESS
#FOR A PARTICULAR PURPOSE, MERCHANTABILITY, TITLE OR NON-INFRINGEMENT, AND ANY WARRANTIES
#ARISING BY VIRTUE OF CUSTOM OF TRADE OR COURSE OF DEALING.  FURTHER, ENVERUS, INC.
#AND ITS LICENSORS DO NOT REPRESENT OR WARRANT THAT THIS FILE WILL MEET USER'S
#REQUIREMENTS OR ARE SUITABLE FOR USER'S NEEDS OR THAT THE DATA OR RESULTS PROVIDED IN
#CONJUNCTION THEREWITH ARE CORRECT, ACCURATE, TIMELY OR RELIABLE. THESE DISCLAIMERS SHALL
#APPLY REGARDLESS OF ANY FAILURE OF ESSENTIAL PURPOSE OF ANY LIMITED REMEDY.  SOME
#JURISDICTIONS DO NOT ALLOW THE EXCLUSION OF CERTAIN WARRANTIES SO SOME OF THE ABOVE
#EXCLUSIONS MAY NOT APPLY. IN NO EVENT SHALL ENVERUS, INC. OR ANY OF ITS AFFILIATES
#BE LIABLE UNDER ANY LEGAL THEORY, WHETHER IN TORT (INCLUDING WITHOUT LIMITATION
#NEGLIGENCE), CONTRACT, STRICT LIABILITY, STATUTORY OR OTHERWISE, FOR ANY SPECIAL,
#INCIDENTAL, CONSEQUENTIAL, EXEMPLARY, PUNITIVE OR INDIRECT DAMAGE OF ANY KIND, INCLUDING
#WITHOUT LIMITATION LOSS OF REVENUE, PROFITS, GOODWILL, USE, AND/OR DATA OR THE COST OF
#PROCUREMENT OF SUBSTITUTE GOODS OR SERVICES, EVEN IF APPRISED OF THE POSSIBILITY OF SUCH
#DAMAGES IN ADVANCE.
#--------------------------------------------------#

~VERSION INFORMATION
VERS. 2.0 : CWLS LOG ASCII STANDARD - VERSION 2.0
WRAP.  NO : ONE LINE PER DEPTH STEP
~WELL INFORMATION
#MNEMONIC     .UNIT              VALUE :DESCRIPTION
STRT       .FT                47 :START DEPTH
STOP       .FT                15730 :STOP DEPTH
STEP       .FT                   0.500 :STEP
NULL       .                  -999.250 :NULL
UWI        .              42389303580000 :UNIQUE WELL ID
API        .              42389303580000 :API NUMBER
COMP       .         CIMAREX ENERGY CO. OF COLORADO :COMPANY
WELL       .        REEVES  AZ  FEE  1 :WELL
DATE       .                08-JAN-2006 :LOG DATE
~CURVE INFORMATION
#MNEMONIC     .UNIT      API CODE :CURVE DESCRIPTION
DEPTH       .FT                      :MEASURED DEPTH
NEUT.API        UNKNOWN   :NEUT
GR.API        UNKNOWN   :GR
DT.US/FT        UNKNOWN   :DT
CAL.INCH        UNKNOWN   :CAL
~A    DEPTH    NEUT    GR    DT    CAL
# ...
 2990     -999.250   49.975   70.787   13.671
 2990.5     -999.250   48.632   71.724   13.692
 2991     -999.250   47.29   71.89   13.713
 2991.5     -999.250   47.55   71.857   13.735
 2992     -999.250   47.972   72.167   13.756
 2992.5     -999.250   48.394   71.863   13.777
 2993     -999.250   48.816   71.936   13.798
 2993.5     -999.250   49.238   71.754   13.82
 2994     -999.250   51.121   71.083   13.841
 2994.5     -999.250   53.16   71.69   13.869
 2995     -999.250   55.2   72.667   13.903
 2995.5     -999.250   57.24   73.66   13.937
 2996     -999.250   59.279   74.654   13.972
 2996.5     -999.250   59.481   74.617   14.006
 2997     -999.250   59.555   74.371   14.04
 2997.5     -999.250   59.629   74.125   14.074
 2998     -999.250   59.702   73.874   14.109
 2998.5     -999.250   59.776   73.584   14.107
 2999     -999.250   62.634   73.294   14.098
 2999.5     -999.250   65.73   73.368   14.089
 3000     -999.250   68.827   73.645   14.081
 3000.5     -999.250   71.923   73.542   14.077
 3001     -999.250   74.222   73.331   14.126
 3001.5     -999.250   76.068   73.12   14.175
 3002     -999.250   77.913   73.378   14.224
 3002.5     -999.250   75.193   73.852   14.273
 3003     -999.250   72.405   74.327   14.322
 3003.5     -999.250   69.618   74.801   14.357
 3004     -999.250   66.83   75.275   14.362
 3004.5     -999.250   64.574   75.749   14.367
 3005     -999.250   64.001   75.452   14.371
 3005.5     -999.250   63.428   74.794   14.376
 3006     -999.250   62.982   74.411   14.381
 3006.5     -999.250   62.987   75.062   14.386
 3007     -999.250   62.991   75.713   14.391
 3007.5     -999.250   62.995   75.716   14.396
 3008     -999.250   63   75.469   14.401
 3008.5     -999.250   62.705   75.995   14.405
 3009     -999.250   61.261   76.639   14.41
 3009.5     -999.250   58.699   77.284   14.415
 3010     -999.250   55.116   77.293   14.42
 3010.5     -999.250   51.533   76.782   14.425
 3011     -999.250   49.934   76.272   14.43
 3011.5     -999.250   48.827   76.83   14.435
 3012     -999.250   47.72   77.768   14.44
 3012.5     -999.250   46.613   79.016   14.444
 3013     -999.250   45.647   80.263   14.449
 3013.5     -999.250   45.999   81.51   14.508
 3014     -999.250   46.351   82.757   14.572
 3014.5     -999.250   46.704   82.629   14.636
 3015     -999.250   47.056   82.253   14.7
 3015.5     -999.250   47.408   81.876   14.749
 3016     -999.250   47.76   81.5   14.726
 3016.5     -999.250   48.112   81.574   14.702
 3017     -999.250   48.465   82.065   14.679
 3017.5     -999.250   48.874   82.556   14.655
 3018     -999.250   49.926   83.844   14.631
 3018.5     -999.250   50.978   85.623   14.667
 3019     -999.250   52.03   87.401   14.718
 3019.5     -999.250   53.082   88.751   14.77
 3020     -999.250   50.251   88.529   14.821
 3020.5     -999.250   49.47   88.1   14.873
 3021     -999.250   49.892   87.672   14.924
 3021.5     -999.250   50.314   87.354   14.976
 3022     -999.250   49.854   87.181   15.027
 3022.5     -999.250   48.049   87.978   15.078
 3023     -999.250   46.244   88.775   15.12
 3023.5     -999.250   44.439   89.572   15.16
 3024     -999.250   43.819   90.368   15.2
 3024.5     -999.250   45.397   91.024   15.241
 3025     -999.250   45.896   91.678   15.281
 3025.5     -999.250   44.45   91.668   15.321
 3026     -999.250   43.004   91.378   15.362
 3026.5     -999.250   41.558   91.241   15.354
 3027     -999.250   41.837   91.619   15.341
 3027.5     -999.250   42.132   91.997   15.329
 3028     -999.250   42.426   92.375   15.316
 3028.5     -999.250   42.72   92.474   15.304
 3029     -999.250   43.015   91.909   15.291
 3029.5     -999.250   43.309   91.344   15.284
 3030     -999.250   42.795   90.779   15.288
 3030.5     -999.250   42.264   90.767   15.293
 3031     -999.250   41.734   91.649   15.298
 3031.5     -999.250   41.203   92.531   15.303
 3032     -999.250   40.673   93.413   15.307
 3032.5     -999.250   40.142   93.119   15.312
 3033     -999.250   39.611   92.627   15.317
 3033.5     -999.250   39.081   92.136   15.322
 3034     -999.250   38.55   91.645   15.326
 3034.5     -999.250   38.019   91.153   15.325
 3035     -999.250   37.489   90.843   15.311
 3035.5     -999.250   37.368   90.967   15.298
 3036     -999.250   38.486   91.504   15.285
 3036.5     -999.250   39.603   93.448   15.272
 3037     -999.250   40.721   93.911   15.259
 3037.5     -999.250   41.838   93.205   15.246
 3038     -999.250   42.956   92.499   15.233
 3038.5     -999.250   43.769   91.549   15.22
 3039     -999.250   44.558   88.698   15.207
 3039.5     -999.250   44.906   88.225   15.194
 3040     -999.250   44.003   87.751   15.181
 3040.5     -999.250   43.1   89.572   15.171
 3041     -999.250   43.132   91.142   15.16
 3041.5     -999.250   43.86   90.175   15.15
 3042     -999.250   44.589   89.208   15.14
 3042.5     -999.250   45.317   88.241   15.129
 3043     -999.250   45.782   87.767   15.119
 3043.5     -999.250   45.414   87.608   15.109
 3044     -999.250   45.047   86.497   15.098
 3044.5     -999.250   44.679   85.346   15.088
 3045     -999.250   44.312   84.308   15.078
 3045.5     -999.250   44.992   84.551   15.067
 3046     -999.250   46.523   84.416   15.051
 3046.5     -999.250   48.054   82.948   15.014
 3047     -999.250   49.585   81.481   14.977
 3047.5     -999.250   48.81   82.048   14.94
 3048     -999.250   47.777   82.693   14.903
 3048.5     -999.250   48.122   83.338   14.869
 3049     -999.250   48.649   83.315   14.899
 3049.5     -999.250   49.176   82.931   14.929
 3050     -999.250   48.966   82.548   14.96
 3050.5     -999.250   48.145   81.764   14.99
 3051     -999.250   47.324   80.856   14.988
 3051.5     -999.250   46.504   79.947   14.973
 3052     -999.250   45.683   79.923   14.957
 3052.5     -999.250   44.863   80.889   14.942
 3053     -999.250   44.042   81.855   14.947
 3053.5     -999.250   43.222   82.821   14.967
 3054     -999.250   42.401   83.787   14.986
 3054.5     -999.250   41.581   84.753   15.006
 3055     -999.250   40.76   85.72   15.026
 3055.5     -999.250   40.317   85.154   15.046
 3056     -999.250   42.274   83.85   15.065
 3056.5     -999.250   44.232   82.545   15.085
 3057     -999.250   46.19   79.822   15.105
 3057.5     -999.250   48.147   78.929   15.124
 3058     -999.250   49.714   79.482   15.144
 3058.5     -999.250   50.882   80.035   15.164
 3059     -999.250   52.051   80.588   15.183
 3059.5     -999.250   53.219   80.758   15.154
 3060     -999.250   54.388   79.21   15.099
 3060.5     -999.250   55.556   77.662   15.044
 3061     -999.250   55.808   76.322   14.998
 3061.5     -999.250   55.173   76.006   14.982
 3062     -999.250   54.538   75.69   14.966
 3062.5     -999.250   53.903   75.374   14.949
 3063     -999.250   53.539   75.63   14.933
 3063.5     -999.250   54.731   76.028   14.916
 3064     -999.250   55.923   76.426   14.9
 3064.5     -999.250   57.115   76.775   14.883
 3065     -999.250   58.307   76.617   14.867
 3065.5     -999.250   59.25   76.458   14.851
 3066     -999.250   58.883   76.3   14.834
 3066.5     -999.250   58.515   76.141   14.818
 3067     -999.250   58.148   75.982   14.801
 3067.5     -999.250   57.78   75.824   14.785
 3068     -999.250   57.221   75.665   14.769
 3068.5     -999.250   56.447   75.507   14.752
 3069     -999.250   55.672   75.418   14.736
 3069.5     -999.250   54.897   75.472   14.719
 3070     -999.250   54.122   75.527   14.703
 3070.5     -999.250   53.347   75.581   14.686
 3071     -999.250   52.572   75.635   14.67
 3071.5     -999.250   52.527   75.69   14.654
 3072     -999.250   52.64   75.744   14.637
 3072.5     -999.250   52.679   75.799   14.621
 3073     -999.250   52.718   75.853   14.604
 3073.5     -999.250   52.756   75.908   14.588
 3074     -999.250   52.795   75.962   14.571
 3074.5     -999.250   52.834   76.016   14.555
 3075     -999.250   52.873   76.071   14.539
 3075.5     -999.250   52.912   76.125   14.522
