#--------------------------------------------------#
#-------------------ENVERUS, INC.------------------#
#------------------WWW.ENVERUS.COM-----------------#
#------------------COPYRIGHT 2020------------------#
#--------------------------------------------------#
#THIS FILE MAY BE USED ONLY IN ACCORDANCE WITH A CURRENT SUBSCRIPTION AGREEMENT BETWEEN
#THE USER AND ENVERUS, INC. NO PART OF THIS FILE MAY BE REPRODUCED, USED, COPIED,
#MODIFIED, PROPAGATED, OR DISTRIBUTED EXCEPT IN ACCORDANCE WITH THE SUBSCRIPTION
#AGREEMENT. UNAUTHORIZED USE OR DISTRIBUTION OF ALL OR ANY PART OF THIS FILE MAY VIOLATE
#COPYRIGHT, TRADEMARK, AND/OR OTHER LAWS AND IS SUBJECT TO CIVIL AS WELL AS CRIMINAL
#SANCTIONS.
#--------------------------------------------------#
#THIS FILE IS PROVIDED "AS-IS" AND ALL WARRANTIES ARE EXPRESSLY DISCLAIMED, WHETHER
#EXPRESS, ORAL, IMPLIED, STATUTORY OR OTHERWISE, INCLUDING ANY IMPLIED WARRANTY OF FITNESS
#FOR A PARTICULAR PURPOSE, MERCHANTABILITY, TITLE OR NON-INFRINGEMENT, AND ANY WARRANTIES
#ARISING BY VIRTUE OF CUSTOM OF TRADE OR COURSE OF DEALING.  FURTHER, ENVERUS, INC.
#AND ITS LICENSORS DO NOT REPRESENT OR WARRANT THAT THIS FILE WILL MEET USER'S
#REQUIREMENTS OR ARE SUITABLE FOR USER'S NEEDS OR THAT THE DATA OR RESULTS PROVIDED IN
#CONJUNCTION THEREWITH ARE CORRECT, ACCURATE, TIMELY OR RELIABLE. THESE DISCLAIMERS SHALL
#APPLY REGARDLESS OF ANY FAILURE OF ESSENTIAL PURPOSE OF ANY LIMITED REMEDY.  SOME
#JURISDICTIONS DO NOT ALLOW THE EXCLUSION OF CERTAIN WARRANTIES SO SOME OF THE ABOVE
#EXCLUSIONS MAY NOT APPLY. IN NO EVENT SHALL ENVERUS, INC. OR ANY OF ITS AFFILIATES
#BE LIABLE UNDER ANY LEGAL THEORY, WHETHER IN TORT (INCLUDING WITHOUT LIMITATION
#NEGLIGENCE), CONTRACT, STRICT LIABILITY, STATUTORY OR OTHERWISE, FOR ANY SPECIAL,
#INCIDENTAL, CONSEQUENTIAL, EXEMPLARY, PUNITIVE OR INDIRECT DAMAGE OF ANY KIND, INCLUDING
#WITHOUT LIMITATION LOSS OF REVENUE, PROFITS, GOODWILL, USE, AND/OR DATA OR THE COST OF
#PROCUREMENT OF SUBSTITUTE GOODS OR SERVICES, EVEN IF APPRISED OF THE POSSIBILITY OF SUCH
#DAMAGES IN ADVANCE.
#--------------------------------------------------#

# EXPORTED FROM TRANSFORM SOFTWARE 5.2.0 ON 31-MAY-2019 BY USER BRIAN.UMLANG
# DI TRANSFORM - A PRODUCT OF DRILLINGINFO, INC. - WWW.DRILLINGINFO.COM
#
~VERSION INFORMATION
 VERS.        2.0 : LAS ASCII STANDARD - VERSION 2.0
 WRAP.         NO : ONE LINE PER DEPTH STEP

~WELL INFORMATION
#MNEM.UNIT       DATA TYPE       INFORMATION
#---------       ---------       -----------
 STRT.FT                 256 : START DEPTH
 STOP.FT                4706 : STOP DEPTH
 STEP.FT                 0.5 : STEP LENGTH
 NULL.               -999.25 : NULL VALUE
 UWI.         42301312890000 : UNIQUE WELL ID
 API.         42301312890000 : WELL IDENTIFIER
 COMP.                       : COMPANY
 WELL.  42301312890000_API14 : WELL NAME
 FLD.                        : FIELD NAME
 LOC.                        : WELL LOCATION
 CNTY.                       : COUNTY
 STAT.                       : STATE OR PROVINCE
 CTRY.                       : COUNTRY
 SRVC.                       : SERVICE COMPANY
 DATE.                       : DATE

~CURVE INFORMATION
#MNEM.UNIT       API CODE       CURVE DESCRIPTION
#---------       --------       -----------------
 DEPT.FT          : <MEASURED DEPTH>
 CAL.IN           : CALIPER
 DPHI.%           : DENSITY POROSITY
 DT.US/FT         : SONIC
 GR.GAPI          : GAMMA RAY
 ILD.OHMM         : DEEP RESISTIVITY
 ILS.OHMM         : SHALLOW RESISTIVITY
 NPHI.%           : NEUTRON POROSITY
 PE.B/ELEC        : PHOTOELECTRIC FACTOR
 RHOB.G/CM3       : DENSITY

~PARAMETER INFORMATION
#MNEM.UNIT       VALUE       DESCRIPTION
#---------       -----       -----------
 EKB.FT      2822 : ELEVATION ABOVE MSL

~A      DEPT         CAL        DPHI          DT          GR         ILD         ILS        NPHI          PE        RHOB
# ...
        4142         8.9     16.6112     70.9528      63.666      8.5272      5.3891     16.5011      2.5736      2.4513
      4142.5        8.86     17.2161     72.6703     71.5222      8.7676      5.5433     18.0815      2.5251      2.4365
        4143        8.86     16.3968     74.3046     78.9527      9.9149      6.2555      19.886      2.4649      2.4309
      4143.5        8.84     15.3286      75.808     86.0031     12.0644      7.2581     19.9356      2.4649      2.4654
        4144        8.82     13.5243     75.9684     91.0658     14.6339      9.0803     19.6853      2.5251      2.4877
      4144.5         8.8     12.5172     74.6793     90.1892      17.356     10.3314      19.017      2.6034      2.5058
        4145         8.8     12.1667     73.5796     83.7556     20.0427     11.8751     17.8274      2.6453      2.5122
      4145.5        8.74     12.0032     72.2572     76.0429     22.0586     12.5558     16.4564      2.7054      2.5157
        4146      8.7339     11.7149     71.3206      71.917     24.2579      13.657     14.6682      2.7054      2.5252
      4146.5        8.72     10.8878     70.1817     71.7627     27.3114     15.1286     13.2604      2.7054       2.537
        4147        8.72      9.6339     68.5345     75.8529     32.2604     17.2442     12.6962      2.7729        2.55
      4147.5      8.6702      8.8569      66.761     78.9787     43.0114     22.5446     12.8401      2.9121      2.5727
        4148        8.66      7.3262     65.6507     78.1158     55.4621     28.4567     12.5589      3.0136      2.5912
      4148.5        8.62      5.5937     63.6206     71.8154     81.0741     38.2401     10.9944      3.1998      2.6263
        4149        8.62      4.0073     61.9808      62.753     97.6212     53.9213      8.9407      3.5692      2.6391
      4149.5        8.62      3.4271     59.1851     61.0229    120.8588     67.1474      8.2696      3.9395      2.6412
        4150        8.58      3.3869      58.998     62.5377    126.6421     71.8781      8.4181      4.0078      2.6561
      4150.5        8.58      3.4271     58.9689     67.0563    131.1993     77.5313      9.2731      3.8449      2.6553
        4151        8.58      3.4111     59.2242     67.9654    129.6623     80.2882      9.0948      3.6295      2.6563
      4151.5      8.5403      3.3252      59.167     64.0388    127.6024     81.0356      8.6698      3.6273      2.6483
        4152        8.54      3.7135     58.6423     63.2252    126.4255     79.8153      8.4708      3.7223      2.6236
      4152.5        8.54      5.5973     58.4956     69.8982    122.0437       81.79      8.9924      3.8674      2.6074
        4153        8.54      6.7365     59.4658      79.348    109.7948     72.8793      9.8378      3.6635         2.6
      4153.5        8.54      7.1147     61.0324     87.0903     90.9924       65.08     10.3196      3.0924       2.595
        4154        8.54      6.7607     62.5614     91.4762     75.8124     55.5412     11.0369      2.9058      2.6027
      4154.5        8.54      6.1083     64.1982     94.8583     64.6894     48.2307      12.132      2.9058      2.6133
        4155        8.54      5.6813     65.2644     95.6668     57.5152      43.305     13.2848      3.0155      2.6162
      4155.5        8.54      5.7987     65.9433     91.7371     55.5919     42.1005     13.0772       3.154      2.6171
        4156        8.54      6.2436      66.319     84.4759     53.9031     41.5851     11.5584      3.1663      2.6122
      4156.5        8.54       6.397     65.3188      79.055     57.6692     44.5524     10.1986      3.1663       2.609
        4157        8.54      6.2335     63.8756     73.7214     65.1311     52.7962      8.8334      3.1663       2.611
      4157.5        8.54      5.9092     62.6009     69.8973     74.2433     55.8605      8.4398      3.1663       2.615
        4158        8.54      5.6724     61.5948     68.2635     83.1566     63.9995      8.2696      3.1663      2.6184
      4158.5        8.54      5.2896     60.8435     70.4273     90.5661     68.5475      8.8268      3.1663      2.6266
        4159        8.54      4.7372     60.6081     73.3385     92.2601     68.5984      9.7123       3.232      2.6335
      4159.5        8.54      4.4724     60.6362     76.9492     90.5441     66.0753      10.322      3.3843      2.6357
        4160        8.54      4.6923     61.1559     77.8443     80.9828     61.3294     10.5994      3.3868      2.6363
      4160.5        8.54      5.2819     61.8616     77.2455     72.4311     55.1906     10.0272      3.2054      2.6284
        4161        8.56      5.6382     62.3053       76.59     71.1767     52.4253      9.4817      3.0325      2.6227
      4161.5        8.58      5.5103     62.5651      75.674     71.3116     53.2171      8.9839      2.9476      2.6217
        4162        8.58      4.9009     62.4166     73.2147     75.7719     56.9847       8.833       2.971      2.6269
      4162.5         8.6      3.7376     61.6105     68.8702     88.4806     64.5425      8.8732      3.0917      2.6394
        4163        8.64      2.7466      60.447     63.1957    105.0582     75.1644      8.9537      3.5695       2.661
      4163.5        8.64       2.384     58.9466     58.9237    120.0128     84.3937      8.7731      3.8677      2.6703
        4164        8.64      2.4517     57.6754     58.3832    125.2595     90.2108      8.3774      4.0236      2.6716
      4164.5        8.64      3.1076     57.4216     62.0723    124.1042     86.4659      8.3745      4.2361      2.6616
        4165        8.64      3.7136     57.4254     68.9124    111.5275     76.6533       9.155      4.3017      2.6534
      4165.5        8.66      4.3169     59.4374     76.8898     90.9384     65.1856     10.6858      4.0421      2.6421
        4166        8.68      4.7845     60.8293     80.4109     75.5994      52.522     11.5838      3.6887      2.6356
      4166.5        8.68      5.2542     62.9501     80.8845     63.3066     43.9518     11.8199      3.2768      2.6266
        4167        8.72      5.6589       63.92     80.5107     56.7851     38.7135     11.5732      3.0477      2.6215
      4167.5        8.76      5.5915     64.2485     81.1273     55.9384     36.1889     11.3696       2.986      2.6214
        4168      8.7604      5.2314     64.2485     83.2447     56.8691     36.4517     11.3682      2.9448       2.626
      4168.5      8.8216      4.7223     64.2485     83.4553     61.1714     38.5514     11.2038      2.8858      2.6342
        4169        8.88      4.3606     63.8282     83.1903     65.4025     39.3362     10.5028      2.8294      2.6369
      4169.5      8.9241      4.3858     63.0999      81.376     69.8137     39.6705      9.7015       2.951      2.6389
        4170      8.9653      4.6261     62.5783     79.5223     71.1767     40.4611      9.3603      3.0525      2.6371
      4170.5           9      5.1536     62.2893     75.9511     67.3245     35.8546      9.3177      3.0862      2.6311
        4171        9.04      5.8288     62.5006     72.8245     60.6767     31.4796      9.5355      3.0661      2.6204
      4171.5      9.0441      7.2594      63.123     70.9581     50.9035     26.7717      9.9529      2.9955      2.6088
        4172      9.0703      8.6154     64.3346     70.9581     39.8277     21.9847     10.2214       2.914      2.5733
      4172.5      9.1715     10.8771     66.7605     72.8573     30.7556     16.0122     10.8399      2.8125      2.5472
        4173        9.22     11.5773     68.8996     73.9521     24.5223     13.9057     12.8017       2.711      2.5245
      4173.5       9.254      12.505     70.7946      73.748     20.1234     10.7236     13.5412      2.6495      2.5118
        4174        9.32     13.3851     71.8521     72.1222     15.0856      8.6477     13.5412      2.6052       2.478
      4174.5        9.36     16.0752     72.9703     68.0528     10.6411      6.1112     15.7065      2.6052      2.4564
        4175        9.38     19.0154     74.6061     63.0411      6.6654      3.7791     18.3727      2.5653      2.4093
