###############################################
##         ENVERUS                           ##
##         ESS - Open Hole                   ##
##         PERMIAN / DELAWARE                ##
##         Nov 04 2023  V4.0                 ##
##         42-389-32245-00-00                ##
###############################################
## Copyright 2017-2023  ENVERUS.  All Rights Reserved. 
## Confidential - Property of ENVERUS, use governed by terms and 
## conditions found within the existing Information Services Subscription Agreement 
## (as may be amended, the “ISSA”) between Customer and ENVERUS. 
## 
~VERSION INFORMATION
# MNEM.UNIT                               DATA : DESCRIPTION OF MNEMONIC
#-----.-----     ----------------------------- : -----------------------------
VERS.                                     2.00 : CWLS LOG ASCII STANDARD - VERSION 2.00
WRAP.                                       NO : MULTIPLE LINES PER DEPTH STEP
VEND.                                  ENVERUS : VENDOR
TYPE.                          ESS - OPEN HOLE : ENVERUS ESSENTIAL CURVES – ACCESSIBLE THROUGH ENVERUS PRISM(TM)
DOC.                                  31784178 : ENVERUS HEADER RAW DOCUMENT ID
#___________________________________________________________________________________________________ 
~WELL INFORMATION 
# v5kOeJgG8V8Fdrn76qwaaSXPAkEfLGq57aawfXlCwOXh55ROPeN2VCvB7JmY2/dENYnWxxZwl4Ma/Wu+4c2YGQ== 
# MNEM.UNIT                                              DATA : DESCRIPTION OF MNEMONIC 
#-----.-----                    ----------------------------- : ----------------------------- 
CNTY.                                                  REEVES : COUNTY 
STATE.                                                  TEXAS : STATE 
CNTRY.                                                    USA : COUNTRY 
API.                                             42-389-32245 : API (10 Digit) 
API_14.                                    42-389-32245-00-00 : API (14 Digits) 
API_14_std.                                 42-389-32245-0000 : API (14 Digits Standard) 
UWI.                                           42389322450000 : UNIQUE WELL ID 
WELL.                          TEXAS PACIFIC LAND TRUST 25 1H : WELL NAME
STRT.FT                                                2519.0 : START DEPTH
STOP.FT                                               10624.0 : STOP DEPTH
STEP.FT                                                   0.5 : STEP BETWEEN DEPTHS
NULL.                                                 -999.25 : NULL VALUE
#___________________________________________________________________________________________________ 
~CURVE INFORMATION 
# MNEM.UNIT           : CURVE DESCRIPTION 
#-----.-----          : ----------------------------- 
 DEPT.FT               : MEASURED DEPTH 
 CALI__B.IN            : CALIPER (CAL - CAL) 
 GR__B.API             : GAMMA RAY (GR) 
 DT__B.US/FT           : SONIC DELTA TRANSIT TIME (DT) 
 #___________________________________________________________________________________________________ 
~A         DEPT        CALI__B          GR__B          DT__B
# ...
         3047.0         14.656         46.063         82.390
         3047.5         14.654         46.287         81.537
         3048.0         14.651         48.486         81.354
         3048.5         14.648         50.684         81.938
         3049.0         14.645         52.115         81.613
         3049.5         14.643         51.690         80.997
         3050.0         14.629         51.560         80.219
         3050.5         14.586         55.980         79.573
         3051.0         14.543         55.847         81.872
         3051.5         14.500         55.381         94.146
         3052.0         14.463         54.915        100.791
         3052.5         14.441         54.926         88.846
         3053.0         14.419         55.155         78.837
         3053.5         14.397         53.466         78.993
         3054.0         14.375         51.776         96.510
         3054.5         14.353         50.750        125.988
         3055.0         14.332         49.778        112.170
         3055.5         14.334         48.246         93.339
         3056.0         14.336         48.364         79.025
         3056.5         14.338         47.950         76.668
         3057.0         14.339         46.485         75.264
         3057.5         14.341         47.502         75.593
         3058.0         14.343         50.520         76.267
         3058.5         14.345         56.846         76.940
         3059.0         14.347         63.242         77.984
         3059.5         14.349         60.853         80.185
         3060.0         14.358         54.926         84.120
         3060.5         14.372         48.998         93.730
         3061.0         14.386         43.071        100.548
         3061.5         14.401         42.434         96.078
         3062.0         14.415         43.613         83.712
         3062.5         14.429         44.792         80.937
         3063.0         14.443         45.971         80.660
         3063.5         14.458         47.150         81.668
         3064.0         14.472         48.329         82.506
         3064.5         14.486         48.604         82.242
         3065.0         14.501         48.485         81.463
         3065.5         14.515         49.560         80.126
         3066.0         14.516         51.175         78.586
         3066.5         14.505         52.791         77.045
         3067.0         14.495         54.406         76.076
         3067.5         14.484         56.022         75.476
         3068.0         14.474         57.095         74.766
         3068.5         14.463         58.156         73.738
         3069.0         14.453         61.758         72.998
         3069.5         14.442         66.248         72.703
         3070.0         14.431         70.739         72.407
         3070.5         14.421         75.229         72.112
         3071.0         14.410         77.032         73.104
         3071.5         14.400         72.428         74.169
         3072.0         14.389         66.961         74.876
         3072.5         14.379         61.495         75.253
         3073.0         14.368         61.934         75.392
         3073.5         14.352         62.899         75.232
         3074.0         14.336         64.788         74.659
         3074.5         14.319         67.781         73.927
         3075.0         14.303         70.774         73.389
         3075.5         14.290         72.441         73.184
         3076.0         14.278         71.672         72.845
         3076.5         14.266         68.043         72.163
         3077.0         14.254         64.414         71.481
         3077.5         14.242         62.348         71.016
         3078.0         14.231         61.659         70.568
         3078.5         14.219         60.970         70.636
         3079.0         14.207         60.281         71.113
         3079.5         14.195         63.380         71.949
         3080.0         14.183         74.197         74.157
         3080.5         14.164         89.040         76.366
         3081.0         14.141        125.382         78.575
         3081.5         14.118        159.397         80.764
         3082.0         14.095        149.775         82.437
         3082.5         14.073        141.067         82.029
         3083.0         14.050        133.199         80.093
         3083.5         14.027        125.332         77.507
         3084.0         14.004        117.464         74.920
         3084.5         13.982        109.596         73.004
         3085.0         13.959        101.729         71.852
         3085.5         13.977         85.879         71.353
         3086.0         14.000         68.200         74.693
         3086.5         14.022         55.752         78.077
         3087.0         14.045         49.748         79.771
         3087.5         14.067         51.364         79.931
         3088.0         14.090         57.234         92.376
         3088.5         14.099         70.030        100.215
         3089.0         14.104         82.825         93.368
         3089.5         14.110         95.621         99.499
         3090.0         14.115         97.414        132.365
         3090.5         14.121         92.542        129.940
         3091.0         14.126         72.122        112.353
         3091.5         14.131         61.846         88.708
         3092.0         14.135         56.062         74.752
         3092.5         14.139         54.640         74.472
         3093.0         14.143         53.219         74.191
         3093.5         14.148         49.299         74.446
         3094.0         14.152         44.883         74.746
         3094.5         14.156         44.416         74.623
         3095.0         14.160         44.682         73.868
         3095.5         14.162         45.109         73.113
         3096.0         14.156         46.382         72.858
         3096.5         14.149         47.654         73.098
         3097.0         14.143         45.460         73.754
         3097.5         14.137         42.964         78.697
         3098.0         14.131         41.615         80.797
         3098.5         14.128         43.613         76.764
         3099.0         14.128         44.830         74.216
         3099.5         14.127         43.497         74.031
         3100.0         14.126         42.164         73.820
         3100.5         14.125         41.581         73.065
         3101.0         14.124         41.581         72.310
         3101.5         14.123         44.956         71.978
         3102.0         14.122         48.335         71.740
         3102.5         14.122         54.318         71.797
         3103.0         14.121         61.176         71.907
         3103.5         14.120         66.276         72.017
         3104.0         14.119         66.205         72.076
         3104.5         14.118         66.134         71.774
         3105.0         14.117         66.064         71.388
         3105.5         14.117         69.509         71.388
         3106.0         14.116         73.324         71.780
         3106.5         14.115         77.140         72.455
         3107.0         14.114         79.911         73.132
         3107.5         14.113         75.777         73.809
         3108.0         14.108         70.453         73.979
         3108.5         14.096         65.129         73.431
         3109.0         14.084         59.804         72.229
         3109.5         14.072         57.853         71.173
         3110.0         14.060         57.661         70.589
         3110.5         14.048         57.634         70.395
         3111.0         14.036         58.272         70.620
         3111.5         14.024         58.909         71.014
         3112.0         14.012         71.549         72.484
         3112.5         14.000         84.639         74.578
