#--------------------------------------------------#
#-------------------ENVERUS, INC.------------------#
#------------------WWW.ENVERUS.COM-----------------#
#------------------COPYRIGHT 2020------------------#
#--------------------------------------------------#
#THIS FILE MAY BE USED ONLY IN ACCORDANCE WITH A CURRENT SUBSCRIPTION AGREEMENT BETWEEN
#THE USER AND ENVERUS, INC. NO PART OF THIS FILE MAY BE REPRODUCED, USED, COPIED,
#MODIFIED, PROPAGATED, OR DISTRIBUTED EXCEPT IN ACCORDANCE WITH THE SUBSCRIPTION
#AGREEMENT. UNAUTHORIZED USE OR DISTRIBUTION OF ALL OR ANY PART OF THIS FILE MAY VIOLATE
#COPYRIGHT, TRADEMARK, AND/OR OTHER LAWS AND IS SUBJECT TO CIVIL AS WELL AS CRIMINAL
#SANCTIONS.
#--------------------------------------------------#
#THIS FILE IS PROVIDED "AS-IS" AND ALL WARRANTIES ARE EXPRESSLY DISCLAIMED, WHETHER
#EXPRESS, ORAL, IMPLIED, STATUTORY OR OTHERWISE, INCLUDING ANY IMPLIED WARRANTY OF FITNESS
#FOR A PARTICULAR PURPOSE, MERCHANTABILITY, TITLE OR NON-INFRINGEMENT, AND ANY WARRANTIES
#ARISING BY VIRTUE OF CUSTOM OF TRADE OR COURSE OF DEALING.  FURTHER, ENVERUS, INC.
#AND ITS LICENSORS DO NOT REPRESENT OR WARRANT THAT THIS FILE WILL MEET USER'S
#REQUIREMENTS OR ARE SUITABLE FOR USER'S NEEDS OR THAT THE DATA OR RESULTS PROVIDED IN
#CONJUNCTION THEREWITH ARE CORRECT, ACCURATE, TIMELY OR RELIABLE. THESE DISCLAIMERS SHALL
#APPLY REGARDLESS OF ANY FAILURE OF ESSENTIAL PURPOSE OF ANY LIMITED REMEDY.  SOME
#JURISDICTIONS DO NOT ALLOW THE EXCLUSION OF CERTAIN WARRANTIES SO SOME OF THE ABOVE
#EXCLUSIONS MAY NOT APPLY. IN NO EVENT SHALL ENVERUS, INC. OR ANY OF ITS AFFILIATES
#BE LIABLE UNDER ANY LEGAL THEORY, WHETHER IN TORT (INCLUDING WITHOUT LIMITATION
#NEGLIGENCE), CONTRACT, STRICT LIABILITY, STATUTORY OR OTHERWISE, FOR ANY SPECIAL,
#INCIDENTAL, CONSEQUENTIAL, EXEMPLARY, PUNITIVE OR INDIRECT DAMAGE OF ANY KIND, INCLUDING
#WITHOUT LIMITATION LOSS OF REVENUE, PROFITS, GOODWILL, USE, AND/OR DATA OR THE COST OF
#PROCUREMENT OF SUBSTITUTE GOODS OR SERVICES, EVEN IF APPRISED OF THE POSSIBILITY OF SUCH
#DAMAGES IN ADVANCE.
#--------------------------------------------------#

~VERSION INFORMATION
VERS. 2.0 : CWLS LOG ASCII STANDARD - VERSION 2.0
WRAP.  NO : ONE LINE PER DEPTH STEP
~WELL INFORMATION
#MNEMONIC     .UNIT              VALUE :DESCRIPTION
STRT       .FT                51 :START DEPTH
STOP       .FT                4494 :STOP DEPTH
STEP       .FT                   0.500 :STEP
NULL       .                  -999.990 :NULL
UWI        .              42389102200000 :UNIQUE WELL ID
API        .              42389102200000 :API NUMBER
COMP       .         GRUY PETROLEUM MANAGEMENT CO. :COMPANY
WELL       .        REEVES -AQ- FEE  2 :WELL
DATE       .                30-NOV-1992 :LOG DATE
~CURVE INFORMATION
#MNEMONIC     .UNIT      API CODE :CURVE DESCRIPTION
DEPTH       .FT                      :MEASURED DEPTH
CAL.INCH        UNKNOWN   :CAL
GR.API        UNKNOWN   :GR
DT.US/FT        UNKNOWN   :DT
~A    DEPTH    CAL    GR    DT
# ...
 3818.5     11.047   48.191   76.932
 3819     11.07   50.352   77.11
 3819.5     11.112   46.681   78.82
 3820     11.156   43.01   80.53
 3820.5     11.2   39.339   82.239
 3821     11.245   36.74   83.949
 3821.5     11.289   39.428   84.052
 3822     11.334   42.115   82.296
 3822.5     11.378   44.803   80.54
 3823     11.422   47.49   78.783
 3823.5     11.467   50.178   77.027
 3824     11.511   52.865   75.271
 3824.5     11.555   52.005   76.88
 3825     11.6   48.939   78.53
 3825.5     11.621   45.873   80.18
 3826     11.623   42.807   81.83
 3826.5     11.625   39.74   81.937
 3827     11.628   40.213   81.04
 3827.5     11.63   41.096   80.143
 3828     11.632   41.979   79.246
 3828.5     11.635   41.605   78.349
 3829     11.637   40.904   78.444
 3829.5     11.639   41.644   78.959
 3830     11.641   42.653   79.474
 3830.5     11.644   42.304   79.989
 3831     11.636   40.679   80.18
 3831.5     11.617   41.904   79.796
 3832     11.598   43.276   79.413
 3832.5     11.578   43.717   79.029
 3833     11.559   43.02   78.646
 3833.5     11.54   44.464   78.262
 3834     11.52   45.909   77.878
 3834.5     11.501   47.353   77.495
 3835     11.482   48.797   78.881
 3835.5     11.462   50.032   80.313
 3836     11.443   45.677   81.745
 3836.5     11.424   41.656   83.177
 3837     11.405   42.895   83.564
 3837.5     11.385   44.135   83.262
 3838     11.366   45.375   82.959
 3838.5     11.347   46.614   82.656
 3839     11.327   46.117   82.354
 3839.5     11.282   45.178   82.051
 3840     11.23   44.239   81.76
 3840.5     11.177   45.356   81.481
 3841     11.124   47.467   81.203
 3841.5     11.071   48.432   80.925
 3842     11.018   47.33   80.646
 3842.5     10.966   46.229   80.368
 3843     10.913   45.127   80.236
 3843.5     10.86   45.161   80.477
 3844     10.807   46.576   80.718
 3844.5     10.755   47.992   80.959
 3845     10.701   49.407   81.2
 3845.5     10.623   49.229   81.057
 3846     10.544   47.895   80.146
 3846.5     10.465   46.561   79.234
 3847     10.386   45.366   78.323
 3847.5     10.307   46.329   78.337
 3848     10.228   47.293   78.845
 3848.5     10.149   48.257   79.353
 3849     10.07   49.22   79.861
 3849.5     9.991   51.129   80.369
 3850     9.912   52.591   80.825
 3850.5     9.833   51.979   80.643
 3851     9.754   51.366   80.462
 3851.5     9.676   50.753   80.281
 3852     9.597   52.235   80.207
 3852.5     9.518   54.452   80.312
 3853     9.439   56.669   80.418
 3853.5     9.36   57.671   80.523
 3854     9.281   58.024   80.629
 3854.5     9.202   58.377   80.544
 3855     9.123   58.729   80.208
 3855.5     9.046   57.761   79.872
 3856     8.97   56.26   79.536
 3856.5     8.895   54.298   79.199
 3857     8.819   53.63   78.863
 3857.5     8.743   52.962   79.252
 3858     8.668   53.574   79.734
 3858.5     8.592   54.779   80.215
 3859     8.516   55.983   79.209
 3859.5     8.441   57.188   77.809
 3860     8.365   58.392   77.129
 3860.5     8.289   55.511   77.837
 3861     8.239   50.411   78.544
 3861.5     8.22   46.947   79.252
 3862     8.202   47.906   79.96
 3862.5     8.184   48.865   80.667
 3863     8.166   49.823   80.776
 3863.5     8.147   49.578   80.696
 3864     8.129   47.458   79.862
 3864.5     8.127   45.337   78.952
 3865     8.135   44.62   78.041
 3865.5     8.143   48.012   77.131
 3866     8.15   51.404   76.22
 3866.5     8.158   59.629   76.48
 3867     8.165   67.717   76.745
 3867.5     8.173   69.289   77.01
 3868     8.18   70.861   75.772
 3868.5     8.188   72.434   74.373
 3869     8.196   69.952   73.782
 3869.5     8.235   64.467   74.167
 3870     8.285   58.982   74.552
 3870.5     8.334   56.394   74.763
 3871     8.384   58.142   74.663
 3871.5     8.433   59.89   74.562
 3872     8.483   61.638   74.461
 3872.5     8.532   63.527   74.676
 3873     8.582   66.234   75.058
 3873.5     8.631   68.94   75.439
 3874     8.681   69.33   75.821
 3874.5     8.73   69.258   75.204
 3875     8.78   69.611   74.525
 3875.5     8.829   73.43   73.847
 3876     8.881   75.353   73.169
 3876.5     8.942   75.856   72.49
 3877     9.002   76.36   71.812
 3877.5     9.063   76.864   72.096
 3878     9.123   75.648   72.638
 3878.5     9.184   73.652   73.179
 3879     9.244   71.991   73.821
 3879.5     9.305   70.989   74.917
 3880     9.365   69.987   75.013
 3880.5     9.426   67.417   75.11
 3881     9.486   59.043   76.166
 3881.5     9.547   50.668   78.934
 3882     9.607   48.485   81.702
 3882.5     9.668   47.783   81.365
 3883     9.728   50.242   80.501
 3883.5     9.789   53.234   79.637
 3884     9.844   56.226   78.774
 3884.5     9.883   58.084   77.91
 3885     9.921   58.168   77.629
 3885.5     9.959   58.36   77.387
 3886     9.997   60.385   77.145
 3886.5     10.035   62.41   77.147
 3887     10.073   60.316   77.941
 3887.5     10.111   56.751   78.735
 3888     10.149   53.185   79.417
 3888.5     10.187   49.62   79.393
 3889     10.225   47.716   79.369
 3889.5     10.259   48.276   79.395
 3890     10.264   48.836   80.405
 3890.5     10.269   49.396   81.414
 3891     10.274   50.249   82.424
 3891.5     10.279   51.132   82.362
 3892     10.284   52.014   82.241
 3892.5     10.289   50.782   82.12
 3893     10.295   49.034   81.568
 3893.5     10.3   47.361   79.68
 3894     10.305   45.778   77.792
 3894.5     10.31   44.404   77.805
 3895     10.315   44.781   78.304
 3895.5     10.32   45.159   78.803
 3896     10.325   45.537   79.301
 3896.5     10.33   44.478   79.289
 3897     10.331   43.414   78.683
 3897.5     10.323   42.35   78.632
 3898     10.316   43.204   78.925
 3898.5     10.308   44.339   79.217
 3899     10.3   45.474   79.51
 3899.5     10.293   45.029   79.893
 3900     10.285   44.11   80.495
 3900.5     10.278   44.169   81.097
 3901     10.27   45.533   81.362
 3901.5     10.262   46.897   80.23
 3902     10.255   48.26   79.099
 3902.5     10.247   49.384   77.967
 3903     10.239   50.315   76.835
 3903.5     10.222   51.247   75.703
 3904     10.187   52.178   76.734
 3904.5     10.151   53.109   78.869
 3905     10.116   52.861   81.004
 3905.5     10.08   51.485   83.14
 3906     10.045   44.308   83.024
 3906.5     10.01   42.641   82.731
 3907     9.974   42.943   82.437
 3907.5     9.939   43.245   82.144
 3908     9.903   43.547   82.773
 3908.5     9.868   42.086   83.995
 3909     9.833   41.172   85.216
 3909.5     9.797   42.267   86.438
 3910     9.762   43.361   84.577
 3910.5     9.726   49.171   82.325
 3911     9.691   55.134   80.072
 3911.5     9.656   61.097   78.405
 3912     9.62   57.224   78.887
 3912.5     9.585   52.467   79.369
 3913     9.549   47.71   79.851
 3913.5     9.514   47.063   79.897
 3914     9.479   47.778   79.51
 3914.5     9.445   48.492   79.123
 3915     9.411   49.206   79.088
 3915.5     9.377   49.647   79.54
 3916     9.343   47.454   79.992
 3916.5     9.308   45.385   79.407
 3917     9.274   44.135   78.761
 3917.5     9.24   43.547   78.116
 3918     9.206   43.464   77.77
 3918.5     9.172   43.576   78.329
 3919     9.138   44.262   78.888
 3919.5     9.104   44.868   79.446
 3920     9.07   44.792   80.005
 3920.5     9.063   44.076   80.564
 3921     9.057   43.36   81.123
 3921.5     9.052   46.159   80.928
 3922     9.046   49.927   79.792
 3922.5     9.04   52.41   78.657
 3923     9.034   53.347   77.521
 3923.5     9.029   51.4   76.385
 3924     9.023   49.454   76.244
 3924.5     9.017   47.507   77.015
 3925     9.012   47.887   77.786
 3925.5     9.006   51.766   77.905
 3926     9   55.646   77.149
 3926.5     8.994   59.525   76.393
 3927     8.989   63.405   75.637
 3927.5     8.983   64.452   74.881
 3928     8.977   61.375   75.111
 3928.5     8.971   58.297   76.339
 3929     8.967   55.22   77.566
 3929.5     8.962   52.142   77.452
 3930     8.958   49.064   76.06
 3930.5     8.953   45.987   78.197
 3931     8.949   42.909   80.334
 3931.5     8.944   40.404   82.356
 3932     8.94   41.287   82.785
 3932.5     8.935   42.169   83.214
