###############################################
##         ENVERUS                           ##
##         ESS - Open Hole                   ##
##         PERMIAN / DELAWARE                ##
##         Nov 04 2023  V4.0                 ##
##         42-389-30424-00-00                ##
###############################################
## Copyright 2017-2023  ENVERUS.  All Rights Reserved. 
## Confidential - Property of ENVERUS, use governed by terms and 
## conditions found within the existing Information Services Subscription Agreement 
## (as may be amended, the “ISSA”) between Customer and ENVERUS. 
## 
~VERSION INFORMATION
# MNEM.UNIT                               DATA : DESCRIPTION OF MNEMONIC
#-----.-----     ----------------------------- : -----------------------------
VERS.                                     2.00 : CWLS LOG ASCII STANDARD - VERSION 2.00
WRAP.                                       NO : MULTIPLE LINES PER DEPTH STEP
VEND.                                  ENVERUS : VENDOR
TYPE.                          ESS - OPEN HOLE : ENVERUS ESSENTIAL CURVES – ACCESSIBLE THROUGH ENVERUS PRISM(TM)
DOC.                                  32008121 : ENVERUS HEADER RAW DOCUMENT ID
#___________________________________________________________________________________________________ 
~WELL INFORMATION 
# BBd8zmUYmd+wUdICSlYDIOWaOe8iOeA0ELK9EhSbx74Kr6OX4zJxS/eo6cO6KK5SWMTSkVzaKbU2EBBfROvOKA== 
# MNEM.UNIT                                              DATA : DESCRIPTION OF MNEMONIC 
#-----.-----                    ----------------------------- : ----------------------------- 
CNTY.                                                  REEVES : COUNTY 
STATE.                                                  TEXAS : STATE 
CNTRY.                                                    USA : COUNTRY 
API.                                             42-389-30424 : API (10 Digit) 
API_14.                                    42-389-30424-00-00 : API (14 Digits) 
API_14_std.                                 42-389-30424-0000 : API (14 Digits Standard) 
UWI.                                           42389304240000 : UNIQUE WELL ID 
WELL.                                      LEWELLING STATE  1 : WELL NAME
STRT.FT                                                   7.0 : START DEPTH
STOP.FT                                               15912.0 : STOP DEPTH
STEP.FT                                                   0.5 : STEP BETWEEN DEPTHS
NULL.                                                 -999.25 : NULL VALUE
COMP.                           PENN VIRGINIA OIL & GAS CORP. : COMPANY 
DATE.                                             14-AUG-1976 : LOG DATE
#___________________________________________________________________________________________________ 
~CURVE INFORMATION 
# MNEM.UNIT           : CURVE DESCRIPTION 
#-----.-----          : ----------------------------- 
 DEPT.FT               : MEASURED DEPTH 
 CALI__A.IN            : CALIPER (CAL - CAL) 
 GR__A.API             : GAMMA RAY (GR) 
 DT__A.US/FT           : SONIC DELTA TRANSIT TIME (DT) 
 DPHI__A.V/V           : DENSITY POROSITY (DPHI) 
 NPHI__A.V/V           : NEUTRON POROSITY (NPHI) 
 #___________________________________________________________________________________________________ 
~A         DEPT        CALI__A          GR__A          DT__A        DPHI__A        NPHI__A
# ...
        13207.0         10.317         35.294       -999.250        0.10914        0.16300
        13207.5         11.212         37.964       -999.250        0.11168        0.27351
        13208.0         12.107         37.050       -999.250        0.09049        0.22912
        13208.5         12.533         34.374       -999.250        0.06930        0.15643
        13209.0         11.027         27.784       -999.250        0.04811        0.08374
        13209.5          9.697         22.497       -999.250        0.02704        0.01083
        13210.0          9.741         17.627       -999.250        0.00967        0.00002
        13210.5          9.785         13.675       -999.250        0.01020       -0.00042
        13211.0          9.829         11.567       -999.250        0.01072       -0.00087
        13211.5          9.873         11.567       -999.250        0.00716       -0.00131
        13212.0          9.917         12.740       -999.250       -0.00140       -0.00075
        13212.5          9.961         14.224       -999.250       -0.00177       -0.00001
        13213.0         10.005         15.457       -999.250        0.00057        0.00073
        13213.5         10.049         15.456       -999.250        0.00495        0.00147
        13214.0         10.093         15.456       -999.250        0.00934        0.00147
        13214.5         10.137         15.454       -999.250        0.01373        0.00147
        13215.0         10.181         13.667       -999.250        0.01375        0.00148
        13215.5         10.225         11.880       -999.250        0.01131        0.00051
        13216.0         10.269         11.806       -999.250        0.00650       -0.00066
        13216.5         10.313         11.805       -999.250        0.00170       -0.00183
        13217.0         10.357         13.083       -999.250       -0.00110       -0.00251
        13217.5         10.395         14.853       -999.250       -0.00170       -0.00092
        13218.0         10.429         15.596       -999.250        0.00337        0.00066
        13218.5         10.463         15.812       -999.250        0.00920        0.00165
        13219.0         10.497         14.666       -999.250        0.00898        0.00200
        13219.5         10.531         12.249       -999.250        0.00124        0.00235
        13220.0         10.565         13.789       -999.250        0.00257        0.00351
        13220.5         10.599         15.329       -999.250        0.00624        0.00492
        13221.0         10.633         16.693       -999.250        0.00991        0.00632
        13221.5         10.667         16.909       -999.250        0.01403        0.00773
        13222.0         10.701         17.126       -999.250        0.01483        0.00897
        13222.5         10.735         17.342       -999.250        0.00771        0.00602
        13223.0         10.769         17.559       -999.250        0.00060        0.00306
        13223.5         10.803         16.343       -999.250       -0.01031        0.00011
        13224.0         10.820         14.378       -999.250       -0.01554       -0.00200
        13224.5         10.836         12.412       -999.250       -0.00547       -0.00252
        13225.0         10.852         11.567       -999.250       -0.00938       -0.00265
        13225.5         10.868         12.280       -999.250       -0.01741       -0.00243
        13226.0         10.884         11.626       -999.250       -0.01552       -0.00221
        13226.5         10.900         11.906       -999.250       -0.01943       -0.00199
        13227.0         10.916         13.045       -999.250       -0.02935       -0.00177
        13227.5         10.932         14.252       -999.250       -0.02630       -0.00156
        13228.0         10.947         15.458       -999.250       -0.01441       -0.00134
        13228.5         10.963         18.099       -999.250        0.00344        0.00783
        13229.0         10.979         22.824       -999.250        0.02129        0.01776
        13229.5         10.995         31.181       -999.250        0.04877        0.04461
        13230.0         11.011         38.082       -999.250        0.09681        0.07334
        13230.5         11.027         39.628       -999.250        0.12224        0.14141
        13231.0         11.081         33.460       -999.250        0.14767        0.20947
        13231.5         11.552         26.171       -999.250        0.15225        0.18814
        13232.0         11.220         19.933       -999.250        0.12986        0.11716
        13232.5         11.069         14.768       -999.250        0.07159        0.05503
        13233.0         11.094         10.271       -999.250        0.01061        0.01097
        13233.5         11.124          7.464       -999.250        0.01630        0.01612
        13234.0         11.155          7.422       -999.250        0.02177        0.02047
        13234.5         11.186          7.422       -999.250        0.00956        0.01248
        13235.0         11.217          7.422       -999.250        0.01138        0.01151
        13235.5         11.248          7.421       -999.250        0.02155        0.02105
        13236.0         11.279          7.421       -999.250        0.03392        0.03059
        13236.5         11.293          7.467       -999.250        0.02778        0.02711
        13237.0         11.296          7.691       -999.250        0.02118        0.02070
        13237.5         11.298          7.915       -999.250        0.01947        0.01750
        13238.0         11.300          8.140       -999.250        0.02528        0.02512
        13238.5         11.302          8.364       -999.250        0.02431        0.02397
        13239.0         11.305          8.588       -999.250        0.02209        0.02207
        13239.5         11.307         10.950       -999.250        0.01987        0.02192
        13240.0         11.309         13.866       -999.250        0.02372        0.02843
        13240.5         11.312         17.703       -999.250        0.02415        0.01610
        13241.0         11.314         21.420       -999.250        0.01422        0.00377
        13241.5         11.316         20.260       -999.250        0.00428        0.00170
        13242.0         11.318         17.145       -999.250        0.00227        0.00081
        13242.5         11.321         18.083       -999.250        0.00166       -0.00008
        13243.0         11.323         19.029       -999.250        0.00808       -0.00097
        13243.5         11.325         18.345       -999.250        0.01382       -0.00167
        13244.0         11.328         17.561       -999.250        0.01331       -0.00086
        13244.5         11.330         17.196       -999.250        0.01279       -0.00006
        13245.0         11.332         19.186       -999.250        0.01558        0.00191
        13245.5         11.335         21.177       -999.250        0.02239        0.00922
        13246.0         11.337         22.930       -999.250        0.02414        0.01653
        13246.5         11.339         23.985       -999.250        0.03260        0.02385
        13247.0         11.341         24.170       -999.250        0.02751        0.03071
        13247.5         11.344         22.917       -999.250        0.01933        0.02306
        13248.0         11.346         21.527       -999.250        0.01115        0.01540
        13248.5         11.348         20.137       -999.250        0.00526        0.00775
        13249.0         11.351         20.993       -999.250       -0.00060        0.00015
        13249.5         11.353         21.994       -999.250       -0.00193        0.00057
        13250.0         11.355         22.442       -999.250       -0.00267        0.00044
        13250.5         11.357         22.360       -999.250       -0.00341        0.00023
