###############################################
##         ENVERUS                           ##
##         ESS - Open Hole                   ##
##         PERMIAN / DELAWARE                ##
##         Nov 04 2023  V4.0                 ##
##         42-389-32730-00-00                ##
###############################################
## Copyright 2017-2023  ENVERUS.  All Rights Reserved. 
## Confidential - Property of ENVERUS, use governed by terms and 
## conditions found within the existing Information Services Subscription Agreement 
## (as may be amended, the “ISSA”) between Customer and ENVERUS. 
## 
~VERSION INFORMATION
# MNEM.UNIT                               DATA : DESCRIPTION OF MNEMONIC
#-----.-----     ----------------------------- : -----------------------------
VERS.                                     2.00 : CWLS LOG ASCII STANDARD - VERSION 2.00
WRAP.                                       NO : MULTIPLE LINES PER DEPTH STEP
VEND.                                  ENVERUS : VENDOR
TYPE.                          ESS - OPEN HOLE : ENVERUS ESSENTIAL CURVES – ACCESSIBLE THROUGH ENVERUS PRISM(TM)
DOC.                                  19552736 : ENVERUS HEADER RAW DOCUMENT ID
#___________________________________________________________________________________________________ 
~WELL INFORMATION 
# Emv0q1Fc4UOVqi1FEPTQ50pHgS2U6oO6A9wxQf5ozJtTAVTQXtUhuyCOytio7eHVwvke0CQF/LYkoyLsbhUTsQ== 
# MNEM.UNIT                                              DATA : DESCRIPTION OF MNEMONIC 
#-----.-----                    ----------------------------- : ----------------------------- 
CNTY.                                                  REEVES : COUNTY 
STATE.                                                  TEXAS : STATE 
CNTRY.                                                    USA : COUNTRY 
API.                                             42-389-32730 : API (10 Digit) 
API_14.                                    42-389-32730-00-00 : API (14 Digits) 
API_14_std.                                 42-389-32730-0000 : API (14 Digits Standard) 
UWI.                                           42389327300000 : UNIQUE WELL ID 
WELL.                                  BIG SKY 55 - 16 NO. 1H : WELL NAME
STRT.FT                                                3850.0 : START DEPTH
STOP.FT                                               12070.5 : STOP DEPTH
STEP.FT                                                   0.5 : STEP BETWEEN DEPTHS
NULL.                                                 -999.25 : NULL VALUE
COMP.                                      CIMAREX ENERGY CO. : COMPANY 
FLD.                                                  WILDCAT : FIELD 
SRVC.                                             HALLIBURTON : SERVICE COMPANY 
DATE.                                              03/23/2011 : DATE 
TVD.                                                       NO : TVD FLAG 
WSTA.                                                     LOC : WELL STATUS
#___________________________________________________________________________________________________ 
~PARAMETER INFORMATION 
# MNEM.UNIT                                              DATA : DESCRIPTION OF MNEMONIC 
#-----.-----                    ----------------------------- : ----------------------------- 
RUN.                                                      ONE : RUN NUMBER 
PDAT.                                                      GL : PERMANENT DATUM 
EPD.FT                                              2996.0000 : ELEVATION OF PERM. DATUM 
LMF.                                            KELLY BUSHING : LOG MEASURED FROM 
EKB.FT                                              3021.0000 : ELEVATION OF KELLY BUSHING 
DF.FT                                               3020.0000 : ELEVATION OF DERRICK FLOOR 
GL.FT                                               2996.0000 : ELEVATION OF GROUND LEVEL 
TD.FT                                              12100.0000 : TOTAL DEPTH 
CSGD.FT                                                  3861 : CASING BOTTOM (DRILLER) 1 
CSGL.FT                                                  3855 : CASING BOTTOM (LOGGER) 1 
MUD.                                                    BRINE : DRILLING FLUID TYPE 
MUDV.CP                                               36.0000 : DRILLING FLUID VISCOSITY 
MUDD.LB/USG                                           10.1000 : DRILLING FLUID DENSITY 
PH.                                                   10.0000 : DRILLING FLUID PH 
MUDS.                                                FLOWLINE : MUD SAMPLE SOURCE 
RM.OHMM                                                0.0600 : RESISTIVITY OF MUD SAMPLE 
RMT.DEGF                                              75.0000 : MUD SAMPLE TEMPERATURE 
RMF.OHMM                                               0.0400 : MUD FILTRATE RESISTIVITY 
RMFT.DEGF                                             75.0000 : MUD FILTRATE SAMPLE TEMPERATURE 
RMC.OHMM                                               0.0600 : MUD CAKE RESISTIVITY 
RMCT.DEGF                                             75.0000 : MUD CAKE SAMPLE TEMPERATURE 
RMB.OHMM                                               0.0240 : MUD RESISTIVITY AT BHT 
TMAX.DEGF                                            200.0000 : BOTTOM HOLE TEMPERATURE
#___________________________________________________________________________________________________ 
~CURVE INFORMATION 
# MNEM.UNIT           : CURVE DESCRIPTION 
#-----.-----          : ----------------------------- 
 DEPT.FT               : MEASURED DEPTH 
 GR.API                : GAMMA RAY (GAMMA RAY) 
 DT.US/FT              : SONIC DELTA TRANSIT TIME (DELTA T) 
 RESD_LL.OHMM          : DEEP LATEROLOG (LLD - DEEP LATEROLOG) 
 DPHI.V/V              : DENSITY POROSITY (DENSITY POROSITY) 
 NPHI.V/V              : NEUTRON POROSITY (NEUTRON POROSITY) 
 #___________________________________________________________________________________________________ 
~A         DEPT             GR             DT        RESD_LL           DPHI           NPHI
# ...
         6006.0         44.975         64.559        38.2750        0.06400        0.08700
         6006.5         37.339         61.977        42.3040        0.06200        0.06700
         6007.0         33.295         61.222        46.7670        0.05100        0.06000
         6007.5         33.224         61.510        51.7020        0.04600        0.06400
         6008.0         39.427         63.927        52.2230        0.07600        0.09100
         6008.5         47.067         66.140        46.6920        0.10600        0.11800
         6009.0         52.171         67.715        41.2310        0.12000        0.13300
         6009.5         50.892         67.715        36.4080        0.11700        0.13400
         6010.0         42.630         66.489        32.1500        0.10900        0.11900
         6010.5         34.195         65.535        29.2950        0.10500        0.10400
         6011.0         32.364         65.060        28.7210        0.10300        0.10100
         6011.5         29.965         65.017        27.9370        0.09600        0.09800
         6012.0         28.232         64.974        29.3480        0.08900        0.09500
         6012.5         27.687         64.931        32.5180        0.08400        0.09600
         6013.0         27.118         64.887        36.8750        0.08200        0.09700
         6013.5         26.568         64.844        42.2360        0.08100        0.10100
         6014.0         27.155         65.312        48.3750        0.07800        0.10300
         6014.5         31.481         66.517        53.6580        0.07300        0.10700
         6015.0         35.706         67.960        55.1600        0.07000        0.12100
         6015.5         39.136         69.279        56.0790        0.07300        0.12700
         6016.0         40.206         70.373        52.9510        0.08000        0.13200
         6016.5         41.287         71.381        52.2230        0.09300        0.13300
         6017.0         43.265         72.389        59.5040        0.11200        0.13500
         6017.5         47.772         73.806        68.7910        0.13300        0.14700
         6018.0         52.247         75.411        79.5270        0.14100        0.15900
         6018.5         53.674         74.928        91.9390        0.14600        0.15800
         6019.0         49.781         73.920        97.8160        0.13400        0.15400
         6019.5         40.867         72.912        97.3650        0.11200        0.15000
         6020.0         36.273         73.035        92.9750        0.09800        0.14900
         6020.5         40.581         74.434        88.7820        0.10000        0.16300
         6021.0         45.895         75.495        86.3580        0.11700        0.17400
         6021.5         49.757         75.942        92.6530        0.13400        0.18000
         6022.0         44.601         74.733        98.1550        0.13700        0.16900
         6022.5         36.694         73.487       103.3850        0.13200        0.14700
         6023.0         34.959         73.487        96.6050        0.12700        0.15700
         6023.5         37.364         74.172        87.6920        0.13100        0.16700
         6024.0         41.031         74.858        79.5820        0.13100        0.17900
         6024.5         42.885         75.229        72.2250        0.12300        0.19100
         6025.0         43.699         74.289        67.9350        0.12600        0.19200
         6025.5         44.377         73.658        64.8710        0.13800        0.18600
         6026.0         51.104         73.487        61.9460        0.14200        0.18100
         6026.5         63.682         75.276        60.5330        0.14100        0.18800
         6027.0         76.333         77.044        63.8110        0.14600        0.20400
         6027.5         83.001         77.733        70.9090        0.14900        0.20600
         6028.0         84.049         77.003        78.7960        0.14300        0.20300
         6028.5         69.700         74.389        87.5610        0.11200        0.19300
         6029.0         58.786         72.065        95.8060        0.08200        0.18300
         6029.5         47.515         70.507        93.4950        0.06300        0.17000
         6030.0         44.790         69.038        88.6310        0.05600        0.15600
         6030.5         43.146         69.038        84.0200        0.05800        0.16500
         6031.0         43.050         70.986        79.6490        0.06300        0.17100
         6031.5         42.351         71.188        75.5050        0.07300        0.16500
         6032.0         38.373         70.139        71.5760        0.07900        0.15900
         6032.5         34.398         68.407        67.8520        0.07600        0.13800
         6033.0         30.430         65.383        64.3220        0.06600        0.11000
         6033.5         26.466         62.543        63.6480        0.05700        0.07900
         6034.0         22.543         61.346        63.2820        0.05000        0.07200
         6034.5         20.272         60.194        62.8460        0.04100        0.06400
         6035.0         21.073         59.735        64.1040        0.04200        0.06400
         6035.5         21.822         59.403        66.0000        0.04700        0.06700
         6036.0         22.702         59.352        67.9510        0.04700        0.07100
         6036.5         24.151         59.299        69.9610        0.04500        0.07200
         6037.0         26.017         60.528        67.5650        0.05000        0.07300
         6037.5         36.160         62.778        64.7900        0.06200        0.09500
         6038.0         62.627         65.747        59.0160        0.07400        0.11800
         6038.5         61.985         70.000        51.8030        0.08600        0.14200
         6039.0         66.219         69.639        39.7310        0.08600        0.15500
         6039.5         56.454         68.234        31.9720        0.08600        0.13900
         6040.0         47.935         66.754        26.9860        0.08900        0.12500
         6040.5         39.408         65.853        22.7580        0.09700        0.11200
         6041.0         33.613         65.759        18.2460        0.10300        0.09900
         6041.5         31.823         65.867        18.2990        0.10800        0.09700
         6042.0         31.752         66.007        18.3880        0.11300        0.10300
         6042.5         32.507         66.167        18.4790        0.12000        0.10900
         6043.0         33.632         66.326        18.5700        0.13100        0.11500
         6043.5         34.712         66.485        17.7780        0.14200        0.11400
         6044.0         35.681         66.326        16.9300        0.15200        0.11200
         6044.5         36.635         66.100        15.8100        0.15700        0.11400
         6045.0         37.576         65.873        16.3250        0.15300        0.11600
         6045.5         37.507         65.306        17.7390        0.13400        0.11200
         6046.0         36.260         63.355        21.7320        0.11600        0.10500
         6046.5         32.563         61.196        26.9540        0.09700        0.08900
         6047.0         28.602         58.985        34.4750        0.07900        0.06900
         6047.5         24.633         57.948        30.0180        0.06300        0.04800
         6048.0         20.606         58.891        20.7520        0.06000        0.03800
         6048.5         20.046         60.871        14.3460        0.06600        0.05300
         6049.0         21.274         63.611         9.9180        0.11500        0.08600
         6049.5         23.968         66.125         7.2180        0.15800        0.09700
