#--------------------------------------------------#
#-------------------ENVERUS, INC.------------------#
#------------------WWW.ENVERUS.COM-----------------#
#------------------COPYRIGHT 2020------------------#
#--------------------------------------------------#
#THIS FILE MAY BE USED ONLY IN ACCORDANCE WITH A CURRENT SUBSCRIPTION AGREEMENT BETWEEN
#THE USER AND ENVERUS, INC. NO PART OF THIS FILE MAY BE REPRODUCED, USED, COPIED,
#MODIFIED, PROPAGATED, OR DISTRIBUTED EXCEPT IN ACCORDANCE WITH THE SUBSCRIPTION
#AGREEMENT. UNAUTHORIZED USE OR DISTRIBUTION OF ALL OR ANY PART OF THIS FILE MAY VIOLATE
#COPYRIGHT, TRADEMARK, AND/OR OTHER LAWS AND IS SUBJECT TO CIVIL AS WELL AS CRIMINAL
#SANCTIONS.
#--------------------------------------------------#
#THIS FILE IS PROVIDED "AS-IS" AND ALL WARRANTIES ARE EXPRESSLY DISCLAIMED, WHETHER
#EXPRESS, ORAL, IMPLIED, STATUTORY OR OTHERWISE, INCLUDING ANY IMPLIED WARRANTY OF FITNESS
#FOR A PARTICULAR PURPOSE, MERCHANTABILITY, TITLE OR NON-INFRINGEMENT, AND ANY WARRANTIES
#ARISING BY VIRTUE OF CUSTOM OF TRADE OR COURSE OF DEALING.  FURTHER, ENVERUS, INC.
#AND ITS LICENSORS DO NOT REPRESENT OR WARRANT THAT THIS FILE WILL MEET USER'S
#REQUIREMENTS OR ARE SUITABLE FOR USER'S NEEDS OR THAT THE DATA OR RESULTS PROVIDED IN
#CONJUNCTION THEREWITH ARE CORRECT, ACCURATE, TIMELY OR RELIABLE. THESE DISCLAIMERS SHALL
#APPLY REGARDLESS OF ANY FAILURE OF ESSENTIAL PURPOSE OF ANY LIMITED REMEDY.  SOME
#JURISDICTIONS DO NOT ALLOW THE EXCLUSION OF CERTAIN WARRANTIES SO SOME OF THE ABOVE
#EXCLUSIONS MAY NOT APPLY. IN NO EVENT SHALL ENVERUS, INC. OR ANY OF ITS AFFILIATES
#BE LIABLE UNDER ANY LEGAL THEORY, WHETHER IN TORT (INCLUDING WITHOUT LIMITATION
#NEGLIGENCE), CONTRACT, STRICT LIABILITY, STATUTORY OR OTHERWISE, FOR ANY SPECIAL,
#INCIDENTAL, CONSEQUENTIAL, EXEMPLARY, PUNITIVE OR INDIRECT DAMAGE OF ANY KIND, INCLUDING
#WITHOUT LIMITATION LOSS OF REVENUE, PROFITS, GOODWILL, USE, AND/OR DATA OR THE COST OF
#PROCUREMENT OF SUBSTITUTE GOODS OR SERVICES, EVEN IF APPRISED OF THE POSSIBILITY OF SUCH
#DAMAGES IN ADVANCE.
#--------------------------------------------------#

~VERSION INFORMATION
VERS. 2.0 : CWLS LOG ASCII STANDARD - VERSION 2.0
WRAP.  NO : ONE LINE PER DEPTH STEP
~WELL INFORMATION
#MNEMONIC     .UNIT              VALUE :DESCRIPTION
STRT       .FT                51 :START DEPTH
STOP       .FT                4494 :STOP DEPTH
STEP       .FT                   0.500 :STEP
NULL       .                  -999.990 :NULL
UWI        .              42389102200000 :UNIQUE WELL ID
API        .              42389102200000 :API NUMBER
COMP       .         GRUY PETROLEUM MANAGEMENT CO. :COMPANY
WELL       .        REEVES -AQ- FEE  2 :WELL
DATE       .                30-NOV-1992 :LOG DATE
~CURVE INFORMATION
#MNEMONIC     .UNIT      API CODE :CURVE DESCRIPTION
DEPTH       .FT                      :MEASURED DEPTH
CAL.INCH        UNKNOWN   :CAL
GR.API        UNKNOWN   :GR
DT.US/FT        UNKNOWN   :DT
~A    DEPTH    CAL    GR    DT
# ...
 2437.5     8.065   11.87   49.307
 2438     8.067   10.877   49.161
 2438.5     8.069   9.884   49.015
 2439     8.07   8.891   48.869
 2439.5     8.072   8.292   48.779
 2440     8.074   8.889   48.839
 2440.5     8.076   9.486   48.898
 2441     8.078   10.083   48.958
 2441.5     8.08   10.68   48.865
 2442     8.082   10.25   48.655
 2442.5     8.084   9.795   48.444
 2443     8.086   9.339   48.234
 2443.5     8.088   8.884   48.023
 2444     8.09   8.759   47.813
 2444.5     8.092   9.454   47.602
 2445     8.094   10.149   47.7
 2445.5     8.096   10.616   47.87
 2446     8.09   10.069   48.039
 2446.5     8.076   9.523   48.208
 2447     8.062   8.977   48.377
 2447.5     8.048   8.604   48.547
 2448     8.034   8.698   48.716
 2448.5     8.02   8.792   48.812
 2449     8.006   8.886   48.776
 2449.5     7.992   8.98   48.741
 2450     7.978   8.573   48.706
 2450.5     7.975   8.159   48.679
 2451     7.974   8.337   48.859
 2451.5     7.974   8.842   49.038
 2452     7.974   9.348   49.217
 2452.5     7.973   9.853   49.302
 2453     7.973   10.359   49.18
 2453.5     7.973   10.864   49.058
 2454     7.973   11.37   48.936
 2454.5     7.972   11.324   48.814
 2455     7.972   10.983   48.744
 2455.5     7.972   10.642   48.752
 2456     7.971   10.301   48.761
 2456.5     7.971   9.96   48.769
 2457     7.971   9.619   48.778
 2457.5     7.971   9.2   48.786
 2458     7.97   8.665   48.795
 2458.5     7.97   8.13   48.803
 2459     7.97   7.596   48.873
 2459.5     7.969   7.061   49.052
 2460     7.969   7.948   49.232
 2460.5     7.969   11.347   49.411
 2461     7.969   12.232   49.428
 2461.5     7.968   13.228   49.351
 2462     7.968   14.291   49.274
 2462.5     7.968   15.353   49.197
 2463     7.967   16.416   49.12
 2463.5     7.967   16.17   49.042
 2464     7.967   15.508   48.965
 2464.5     7.967   14.509   48.888
 2465     7.966   13.023   48.811
 2465.5     7.966   12.261   48.734
 2466     7.966   12.414   48.657
 2466.5     7.965   12.568   48.58
 2467     7.965   12.721   48.654
 2467.5     7.965   12.323   48.741
 2468     7.965   11.471   48.828
 2468.5     7.964   10.62   48.914
 2469     7.964   10.255   49.001
 2469.5     7.964   10.008   49.088
 2470     7.963   9.734   49.131
 2470.5     7.963   9.429   48.816
 2471     7.963   9.124   48.502
 2471.5     7.963   8.819   48.188
 2472     7.962   8.514   47.874
 2472.5     7.962   8.302   47.838
 2473     7.962   8.238   47.859
 2473.5     7.961   8.174   47.88
 2474     7.961   8.11   47.901
 2474.5     7.961   8.046   47.923
 2475     7.959   7.982   47.944
 2475.5     7.957   8.112   47.975
 2476     7.955   8.408   48.315
 2476.5     7.953   8.704   48.655
 2477     7.951   8.999   48.996
 2477.5     7.949   9.295   49.336
 2478     7.947   9.161   49.315
 2478.5     7.945   8.963   49.108
 2479     7.943   10.428   48.901
 2479.5     7.941   12.034   48.694
 2480     7.939   12.666   48.486
 2480.5     7.937   12.669   48.279
 2481     7.935   12.97   48.237
 2481.5     7.933   14.083   48.344
 2482     7.931   14.608   48.451
 2482.5     7.929   13.958   48.559
 2483     7.927   13.308   48.666
 2483.5     7.925   12.658   48.774
 2484     7.923   12.008   48.782
 2484.5     7.921   11.576   48.584
 2485     7.919   11.811   48.386
 2485.5     7.917   12.045   48.188
 2486     7.915   12.28   47.99
 2486.5     7.913   12.514   47.948
 2487     7.911   12.439   48.127
 2487.5     7.909   11.022   48.307
 2488     7.907   9.604   48.486
 2488.5     7.905   8.72   48.665
 2489     7.903   8.523   48.844
 2489.5     7.901   8.968   49.023
 2490     7.899   10.092   49.203
 2490.5     7.897   11.217   49.382
 2491     7.895   12.338   49.183
 2491.5     7.876   12.429   48.833
 2492     7.846   12.52   48.484
 2492.5     7.815   12.611   48.134
 2493     7.784   12.703   48.148
 2493.5     7.753   12.794   48.622
 2494     7.722   12.885   49.097
 2494.5     7.725   12.764   49.418
 2495     7.728   12.298   49.387
 2495.5     7.731   11.832   49.356
 2496     7.734   11.367   49.325
 2496.5     7.737   10.901   49.294
 2497     7.74   10.435   49.263
 2497.5     7.744   10.018   49.232
 2498     7.747   9.93   49.201
 2498.5     7.739   9.842   48.931
 2499     7.711   9.754   48.635
 2499.5     7.682   9.665   48.338
 2500     7.654   10.989   48.042
 2500.5     7.626   12.583   47.883
 2501     7.628   13.883   47.809
 2501.5     7.631   13.36   47.736
 2502     7.634   12.837   47.663
 2502.5     7.637   12.313   47.589
 2503     7.639   11.79   47.516
 2503.5     7.642   11.267   47.555
 2504     7.645   10.744   47.729
 2504.5     7.648   10.221   47.903
 2505     7.65   10.79   48.076
 2505.5     7.653   11.174   48.25
 2506     7.656   11.043   48.424
 2506.5     7.659   10.912   48.598
 2507     7.661   10.782   48.588
 2507.5     7.664   10.651   48.466
 2508     7.667   10.52   48.344
 2508.5     7.669   11.052   48.222
 2509     7.672   11.869   48.1
 2509.5     7.675   12.685   47.978
 2510     7.678   13.502   47.856
 2510.5     7.68   14.318   47.735
 2511     7.683   14.379   47.613
 2511.5     7.686   14.048   47.646
 2512     7.689   13.717   47.919
 2512.5     7.691   13.386   48.191
 2513     7.694   13.055   48.464
 2513.5     7.697   13.2   48.732
 2514     7.7   13.357   48.851
 2514.5     7.702   13.515   48.971
 2515     7.705   13.672   49.09
 2515.5     7.706   13.829   49.209
 2516     7.704   12.884   49.329
 2516.5     7.702   11.836   49.448
 2517     7.699   10.787   49.34
 2517.5     7.697   10.384   49.185
 2518     7.695   11.016   49.03
 2518.5     7.693   11.647   48.875
 2519     7.69   11.915   48.72
 2519.5     7.688   11.237   48.565
 2520     7.686   10.559   48.439
 2520.5     7.684   9.881   48.701
 2521     7.681   9.203   48.963
 2521.5     7.679   10.134   49.226
 2522     7.677   11.106   49.226
 2522.5     7.675   12.079   49.213
 2523     7.672   13.051   49.201
 2523.5     7.67   14.023   49.189
 2524     7.668   13.668   49.176
 2524.5     7.666   13.227   49.164
 2525     7.663   12.785   49.151
 2525.5     7.661   12.768   49.139
 2526     7.659   13.329   49.127
 2526.5     7.657   13.89   49.114
 2527     7.654   14.452   49.102
 2527.5     7.652   14.38   49.089
 2528     7.65   14.541   49.077
 2528.5     7.648   15.191   49.064
 2529     7.646   15.842   49.052
 2529.5     7.643   15.745   49.04
 2530     7.641   15.248   49.027
 2530.5     7.639   14.751   49.015
 2531     7.637   14.254   49.002
 2531.5     7.634   14.145   48.964
 2532     7.632   14.752   48.919
 2532.5     7.63   15.052   48.874
 2533     7.628   14.911   48.83
 2533.5     7.625   14.771   48.785
 2534     7.623   15.762   48.74
 2534.5     7.621   17.283   48.695
 2535     7.619   18.803   48.626
 2535.5     7.617   19.909   48.557
 2536     7.616   20.731   48.488
 2536.5     7.615   21.552   48.42
 2537     7.615   21.899   48.351
 2537.5     7.614   21.751   48.282
 2538     7.614   21.604   48.213
 2538.5     7.613   21.456   48.145
 2539     7.612   20.576   48.076
 2539.5     7.612   19.187   48.036
 2540     7.611   17.797   48.14
 2540.5     7.611   16.408   48.244
 2541     7.61   16.034   48.348
 2541.5     7.609   16.181   48.452
 2542     7.609   16.327   48.555
 2542.5     7.608   15.613   48.659
 2543     7.608   14.839   48.763
 2543.5     7.607   14.066   48.867
 2544     7.606   13.086   48.971
 2544.5     7.606   11.809   49.074
 2545     7.605   10.532   49.178
 2545.5     7.605   9.773   49.282
 2546     7.604   9.276   49.386
 2546.5     7.603   8.779   49.49
 2547     7.603   8.282   49.434
 2547.5     7.602   8.974   49.362
 2548     7.601   10.049   49.291
 2548.5     7.601   11.124   49.22
 2549     7.6   11.235   49.149
 2549.5     7.6   10.849   49.077
 2550     7.599   10.463   49.006
 2550.5     7.59   10.182   49.033
 2551     7.574   10.519   49.153
 2551.5     7.557   10.857   49.153
 2552     7.541   11.195   49.092
 2552.5     7.524   11.058   49.031
 2553     7.508   10.661   48.97
 2553.5     7.492   11.181   48.909
