#--------------------------------------------------#
#-------------------ENVERUS, INC.------------------#
#------------------WWW.ENVERUS.COM-----------------#
#------------------COPYRIGHT 2020------------------#
#--------------------------------------------------#
#THIS FILE MAY BE USED ONLY IN ACCORDANCE WITH A CURRENT SUBSCRIPTION AGREEMENT BETWEEN
#THE USER AND ENVERUS, INC. NO PART OF THIS FILE MAY BE REPRODUCED, USED, COPIED,
#MODIFIED, PROPAGATED, OR DISTRIBUTED EXCEPT IN ACCORDANCE WITH THE SUBSCRIPTION
#AGREEMENT. UNAUTHORIZED USE OR DISTRIBUTION OF ALL OR ANY PART OF THIS FILE MAY VIOLATE
#COPYRIGHT, TRADEMARK, AND/OR OTHER LAWS AND IS SUBJECT TO CIVIL AS WELL AS CRIMINAL
#SANCTIONS.
#--------------------------------------------------#
#THIS FILE IS PROVIDED "AS-IS" AND ALL WARRANTIES ARE EXPRESSLY DISCLAIMED, WHETHER
#EXPRESS, ORAL, IMPLIED, STATUTORY OR OTHERWISE, INCLUDING ANY IMPLIED WARRANTY OF FITNESS
#FOR A PARTICULAR PURPOSE, MERCHANTABILITY, TITLE OR NON-INFRINGEMENT, AND ANY WARRANTIES
#ARISING BY VIRTUE OF CUSTOM OF TRADE OR COURSE OF DEALING.  FURTHER, ENVERUS, INC.
#AND ITS LICENSORS DO NOT REPRESENT OR WARRANT THAT THIS FILE WILL MEET USER'S
#REQUIREMENTS OR ARE SUITABLE FOR USER'S NEEDS OR THAT THE DATA OR RESULTS PROVIDED IN
#CONJUNCTION THEREWITH ARE CORRECT, ACCURATE, TIMELY OR RELIABLE. THESE DISCLAIMERS SHALL
#APPLY REGARDLESS OF ANY FAILURE OF ESSENTIAL PURPOSE OF ANY LIMITED REMEDY.  SOME
#JURISDICTIONS DO NOT ALLOW THE EXCLUSION OF CERTAIN WARRANTIES SO SOME OF THE ABOVE
#EXCLUSIONS MAY NOT APPLY. IN NO EVENT SHALL ENVERUS, INC. OR ANY OF ITS AFFILIATES
#BE LIABLE UNDER ANY LEGAL THEORY, WHETHER IN TORT (INCLUDING WITHOUT LIMITATION
#NEGLIGENCE), CONTRACT, STRICT LIABILITY, STATUTORY OR OTHERWISE, FOR ANY SPECIAL,
#INCIDENTAL, CONSEQUENTIAL, EXEMPLARY, PUNITIVE OR INDIRECT DAMAGE OF ANY KIND, INCLUDING
#WITHOUT LIMITATION LOSS OF REVENUE, PROFITS, GOODWILL, USE, AND/OR DATA OR THE COST OF
#PROCUREMENT OF SUBSTITUTE GOODS OR SERVICES, EVEN IF APPRISED OF THE POSSIBILITY OF SUCH
#DAMAGES IN ADVANCE.
#--------------------------------------------------#

# EXPORTED FROM DI TRANSFORM
# DI TRANSFORM - A PRODUCT OF DRILLINGINFO, INC. - WWW.DRILLINGINFO.COM
#
~VERSION INFORMATION
 VERS.        2.0 : LAS ASCII STANDARD - VERSION 2.0
 WRAP.         NO : ONE LINE PER DEPTH STEP

~WELL INFORMATION
#MNEM.UNIT       DATA TYPE       INFORMATION
#---------       ---------       -----------
 STRT.FT          3310 : START DEPTH
 STOP.FT         11910 : STOP DEPTH
 STEP.FT           0.5 : STEP LENGTH
 NULL.         -999.25 : NULL VALUE
 UWI.   42389328760000 : UNIQUE WELL ID
 API.   42389328760000 : WELL IDENTIFIER
 COMP.                 : COMPANY
 WELL.          DRD_55 : WELL NAME
 FLD.                  : FIELD NAME
 LOC.                  : WELL LOCATION
 CNTY.                 : COUNTY
 STAT.                 : STATE OR PROVINCE
 CTRY.                 : COUNTRY
 SRVC.                 : SERVICE COMPANY
 DATE.                 : DATE

~CURVE INFORMATION
#MNEM.UNIT       API CODE       CURVE DESCRIPTION
#---------       --------       -----------------
 DEPT.FT        : <MEASURED DEPTH>
 CAL.IN         : CALIPER
 DT.US/FT       : SONIC
 GR.GAPI        : GAMMA RAY
 ILD.OHMM       : DEEP RESISTIVITY
 ILS.OHMM       : SHALLOW RESISTIVITY

~PARAMETER INFORMATION
#MNEM.UNIT       VALUE       DESCRIPTION
#---------       -----       -----------
 EKB.FT      3168.5 : ELEVATION ABOVE MSL

~A       DEPT         CAL          DT          GR         ILD         ILS
# ...
         9523      8.4701      67.767     80.2339     18.3195     15.2482
       9523.5      8.4701     68.6405       99.21     16.2159     13.3973
         9524      8.4701      69.514    100.4531     15.7473     13.3081
       9524.5      8.4701     70.5558      97.114     15.5888      13.177
         9525      8.4701     71.3672     95.0199     16.1211     12.8782
       9525.5      8.4701     70.0983     93.0201     17.9887       12.85
         9526      8.4701     67.3701     79.4087     31.6458     22.0688
       9526.5      8.4701     64.8535      65.342     37.2374     35.1734
         9527      8.4701     63.1826     53.0837     39.6539     37.3545
       9527.5      8.4701     61.8527     48.0732     43.1569     41.8506
         9528      8.4701     61.5152     64.0736     37.8616     20.1671
       9528.5      8.4701     64.0487      89.609     12.2582     10.7744
         9529      8.4701     67.7282    103.2792     11.6252     10.0531
       9529.5      8.4701      70.341    101.5345     11.0479      9.7283
         9530      8.4701     70.7035     99.2129      10.201      9.2382
       9530.5      8.4701     69.7454     97.0783     10.5402      9.0776
         9531      8.4701     67.8442      93.887     11.1971      9.8954
       9531.5      8.4701     64.9045     83.2012     12.7989     11.7136
         9532      8.4701     62.1693     69.8348      18.749     22.7654
       9532.5      8.4701     61.0541     47.8505     37.1033     48.1184
         9533      8.4701     60.0797     45.5899     41.4963     39.4931
       9533.5      8.4701     61.1967     50.7857     25.8088     23.5417
         9534      8.4701     64.1707     63.5688     21.6161     15.9231
       9534.5      8.4701     66.5987     81.6647     14.9474     10.4846
         9535      8.4701     68.6715     97.2681     11.0952     10.4645
       9535.5      8.4701     69.4859    102.0251     11.8121     11.0831
         9536      8.4701     70.0537     97.2256     13.5296     13.3075
       9536.5      8.4701     70.0533     91.6816     15.8626     15.1701
         9537      8.4701      69.968     95.6802     14.2273     13.5436
       9537.5      8.4701     69.8826     99.7194     12.4917     11.0395
         9538      8.4701     69.6304    103.5204     12.6522     10.9212
       9538.5      8.4701     68.2979     99.9173     14.5176     11.4512
         9539      8.4701     66.9654     71.3135     25.7917     18.5265
       9539.5      8.4701     65.2137     53.7597     55.9602     41.7745
         9540      8.4701     62.7804     47.8888     71.5306     66.5896
       9540.5      8.4701      61.179     48.7635     81.8256     80.2761
         9541      8.4701     60.4948     60.7107     72.1696     54.3641
       9541.5      8.4701     60.5258     74.9919     28.7649     19.8254
         9542      8.4701     62.8432      82.572     15.4277     12.1545
       9542.5      8.4701     64.8266     89.7771     14.7491     11.7097
         9543      8.4701      66.502     94.6821     14.2146     11.3531
       9543.5      8.4701     67.5192     84.5171     15.6391     14.5573
         9544      8.4701     67.0557     75.7084     20.4979     17.7775
       9544.5      8.4701     66.9928     70.5021      21.638     18.2444
         9545      8.4701     67.0665     75.0904     20.7687     18.3825
       9545.5      8.4701     67.6093     85.1475     19.0554     16.4179
         9546      8.4701      68.488     91.5026     16.6619     14.0891
       9546.5      8.4701     70.3085     87.3231     17.0771     14.0047
         9547      8.4701     71.1196     86.3449     17.4144     13.9802
       9547.5      8.4701     71.2931     88.4796     17.4235     14.2396
         9548      8.4701      71.351     91.6483     18.2619     15.1993
       9548.5      8.4701     71.3022     90.0308     19.0981     15.9163
         9549      8.4701     70.2207     84.4774     19.4539     15.8325
       9549.5      8.4701     69.1392     82.5923     19.0981      15.434
         9550      8.4701      67.336     84.1127     19.7251     14.9307
       9550.5      8.4701     65.2714     83.3155     21.0226     15.4788
         9551      8.4701     63.0992     76.0303     24.6192     18.3087
       9551.5      8.4701     60.8462     59.1636     25.8415     28.8144
         9552      8.4701     60.1821     47.2484     51.9146     45.9264
       9552.5      8.4701     59.9506     43.1703     60.2739     43.7074
         9553      8.4701     60.9092     48.7369     47.9485     30.7252
       9553.5      8.4701     61.8678     57.3118     27.9616     21.6956
         9554      8.4701     63.0825      70.709     20.6022     16.5114
       9554.5      8.4701      64.336     89.5095     18.5274       13.29
         9555      8.4701     65.0753     97.5805     18.0693     13.9018
       9555.5      8.4701     65.6001      91.589     17.5008     14.4588
         9556      8.4701      66.125     84.9102      17.096      14.151
       9556.5      8.4701     66.4383      87.362      17.096     13.1232
         9557      8.4701     66.3804     96.8981     16.8978     12.6696
       9557.5      8.4701     66.3224     95.1271     18.0251     17.7866
         9558      8.4701     66.5071       85.54      18.593      18.333
       9558.5      8.4701     66.2998     76.6338     17.0971     15.3195
         9559      8.4701     66.7542     83.9717     14.6483     13.1701
       9559.5      8.4701     67.6469     96.4227     10.9602      9.4024
         9560      8.4701     69.1069    100.8537     10.7041      9.3114
       9560.5      8.4701     70.3106    102.8935     10.7769      9.4495
         9561      8.4701     70.9189    102.7909     10.6351      9.1142
       9561.5      8.4701     70.5758    101.7191     10.9109      9.1327
         9562      8.4701      69.055     96.9167     12.9788     10.6355
       9562.5      8.4701     68.0572     91.9501     14.7491      12.912
         9563      8.4701     67.1447     79.5884     13.2813     13.6909
       9563.5      8.4701     66.6396     76.9687     12.0461     10.5898
         9564      8.4701     66.6034     93.3609      9.8268      7.7866
       9564.5      8.4701     67.5622     94.2763      9.2484      7.2337
         9565      8.4701     69.5088      92.449      8.8664      7.1545
       9565.5      8.4701      70.942     91.6131      8.4997       7.468
         9566      8.4701     71.0044     94.2673      8.2469      7.5012
       9566.5      8.4701     71.0668      96.198      8.1706       7.302
         9567      8.4701     70.5617     92.1837      8.0211      7.3115
       9567.5      8.4701     69.8317      86.613      8.6826      7.4148
         9568      8.4701      69.345     79.9694     10.6154      8.8298
       9568.5      8.4701     68.9395       74.95     11.3657     10.6452
         9569      8.4701     69.4872      77.301     11.6026     11.0394
       9569.5      8.4701     70.1276     82.3967     11.8188     10.8818
         9570      8.4701     70.5418     88.6476     10.9241      8.4617
       9570.5      8.4701      70.925      94.807     10.6027      7.7092
         9571      8.4701      70.925     96.7669     11.5181      8.3187
       9571.5      8.4701     69.3769     93.6444     12.3305      9.7402
         9572      8.4701     67.8664     81.4073     15.6545     13.7977
       9572.5      8.4701     66.3917     67.1486     18.8305     14.2648
         9573      8.4701     63.6947     67.8423      17.867     11.4024
       9573.5      8.4701      63.429     84.5486     15.2136     10.0379
         9574      8.4701     65.3589     98.6209      14.119     10.1782
       9574.5      8.4701     66.6837     92.3216     21.8198      13.781
         9575      8.4701     67.5758     74.3885     37.5186     29.1705
       9575.5      8.4701     66.7629      63.799     46.5684     51.0793
         9576      8.4701     65.9809     58.6003     49.7161      49.541
       9576.5      8.4701     66.7963      63.587       32.42     23.0747
         9577      8.4701     69.2318     78.9673     10.6365      7.6327
