#--------------------------------------------------#
#-------------------ENVERUS, INC.------------------#
#------------------WWW.ENVERUS.COM-----------------#
#------------------COPYRIGHT 2020------------------#
#--------------------------------------------------#
#THIS FILE MAY BE USED ONLY IN ACCORDANCE WITH A CURRENT SUBSCRIPTION AGREEMENT BETWEEN
#THE USER AND ENVERUS, INC. NO PART OF THIS FILE MAY BE REPRODUCED, USED, COPIED,
#MODIFIED, PROPAGATED, OR DISTRIBUTED EXCEPT IN ACCORDANCE WITH THE SUBSCRIPTION
#AGREEMENT. UNAUTHORIZED USE OR DISTRIBUTION OF ALL OR ANY PART OF THIS FILE MAY VIOLATE
#COPYRIGHT, TRADEMARK, AND/OR OTHER LAWS AND IS SUBJECT TO CIVIL AS WELL AS CRIMINAL
#SANCTIONS.
#--------------------------------------------------#
#THIS FILE IS PROVIDED "AS-IS" AND ALL WARRANTIES ARE EXPRESSLY DISCLAIMED, WHETHER
#EXPRESS, ORAL, IMPLIED, STATUTORY OR OTHERWISE, INCLUDING ANY IMPLIED WARRANTY OF FITNESS
#FOR A PARTICULAR PURPOSE, MERCHANTABILITY, TITLE OR NON-INFRINGEMENT, AND ANY WARRANTIES
#ARISING BY VIRTUE OF CUSTOM OF TRADE OR COURSE OF DEALING.  FURTHER, ENVERUS, INC.
#AND ITS LICENSORS DO NOT REPRESENT OR WARRANT THAT THIS FILE WILL MEET USER'S
#REQUIREMENTS OR ARE SUITABLE FOR USER'S NEEDS OR THAT THE DATA OR RESULTS PROVIDED IN
#CONJUNCTION THEREWITH ARE CORRECT, ACCURATE, TIMELY OR RELIABLE. THESE DISCLAIMERS SHALL
#APPLY REGARDLESS OF ANY FAILURE OF ESSENTIAL PURPOSE OF ANY LIMITED REMEDY.  SOME
#JURISDICTIONS DO NOT ALLOW THE EXCLUSION OF CERTAIN WARRANTIES SO SOME OF THE ABOVE
#EXCLUSIONS MAY NOT APPLY. IN NO EVENT SHALL ENVERUS, INC. OR ANY OF ITS AFFILIATES
#BE LIABLE UNDER ANY LEGAL THEORY, WHETHER IN TORT (INCLUDING WITHOUT LIMITATION
#NEGLIGENCE), CONTRACT, STRICT LIABILITY, STATUTORY OR OTHERWISE, FOR ANY SPECIAL,
#INCIDENTAL, CONSEQUENTIAL, EXEMPLARY, PUNITIVE OR INDIRECT DAMAGE OF ANY KIND, INCLUDING
#WITHOUT LIMITATION LOSS OF REVENUE, PROFITS, GOODWILL, USE, AND/OR DATA OR THE COST OF
#PROCUREMENT OF SUBSTITUTE GOODS OR SERVICES, EVEN IF APPRISED OF THE POSSIBILITY OF SUCH
#DAMAGES IN ADVANCE.
#--------------------------------------------------#

~VERSION INFORMATION
VERS. 2.0 : CWLS LOG ASCII STANDARD - VERSION 2.0
WRAP.  NO : ONE LINE PER DEPTH STEP
~WELL INFORMATION
#MNEMONIC     .UNIT              VALUE :DESCRIPTION
STRT       .FT                47 :START DEPTH
STOP       .FT                15730 :STOP DEPTH
STEP       .FT                   0.500 :STEP
NULL       .                  -999.250 :NULL
UWI        .              42389303580000 :UNIQUE WELL ID
API        .              42389303580000 :API NUMBER
COMP       .         CIMAREX ENERGY CO. OF COLORADO :COMPANY
WELL       .        REEVES  AZ  FEE  1 :WELL
DATE       .                08-JAN-2006 :LOG DATE
~CURVE INFORMATION
#MNEMONIC     .UNIT      API CODE :CURVE DESCRIPTION
DEPTH       .FT                      :MEASURED DEPTH
NEUT.API        UNKNOWN   :NEUT
GR.API        UNKNOWN   :GR
DT.US/FT        UNKNOWN   :DT
CAL.INCH        UNKNOWN   :CAL
~A    DEPTH    NEUT    GR    DT    CAL
# ...
 14954     519.283   69.72   -999.250   -999.250
 14954.5     519.275   74.369   -999.250   -999.250
 14955     519.268   77.16   -999.250   -999.250
 14955.5     504.569   76.56   -999.250   -999.250
 14956     497.974   76.143   -999.250   -999.250
 14956.5     495.604   81.766   -999.250   -999.250
 14957     493.235   82.329   -999.250   -999.250
 14957.5     490.866   82.893   -999.250   -999.250
 14958     482.528   82.626   -999.250   -999.250
 14958.5     469.849   79.671   -999.250   -999.250
 14959     443.661   76.716   -999.250   -999.250
 14959.5     417.473   75.445   -999.250   -999.250
 14960     391.285   73.871   -999.250   -999.250
 14960.5     365.097   68.612   -999.250   -999.250
 14961     338.909   63.353   -999.250   -999.250
 14961.5     476.106   58.095   -999.250   -999.250
 14962     510.999   52.474   -999.250   -999.250
 14962.5     521.317   49.66   -999.250   -999.250
 14963     527.475   52.394   -999.250   -999.250
 14963.5     533.633   55.128   -999.250   -999.250
 14964     539.791   56.961   -999.250   -999.250
 14964.5     544.044   56.534   -999.250   -999.250
 14965     545.809   56.106   -999.250   -999.250
 14965.5     547.574   55.678   -999.250   -999.250
 14966     550.95   55.25   -999.250   -999.250
 14966.5     554.486   55.173   -999.250   -999.250
 14967     558.022   56.909   -999.250   -999.250
 14967.5     560.591   58.646   -999.250   -999.250
 14968     556.333   60.383   -999.250   -999.250
 14968.5     552.091   62.817   -999.250   -999.250
 14969     548.605   65.376   -999.250   -999.250
 14969.5     545.119   67.936   -999.250   -999.250
 14970     541.633   68.416   -999.250   -999.250
 14970.5     538.147   66.909   -999.250   -999.250
 14971     537.463   66.753   -999.250   -999.250
 14971.5     541.101   67.281   -999.250   -999.250
 14972     544.738   66.591   -999.250   -999.250
 14972.5     551.291   65.572   -999.250   -999.250
 14973     561.424   64.553   -999.250   -999.250
 14973.5     571.556   63.207   -999.250   -999.250
 14974     581.689   58.011   -999.250   -999.250
 14974.5     591.821   54.55   -999.250   -999.250
 14975     601.953   55.534   -999.250   -999.250
 14975.5     589.057   56.517   -999.250   -999.250
 14976     575.715   52.899   -999.250   -999.250
 14976.5     562.374   45.017   -999.250   -999.250
 14977     549.032   44.246   -999.250   -999.250
 14977.5     540.156   43.475   -999.250   -999.250
 14978     539.441   45.904   -999.250   -999.250
 14978.5     538.725   51.107   -999.250   -999.250
 14979     534.629   56.631   -999.250   -999.250
 14979.5     531.025   62.155   -999.250   -999.250
 14980     534.304   62.789   -999.250   -999.250
 14980.5     537.582   58.237   -999.250   -999.250
 14981     540.861   60.19   -999.250   -999.250
 14981.5     544.14   62.143   -999.250   -999.250
 14982     543.987   63.384   -999.250   -999.250
 14982.5     540.673   62.58   -999.250   -999.250
 14983     537.359   61.777   -999.250   -999.250
 14983.5     534.045   60.973   -999.250   -999.250
 14984     535.373   62.365   -999.250   -999.250
 14984.5     538.377   65.599   -999.250   -999.250
 14985     541.382   68.832   -999.250   -999.250
 14985.5     544.386   72.066   -999.250   -999.250
 14986     547.391   75.3   -999.250   -999.250
 14986.5     547.596   73.293   -999.250   -999.250
 14987     546.525   69.576   -999.250   -999.250
 14987.5     545.455   71.103   -999.250   -999.250
 14988     544.385   68.74   -999.250   -999.250
 14988.5     545.872   66.326   -999.250   -999.250
 14989     550.117   63.912   -999.250   -999.250
 14989.5     554.362   63.041   -999.250   -999.250
 14990     558.606   56.598   -999.250   -999.250
 14990.5     558.415   56.892   -999.250   -999.250
 14991     556.281   57.796   -999.250   -999.250
 14991.5     551   58.699   -999.250   -999.250
 14992     543.552   58.421   -999.250   -999.250
 14992.5     535.244   58.462   -999.250   -999.250
 14993     515.246   58.814   -999.250   -999.250
 14993.5     495.248   59.166   -999.250   -999.250
 14994     475.25   57.427   -999.250   -999.250
 14994.5     455.251   50.6   -999.250   -999.250
 14995     438.433   50.853   -999.250   -999.250
 14995.5     430.877   50.389   -999.250   -999.250
 14996     429.098   47.859   -999.250   -999.250
 14996.5     427.319   45.329   -999.250   -999.250
 14997     425.54   45.803   -999.250   -999.250
 14997.5     423.761   49.184   -999.250   -999.250
 14998     426.115   52.564   -999.250   -999.250
 14998.5     431.777   54.293   -999.250   -999.250
 14999     437.439   55.053   -999.250   -999.250
 14999.5     443.101   56.828   -999.250   -999.250
 15000     441.671   61.209   -999.250   -999.250
 15000.5     438.12   61.988   -999.250   -999.250
 15001     434.569   62.03   -999.250   -999.250
 15001.5     431.018   62.071   -999.250   -999.250
 15002     427.467   62.112   -999.250   -999.250
 15002.5     423.916   62.057   -999.250   -999.250
 15003     422.817   61.487   -999.250   -999.250
 15003.5     424.581   60.916   -999.250   -999.250
 15004     426.346   60.345   -999.250   -999.250
 15004.5     428.11   59.774   -999.250   -999.250
 15005     429.875   58.168   -999.250   -999.250
 15005.5     429.648   56.531   -999.250   -999.250
 15006     426.603   55.469   -999.250   -999.250
 15006.5     423.558   54.698   -999.250   -999.250
 15007     420.513   55.148   -999.250   -999.250
 15007.5     417.468   57.956   -999.250   -999.250
 15008     414.423   58.35   -999.250   -999.250
 15008.5     413.538   55.569   -999.250   -999.250
 15009     414.594   53.232   -999.250   -999.250
 15009.5     415.58   53.514   -999.250   -999.250
 15010     396.425   53.795   -999.250   -999.250
 15010.5     385.168   53.731   -999.250   -999.250
 15011     376.65   52.981   -999.250   -999.250
 15011.5     368.133   52.993   -999.250   -999.250
 15012     359.615   53.836   -999.250   -999.250
 15012.5     322.618   54.68   -999.250   -999.250
 15013     284.422   55.523   -999.250   -999.250
 15013.5     246.226   55.004   -999.250   -999.250
 15014     208.03   50.303   -999.250   -999.250
 15014.5     199.164   49.864   -999.250   -999.250
 15015     199.157   49.933   -999.250   -999.250
 15015.5     199.15   50.061   -999.250   -999.250
 15016     199.143   50.785   -999.250   -999.250
 15016.5     199.135   51.508   -999.250   -999.250
 15017     199.128   52.232   -999.250   -999.250
 15017.5     199.121   55.591   -999.250   -999.250
 15018     199.114   59.609   -999.250   -999.250
 15018.5     199.107   58.615   -999.250   -999.250
 15019     199.099   57.064   -999.250   -999.250
 15019.5     199.092   61.481   -999.250   -999.250
 15020     199.085   65.283   -999.250   -999.250
 15020.5     199.078   63.231   -999.250   -999.250
 15021     199.071   61.845   -999.250   -999.250
 15021.5     199.063   62.409   -999.250   -999.250
 15022     199.056   62.972   -999.250   -999.250
 15022.5     199.049   62.91   -999.250   -999.250
 15023     199.042   62.053   -999.250   -999.250
 15023.5     199.035   61.806   -999.250   -999.250
 15024     199.027   66.059   -999.250   -999.250
 15024.5     199.02   67.338   -999.250   -999.250
 15025     199.013   67.166   -999.250   -999.250
 15025.5     293.057   62.79   -999.250   -999.250
 15026     397.444   60.645   -999.250   -999.250
 15026.5     466.481   59.5   -999.250   -999.250
 15027     471.788   57.839   -999.250   -999.250
 15027.5     477.095   52.837   -999.250   -999.250
 15028     472.157   50.867   -999.250   -999.250
 15028.5     465.161   49.736   -999.250   -999.250
 15029     458.165   48.604   -999.250   -999.250
 15029.5     428.953   47.472   -999.250   -999.250
 15030     396.989   46.34   -999.250   -999.250
 15030.5     380.52   46.714   -999.250   -999.250
 15031     390.289   47.767   -999.250   -999.250
 15031.5     385.468   47.455   -999.250   -999.250
 15032     332.653   46.813   -999.250   -999.250
 15032.5     269.157   46.231   -999.250   -999.250
