#--------------------------------------------------#
#-------------------ENVERUS, INC.------------------#
#------------------WWW.ENVERUS.COM-----------------#
#------------------COPYRIGHT 2020------------------#
#--------------------------------------------------#
#THIS FILE MAY BE USED ONLY IN ACCORDANCE WITH A CURRENT SUBSCRIPTION AGREEMENT BETWEEN
#THE USER AND ENVERUS, INC. NO PART OF THIS FILE MAY BE REPRODUCED, USED, COPIED,
#MODIFIED, PROPAGATED, OR DISTRIBUTED EXCEPT IN ACCORDANCE WITH THE SUBSCRIPTION
#AGREEMENT. UNAUTHORIZED USE OR DISTRIBUTION OF ALL OR ANY PART OF THIS FILE MAY VIOLATE
#COPYRIGHT, TRADEMARK, AND/OR OTHER LAWS AND IS SUBJECT TO CIVIL AS WELL AS CRIMINAL
#SANCTIONS.
#--------------------------------------------------#
#THIS FILE IS PROVIDED "AS-IS" AND ALL WARRANTIES ARE EXPRESSLY DISCLAIMED, WHETHER
#EXPRESS, ORAL, IMPLIED, STATUTORY OR OTHERWISE, INCLUDING ANY IMPLIED WARRANTY OF FITNESS
#FOR A PARTICULAR PURPOSE, MERCHANTABILITY, TITLE OR NON-INFRINGEMENT, AND ANY WARRANTIES
#ARISING BY VIRTUE OF CUSTOM OF TRADE OR COURSE OF DEALING.  FURTHER, ENVERUS, INC.
#AND ITS LICENSORS DO NOT REPRESENT OR WARRANT THAT THIS FILE WILL MEET USER'S
#REQUIREMENTS OR ARE SUITABLE FOR USER'S NEEDS OR THAT THE DATA OR RESULTS PROVIDED IN
#CONJUNCTION THEREWITH ARE CORRECT, ACCURATE, TIMELY OR RELIABLE. THESE DISCLAIMERS SHALL
#APPLY REGARDLESS OF ANY FAILURE OF ESSENTIAL PURPOSE OF ANY LIMITED REMEDY.  SOME
#JURISDICTIONS DO NOT ALLOW THE EXCLUSION OF CERTAIN WARRANTIES SO SOME OF THE ABOVE
#EXCLUSIONS MAY NOT APPLY. IN NO EVENT SHALL ENVERUS, INC. OR ANY OF ITS AFFILIATES
#BE LIABLE UNDER ANY LEGAL THEORY, WHETHER IN TORT (INCLUDING WITHOUT LIMITATION
#NEGLIGENCE), CONTRACT, STRICT LIABILITY, STATUTORY OR OTHERWISE, FOR ANY SPECIAL,
#INCIDENTAL, CONSEQUENTIAL, EXEMPLARY, PUNITIVE OR INDIRECT DAMAGE OF ANY KIND, INCLUDING
#WITHOUT LIMITATION LOSS OF REVENUE, PROFITS, GOODWILL, USE, AND/OR DATA OR THE COST OF
#PROCUREMENT OF SUBSTITUTE GOODS OR SERVICES, EVEN IF APPRISED OF THE POSSIBILITY OF SUCH
#DAMAGES IN ADVANCE.
#--------------------------------------------------#

# EXPORTED FROM DI TRANSFORM
# DI TRANSFORM - A PRODUCT OF DRILLINGINFO, INC. - WWW.DRILLINGINFO.COM
#
~VERSION INFORMATION
 VERS.        2.0 : LAS ASCII STANDARD - VERSION 2.0
 WRAP.         NO : ONE LINE PER DEPTH STEP

~WELL INFORMATION
#MNEM.UNIT       DATA TYPE       INFORMATION
#---------       ---------       -----------
 STRT.FT                3800 : START DEPTH
 STOP.FT               10654 : STOP DEPTH
 STEP.FT                 0.5 : STEP LENGTH
 NULL.               -999.25 : NULL VALUE
 UWI.         42389340250000 : UNIQUE WELL ID
 API.         42389340250000 : WELL IDENTIFIER
 COMP.                       : COMPANY
 WELL.  42389340250000_API14 : WELL NAME
 FLD.                        : FIELD NAME
 LOC.                        : WELL LOCATION
 CNTY.                       : COUNTY
 STAT.                       : STATE OR PROVINCE
 CTRY.                       : COUNTRY
 SRVC.                       : SERVICE COMPANY
 DATE.                       : DATE

~CURVE INFORMATION
#MNEM.UNIT       API CODE       CURVE DESCRIPTION
#---------       --------       -----------------
 DEPT.FT        : <MEASURED DEPTH>
 CAL.IN         : CALIPER
 DT.US/FT       : SONIC
 GR.GAPI        : GAMMA RAY

~PARAMETER INFORMATION
#MNEM.UNIT       VALUE       DESCRIPTION
#---------       -----       -----------
 EKB.FT      3120.5 : ELEVATION ABOVE MSL

~A      DEPT         CAL          DT          GR
# ...
        7408      9.5529     71.6067     95.9497
      7408.5      9.5729     72.2259     73.8011
        7409      9.5729     73.1149     67.9448
      7409.5      9.5729      73.859     62.0885
        7410      9.5729     73.2456     56.2322
      7410.5      9.5729     72.3298     50.3758
        7411      9.5729     72.2194     64.6919
      7411.5      9.5928     71.5948     89.1356
        7412      9.6192     71.6951    105.7782
      7412.5      9.6327     71.8957    114.3281
        7413      9.6727     71.4325    122.8781
      7413.5      9.7424     70.9252     131.428
        7414      9.7725     70.6185    109.4179
      7414.5      9.8124     70.4121     76.3413
        7415      9.8124     69.9048     43.2646
      7415.5      9.8124     69.2972     68.5387
        7416      9.7924     68.4962     95.8625
      7416.5      9.7556     66.7745    123.1807
        7417      9.6547     65.6433    128.9691
      7417.5      9.5928      64.408    134.0777
        7418      9.5928     64.1599    110.3872
      7418.5      9.5729     64.2526     86.6968
        7419      9.5729     64.3122     63.0063
      7419.5      9.5729     64.4698     71.8018
        7420      9.5729     65.1496      85.906
      7420.5      9.5729     66.8035    100.0103
        7421      9.5729     68.4575    114.1145
      7421.5      9.5529     70.0329    128.2188
        7422      9.5329     71.1211    130.4912
      7422.5      9.5329     71.1048    108.0067
        7423      9.5329      71.776     85.5221
      7423.5      9.5329     73.0277     63.0376
        7424      9.5329     71.4267      40.553
      7424.5      9.5329     70.9206     41.9057
        7425      9.5313     70.5913     60.6558
      7425.5      9.5154      69.056     77.0456
        7426       9.513     66.5355     84.3071
      7426.5       9.513     64.5848     84.3729
        7427       9.513     59.6884      74.742
      7427.5       9.513     55.8301      65.111
        7428       9.493     54.4732       55.48
      7428.5       9.493     54.1424     49.8943
        7429       9.493     53.8093     39.4572
      7429.5       9.513     53.4403     28.2038
        7430       9.513     53.4403     22.8556
      7430.5       9.513     53.6048     26.2451
        7431      9.5529     54.9637     29.7721
      7431.5      9.5529     57.7288       33.28
        7432      9.5329     58.8192     37.3037
      7432.5      9.5329     60.8368     99.3325
        7433      9.5529     62.4319    104.0688
      7433.5      9.5529     63.6697    106.7529
        7434        9.59     66.8208    116.5317
      7434.5      9.6128     68.9973    115.0032
        7435      9.5729     69.7212    109.0543
      7435.5      9.5529      70.714     99.3383
        7436      9.5329     71.2213     94.9364
      7436.5      9.5329     71.7286     85.1103
        7437      9.5329     71.8957     57.7712
      7437.5      9.5329       71.65     49.2289
        7438      9.5329     71.9509     36.6179
      7438.5      9.5329     74.5602     25.9809
        7439      9.5329     72.4975     20.0135
      7439.5      9.5231      74.002     16.0491
        7440       9.493     73.5005     10.2895
      7440.5       9.493     74.1617    100.6011
        7441       9.493      74.002    108.6066
      7441.5       9.493     74.3944    118.4144
        7442      9.5086     73.7072    125.5008
      7442.5      9.5329     73.8014    136.7458
        7443      9.5508     73.9017    141.7862
      7443.5      9.5529     74.1023    139.3299
        7444      9.5529      74.323      131.56
      7444.5      9.5529     74.6038    143.0302
        7445      9.5529     74.3715    139.1811
      7445.5      9.5765     73.6636    135.2059
        7446      9.5928     73.3136    139.7407
      7446.5      9.6128     72.5487     136.226
        7447      9.6128     72.0414    132.7112
      7447.5      9.6128     71.5948    129.1964
        7448      9.6128     71.5948    138.7987
      7448.5      9.6128     71.4222    141.5828
        7449      9.6128     71.0152    137.3149
      7449.5      9.6128     70.4076    133.0469
        7450      9.6128        69.8     140.608
      7450.5      9.6527     68.8915    138.3915
        7451      9.6727     69.0882    123.4545
      7451.5      9.6727     69.5955    116.2968
        7452      9.6727     69.7894    115.6019
      7452.5      9.7723     70.1906    124.0489
        7453      9.8124      70.315    132.4959
      7453.5      9.7304     71.0529    140.9428
        7454      9.7093     71.7309    143.7515
      7454.5      9.6926     72.2382    130.6809
        7455      9.6671     72.5978    117.6103
      7455.5      9.6327     72.3972     133.708
        7456      9.6406     71.4769    143.7256
      7456.5      9.6926     70.0966    138.5548
        7457      9.6926     68.7456    132.9286
      7457.5      9.6926      66.972     124.326
        7458      9.6926     65.3346    115.7234
      7458.5      9.6527     66.1263    107.1208
        7459      9.6527     62.6317     98.5182
      7459.5      9.6527     62.7683     89.9156
        7460      9.6527      62.668      76.652
      7460.5      9.6527     63.2128     60.2359
        7461      9.6527     64.6236     50.5366
      7461.5      9.6527     66.2021     64.1192
        7462      9.6527     68.0122     77.7017
      7462.5      9.6327     68.4192     91.2843
        7463      9.6128     68.7259    104.8669
      7463.5      9.6128     69.3335    118.4495
        7464      9.6128     70.2934    130.4953
      7464.5      9.6128     70.8496    127.8278
        7465      9.6041     71.7208    118.1907
      7465.5      9.5729     72.8672    105.7142
        7466      9.3177     73.4748    104.0798
      7466.5      8.9819     73.5005    111.8458
        7467       8.881     73.0131    119.6117
      7467.5      8.8487     72.0043    127.3777
        7468      8.9497      70.998    130.5676
      7468.5      9.0506     71.6885    113.7003
        7469      9.3359     70.4552      96.833
      7469.5      9.4137     69.4885     82.1357
        7470      9.4132     69.1876     75.1336
      7470.5      9.4132     68.7125     80.2903
        7471       9.493     69.1195     92.3397
      7471.5      9.5765     69.4885    104.3892
        7472      9.5928     69.6891    116.4387
      7472.5      9.5928     70.3395    128.4881
        7473      9.5928      71.806    140.5376
      7473.5      9.5928     72.2578    147.5701
        7474      9.5928     72.3972    143.4962
      7474.5      9.6128      72.525    139.4222
        7475      9.6128      72.118    135.3483
      7475.5      9.6128     71.2253    131.2743
        7476      9.6128     70.3211      99.041
      7476.5      9.6128     69.5973      89.633
        7477      9.6128      67.984     80.2251
      7477.5      9.6128     68.0916     86.8417
        7478      9.5742     68.6861     97.5199
      7478.5      9.5529     69.2254    108.1981
        7479      9.5329     70.0147    118.8763
      7479.5       9.535      70.522    129.5545
        7480      9.5529     71.3302    140.2328
      7480.5      9.5529     71.7954      132.26
        7481      9.5729     72.0963    139.4706
      7481.5      9.5729     72.1429    145.4216
        7482      9.5729     71.5761    136.3696
      7482.5      9.5729     70.7621    127.3176
        7483      9.5928     68.9743    118.2656
      7483.5      9.6128     68.1077    109.2136
        7484      9.6327     67.4174     93.6617
      7484.5      9.6527     66.6919     75.9231
        7485      9.7646     66.2849     66.7516
      7485.5      9.8266      65.577     97.1719
        7486      9.6357     65.0697    127.5922
      7486.5      9.5329     64.1226    121.6757
        7487      9.5329     64.9749    106.9712
      7487.5      9.5329     65.1755     92.2668
        7488      9.5329     65.3761     77.5624
      7488.5       9.513     65.9122     65.2074
        7489       9.513     66.1785     89.6815
      7489.5       9.513     66.2788    114.1555
