###############################################
##         ENVERUS                           ##
##         ESS - Open Hole                   ##
##         PERMIAN / DELAWARE                ##
##         Nov 04 2023  V4.0                 ##
##         42-389-31391-00-00                ##
###############################################
## Copyright 2017-2023  ENVERUS.  All Rights Reserved. 
## Confidential - Property of ENVERUS, use governed by terms and 
## conditions found within the existing Information Services Subscription Agreement 
## (as may be amended, the “ISSA”) between Customer and ENVERUS. 
## 
~VERSION INFORMATION
# MNEM.UNIT                               DATA : DESCRIPTION OF MNEMONIC
#-----.-----     ----------------------------- : -----------------------------
VERS.                                     2.00 : CWLS LOG ASCII STANDARD - VERSION 2.00
WRAP.                                       NO : MULTIPLE LINES PER DEPTH STEP
VEND.                                  ENVERUS : VENDOR
TYPE.                          ESS - OPEN HOLE : ENVERUS ESSENTIAL CURVES – ACCESSIBLE THROUGH ENVERUS PRISM(TM)
DOC.                                  23866972 : ENVERUS HEADER RAW DOCUMENT ID
#___________________________________________________________________________________________________ 
~WELL INFORMATION 
# fYFWm3OWRd9IdMsmH1sgiJ8+yI47SyIf11h8n9fSv2EtxvNnkQHcFoeZabdKB/2nhpfFDZXLrBDJ+4Q2ZBaHeQ== 
# MNEM.UNIT                                              DATA : DESCRIPTION OF MNEMONIC 
#-----.-----                    ----------------------------- : ----------------------------- 
CNTY.                                                  REEVES : COUNTY 
STATE.                                                  TEXAS : STATE 
CNTRY.                                                    USA : COUNTRY 
API.                                             42-389-31391 : API (10 Digit) 
API_14.                                    42-389-31391-00-00 : API (14 Digits) 
API_14_std.                                 42-389-31391-0000 : API (14 Digits Standard) 
UWI.                                           42389313910000 : UNIQUE WELL ID 
WELL.                                       DIXIELAND # 3 - 1 : WELL NAME
STRT.FT                                                4000.0 : START DEPTH
STOP.FT                                               12000.0 : STOP DEPTH
STEP.FT                                                   0.5 : STEP BETWEEN DEPTHS
NULL.                                                 -999.25 : NULL VALUE
COMP.                             R. K. PETROLEUM CORPORATION : COMPANY 
FLD.                                                  WILDCAT : FIELD 
DATE.                                              08/13/2015 : DATE 
TVD.                                                       NO : TVD FLAG 
WSTA.                                                     LOC : WELL STATUS
#___________________________________________________________________________________________________ 
~PARAMETER INFORMATION 
# MNEM.UNIT                                              DATA : DESCRIPTION OF MNEMONIC 
#-----.-----                    ----------------------------- : ----------------------------- 
RUN.                                                      ONE : RUN NUMBER 
PDAT.                                                      GL : PERMANENT DATUM 
LMF.                                            KELLY BUSHING : LOG MEASURED FROM
#___________________________________________________________________________________________________ 
~CURVE INFORMATION 
# MNEM.UNIT           : CURVE DESCRIPTION 
#-----.-----          : ----------------------------- 
 DEPT.FT               : MEASURED DEPTH 
 CALI.IN               : CALIPER (CALIPER) 
 GR.API                : GAMMA RAY (GAMMA RAY) 
 DT.US/FT              : SONIC DELTA TRANSIT TIME (DELTA-T) 
 RESD.OHMM             : DEEP INDUCTION RESISTIVITY (ILD - DEEP INDUCTION STANDARD PROCESSED RESISTIVITY) 
 RESD_LL.OHMM          : DEEP LATEROLOG (LLD - LATERO-LOG DEEP (RESISTIVITY)) 
 NPHI.V/V              : NEUTRON POROSITY (NEUTRON POROSITY) 
 #___________________________________________________________________________________________________ 
~A         DEPT           CALI             GR             DT           RESD        RESD_LL           NPHI
         4000.0         15.080         56.476         75.482       -999.250         3.7223        0.52173
         4000.5         15.080         56.476         75.482       -999.250         3.7223        0.52173
         4001.0         15.080         55.472         75.843       -999.250         3.7925        0.51771
         4001.5         15.080         52.962         75.120       -999.250         4.0111        0.50313
         4002.0         15.080         48.057         71.358       -999.250         4.1638        0.48738
         4002.5         15.079         43.668         71.232       -999.250         4.1638        0.29638
         4003.0         15.078         39.408         71.242       -999.250         4.0111        0.29235
         4003.5         15.102         39.482         71.524       -999.250         4.0602        0.27706
         4004.0         15.076         42.009         71.747       -999.250         4.1638        0.28819
         4004.5         15.076         44.838         73.578       -999.250         3.8640        0.32832
         4005.0         15.075         47.341         75.602       -999.250         3.8640        0.36846
         4005.5         15.074         53.387         76.687       -999.250         3.8640        0.43481
         4006.0         15.073         59.419         77.048       -999.250         4.2423        0.46072
         4006.5         15.072         64.930         77.741       -999.250         4.7455        0.49437
         4007.0         15.071         70.080         78.253       -999.250         4.8350        0.48274
         4007.5         15.070         73.482         75.572       -999.250         5.3084        0.46459
         4008.0         15.069         72.219         74.940       -999.250         4.4869        0.42167
         4008.5         15.068         66.086         74.434       -999.250         4.4038        0.37854
         4009.0         15.067         60.550         74.229       -999.250         4.1638        0.33542
         4009.5         15.066         53.684         74.157       -999.250         3.9368        0.29638
         4010.0         15.065         48.979         72.511       -999.250         3.8640        0.27465
         4010.5         15.064         47.203         70.964       -999.250         3.5857        0.29971
         4011.0         15.063         45.583         71.205       -999.250         3.3903        0.32478
         4011.5         15.062         44.842         71.325       -999.250         3.2660        0.34984
         4012.0         15.061         44.932         72.410       -999.250         3.2055        0.38893
         4012.5         15.060         44.863         73.434       -999.250         2.9747        0.43803
         4013.0         15.059         44.886         73.434       -999.250         2.9747        0.44125
         4013.5         15.058         45.700         73.675       -999.250         3.0880        0.43722
         4014.0         15.057         48.747         73.855       -999.250         4.3223        0.42948
         4014.5         15.056         52.159         73.795       -999.250         3.6534        0.42059
         4015.0         15.055         55.680         73.855       -999.250         3.8424        0.41170
         4015.5         15.054         60.498         74.041       -999.250         3.9368        0.38382
         4016.0         15.053         58.161         74.100       -999.250         5.0191        0.34791
         4016.5         15.052         54.052         73.617       -999.250         4.6577        0.32507
         4017.0         15.051         50.052         73.133       -999.250         5.0191        0.32213
         4017.5         15.050         46.968         73.011       -999.250         5.2102        0.36687
         4018.0         15.049         47.368         72.708       -999.250         6.1642        0.40616
         4018.5         15.048         50.145         72.586       -999.250         5.8282        0.41601
         4019.0         15.047         52.553         72.465       -999.250         5.8282        0.42274
         4019.5         15.046         54.473         72.349       -999.250         5.4613        0.41871
         4020.0         15.045         54.851         72.470       -999.250         6.1642        0.39974
         4020.5         15.044         56.797         72.542       -999.250         5.2453        0.38058
         4021.0         15.043         58.692         72.675       -999.250         5.0191        0.36237
         4021.5         15.042         60.541         72.831       -999.250         4.9683        0.35755
         4022.0         15.041         60.561         73.072       -999.250         4.9262        0.34419
         4022.5         15.040         57.751         73.675       -999.250         4.8350        0.33471
         4023.0         15.039         54.659         73.916       -999.250         5.1806        0.33313
         4023.5         15.038         52.042         73.916       -999.250         5.1195        0.33332
         4024.0         15.037         51.953         73.711       -999.250         5.0191        0.33693
         4024.5         15.036         50.644         74.614       -999.250         5.1137        0.34099
         4025.0         15.035         49.595         75.843       -999.250         4.8804        0.34468
         4025.5         15.034         47.122         75.699       -999.250         4.1825        0.39915
         4026.0         15.033         43.254         75.687       -999.250         3.6910        0.44902
         4026.5         15.032         40.206         75.867       -999.250         3.6413        0.44997
         4027.0         15.031         39.445         76.084       -999.250         3.5846        0.42730
         4027.5         15.030         39.317         76.084       -999.250         3.3899        0.39603
         4028.0         15.029         39.562         76.325       -999.250         3.1523        0.37428
         4028.5         15.028         39.984         78.253       -999.250         2.9471        0.37822
         4029.0         15.027         39.116         79.819       -999.250         2.7556        0.44270
         4029.5         15.026         38.478         78.253       -999.250         2.7640        0.48740
         4030.0         15.025         39.401         78.976       -999.250         3.3587        0.48800
         4030.5         15.024         40.225         73.193       -999.250         3.8668        0.43903
         4031.0         15.023         41.403         73.313       -999.250         3.6957        0.39135
         4031.5         15.022         42.450         73.373       -999.250         3.6098        0.36801
         4032.0         15.021         43.776         73.434       -999.250         3.7295        0.37052
         4032.5         15.020         45.033         73.494       -999.250         3.8532        0.37627
         4033.0         15.019         46.360         74.157       -999.250         3.9809        0.38169
         4033.5         15.018         47.504         73.916       -999.250         4.1130        0.37847
         4034.0         15.017         49.239         73.494       -999.250         4.2493        0.37557
         4034.5         15.016         50.918         73.313       -999.250         4.4828        0.37286
         4035.0         15.015         52.653         73.313       -999.250         4.2771        0.37053
         4035.5         15.014         54.451         73.313       -999.250         4.0830        0.38104
         4036.0         15.013         56.084         73.313       -999.250         4.1792        0.39032
         4036.5         15.012         56.492         73.373       -999.250         4.3955        0.38955
         4037.0         15.011         56.089         73.554       -999.250         4.3715        0.38597
         4037.5         15.010         55.776         74.759       -999.250         3.5543        0.37315
