#--------------------------------------------------#
#-------------------ENVERUS, INC.------------------#
#------------------WWW.ENVERUS.COM-----------------#
#------------------COPYRIGHT 2020------------------#
#--------------------------------------------------#
#THIS FILE MAY BE USED ONLY IN ACCORDANCE WITH A CURRENT SUBSCRIPTION AGREEMENT BETWEEN
#THE USER AND ENVERUS, INC. NO PART OF THIS FILE MAY BE REPRODUCED, USED, COPIED,
#MODIFIED, PROPAGATED, OR DISTRIBUTED EXCEPT IN ACCORDANCE WITH THE SUBSCRIPTION
#AGREEMENT. UNAUTHORIZED USE OR DISTRIBUTION OF ALL OR ANY PART OF THIS FILE MAY VIOLATE
#COPYRIGHT, TRADEMARK, AND/OR OTHER LAWS AND IS SUBJECT TO CIVIL AS WELL AS CRIMINAL
#SANCTIONS.
#--------------------------------------------------#
#THIS FILE IS PROVIDED "AS-IS" AND ALL WARRANTIES ARE EXPRESSLY DISCLAIMED, WHETHER
#EXPRESS, ORAL, IMPLIED, STATUTORY OR OTHERWISE, INCLUDING ANY IMPLIED WARRANTY OF FITNESS
#FOR A PARTICULAR PURPOSE, MERCHANTABILITY, TITLE OR NON-INFRINGEMENT, AND ANY WARRANTIES
#ARISING BY VIRTUE OF CUSTOM OF TRADE OR COURSE OF DEALING.  FURTHER, ENVERUS, INC.
#AND ITS LICENSORS DO NOT REPRESENT OR WARRANT THAT THIS FILE WILL MEET USER'S
#REQUIREMENTS OR ARE SUITABLE FOR USER'S NEEDS OR THAT THE DATA OR RESULTS PROVIDED IN
#CONJUNCTION THEREWITH ARE CORRECT, ACCURATE, TIMELY OR RELIABLE. THESE DISCLAIMERS SHALL
#APPLY REGARDLESS OF ANY FAILURE OF ESSENTIAL PURPOSE OF ANY LIMITED REMEDY.  SOME
#JURISDICTIONS DO NOT ALLOW THE EXCLUSION OF CERTAIN WARRANTIES SO SOME OF THE ABOVE
#EXCLUSIONS MAY NOT APPLY. IN NO EVENT SHALL ENVERUS, INC. OR ANY OF ITS AFFILIATES
#BE LIABLE UNDER ANY LEGAL THEORY, WHETHER IN TORT (INCLUDING WITHOUT LIMITATION
#NEGLIGENCE), CONTRACT, STRICT LIABILITY, STATUTORY OR OTHERWISE, FOR ANY SPECIAL,
#INCIDENTAL, CONSEQUENTIAL, EXEMPLARY, PUNITIVE OR INDIRECT DAMAGE OF ANY KIND, INCLUDING
#WITHOUT LIMITATION LOSS OF REVENUE, PROFITS, GOODWILL, USE, AND/OR DATA OR THE COST OF
#PROCUREMENT OF SUBSTITUTE GOODS OR SERVICES, EVEN IF APPRISED OF THE POSSIBILITY OF SUCH
#DAMAGES IN ADVANCE.
#--------------------------------------------------#

~VERSION INFORMATION
VERS. 2.0 : CWLS LOG ASCII STANDARD - VERSION 2.0
WRAP.  NO : ONE LINE PER DEPTH STEP
~WELL INFORMATION
#MNEMONIC     .UNIT              VALUE :DESCRIPTION
STRT       .FT                145 :START DEPTH
STOP       .FT                15608 :STOP DEPTH
STEP       .FT                   0.500 :STEP
NULL       .                  -999.250 :NULL
UWI        .              42389304120000 :UNIQUE WELL ID
API        .              42389304120000 :API NUMBER
COMP       .         BTA OIL PRODUCERS :COMPANY
WELL       .        7607 JV-P ORLA  1 :WELL
DATE       .                            :LOG DATE
~CURVE INFORMATION
#MNEMONIC     .UNIT      API CODE :CURVE DESCRIPTION
DEPTH       .FT                      :MEASURED DEPTH
DT.US/FT        UNKNOWN   :DT
CAL.INCH        UNKNOWN   :CAL
GR.API        UNKNOWN   :GR
~A    DEPTH    DT    CAL    GR
# ...
 3772.5     74.542   14.495   48.698
 3773     71.074   14.481   48.861
 3773.5     72.284   14.468   49.025
 3774     71.963   14.455   49.189
 3774.5     72.868   14.442   49.352
 3775     74.532   14.428   48.467
 3775.5     74.454   14.415   47.041
 3776     73.16   14.402   45.932
 3776.5     70.432   14.389   46.322
 3777     69.955   14.376   46.713
 3777.5     75.126   14.362   46.718
 3778     82.157   14.349   44.214
 3778.5     78.728   14.336   43.406
 3779     70.454   14.323   43.94
 3779.5     69.884   14.292   44.474
 3780     69.051   14.262   45.008
 3780.5     68.202   14.232   45.541
 3781     68.941   14.201   46.075
 3781.5     70.117   14.171   46.609
 3782     69.741   14.14   48.153
 3782.5     71.95   14.11   49.838
 3783     72.157   14.08   51.522
 3783.5     72.278   14.049   53.206
 3784     70.39   14.019   54.891
 3784.5     68.14   13.988   56.487
 3785     90.397   13.958   57.99
 3785.5     90.334   13.928   59.549
 3786     90.27   13.897   61.196
 3786.5     89.932   13.867   62.844
 3787     89.304   13.836   60.936
 3787.5     93.14   13.806   58.974
 3788     98.654   13.776   57.036
 3788.5     107.809   13.745   55.214
 3789     106.031   13.727   53.391
 3789.5     85.203   13.717   51.011
 3790     85.484   13.708   47.643
 3790.5     85.765   13.699   45.01
 3791     55.028   13.689   47.056
 3791.5     55.693   13.68   49.102
 3792     55.969   13.671   51.147
 3792.5     53.489   13.661   54.115
 3793     48.553   13.652   57.242
 3793.5     45.193   13.642   60.368
 3794     43.787   13.633   61.177
 3794.5     44.968   13.624   56.999
 3795     63.886   13.614   52.024
 3795.5     81.444   13.605   46.729
 3796     93.058   13.596   41.896
 3796.5     99.458   13.586   40.984
 3797     113.882   13.577   40.073
 3797.5     129.869   13.568   40.706
 3798     130.776   13.558   41.432
 3798.5     84.63   13.549   42.384
 3799     89.098   13.539   44.143
 3799.5     61.82   13.53   45.902
 3800     64.075   13.521   47.662
 3800.5     79.713   13.508   49.421
 3801     68.201   13.492   49.568
 3801.5     64.352   13.476   49.11
 3802     64.688   13.461   48.653
 3802.5     64.71   13.445   48.195
 3803     62.849   13.429   49.976
 3803.5     61.909   13.414   54.756
 3804     64.356   13.398   59.535
 3804.5     68.921   13.382   64.314
 3805     73.485   13.367   69.229
 3805.5     75.616   13.351   74.591
 3806     69.927   13.335   80.37
 3806.5     67.961   13.319   86.15
 3807     67.272   13.304   97.973
 3807.5     70.971   13.288   99.542
 3808     73.358   13.272   98.541
 3808.5     74.87   13.298   97.54
 3809     76.382   13.336   96.539
 3809.5     77.895   13.373   98.062
 3810     78.034   13.411   102.005
 3810.5     76.573   13.448   110.248
 3811     76.334   13.485   110.306
 3811.5     77.206   13.523   106.943
 3812     75.084   13.56   101.755
 3812.5     72.696   13.598   94.561
 3813     70.341   13.635   87.368
 3813.5     74.834   13.672   80.174
 3814     96.007   13.71   75.545
 3814.5     106.739   13.747   71.549
 3815     114.202   13.785   67.553
 3815.5     114.072   13.822   63.557
 3816     105.752   13.859   64.135
 3816.5     89.639   13.87   64.939
 3817     89.219   13.875   65.743
 3817.5     89.467   13.881   66.51
 3818     87.117   13.887   65.317
 3818.5     83.373   13.892   64.125
 3819     84.219   13.898   62.932
 3819.5     93.169   13.904   61.739
 3820     102.978   13.91   60.605
 3820.5     111.381   13.915   60.373
 3821     101.61   13.921   60.14
 3821.5     94.781   13.927   59.908
 3822     101.325   13.932   58.529
 3822.5     64.82   13.938   56.637
 3823     63.646   13.944   54.752
 3823.5     62.26   13.949   52.895
 3824     61.051   13.955   51.039
 3824.5     62.611   13.961   49.183
 3825     64.171   13.966   47.327
 3825.5     62.477   13.972   45.471
 3826     60.89   13.978   47.161
 3826.5     60.784   13.983   49.331
 3827     62.875   13.989   51.502
 3827.5     66.01   13.995   53.154
 3828     66.812   14.001   54.468
 3828.5     67.515   14.006   55.782
 3829     68.217   14.012   57.096
 3829.5     66.885   14.018   58.41
 3830     65.527   14.023   59.197
 3830.5     63.926   14.029   57.787
 3831     62.464   14.035   56.377
 3831.5     61.765   14.04   53.776
 3832     61.067   14.046   49.377
 3832.5     60.465   14.052   47.843
 3833     61.818   14.057   47.097
 3833.5     62.69   14.063   46.351
 3834     62.723   14.069   45.867
 3834.5     63.286   14.075   48.162
 3835     63.78   14.08   50.457
 3835.5     61.854   14.086   52.752
 3836     59.929   14.092   51.946
 3836.5     58.928   14.097   50.441
 3837     59.305   14.103   48.936
 3837.5     60.89   14.109   47.431
 3838     63.211   14.114   45.926
 3838.5     65.533   14.12   47.768
 3839     66.253   14.177   50.255
 3839.5     66.208   14.243   52.742
 3840     65.873   14.309   55.229
 3840.5     66.467   14.376   56.164
 3841     66.58   14.442   54.702
 3841.5     65.789   14.509   53.24
 3842     64.997   14.575   51.778
 3842.5     64.537   14.641   50.742
 3843     64.478   14.708   50.498
 3843.5     80.515   14.774   50.254
 3844     87.698   14.84   50.01
 3844.5     89.801   14.907   49.766
 3845     89.302   14.973   49.522
 3845.5     89.725   15.039   49.278
 3846     90.099   15.106   48.301
 3846.5     90.098   15.172   47.259
 3847     90.097   15.238   46.217
 3847.5     90.097   15.305   45.174
 3848     81.171   15.371   44.132
 3848.5     85.051   15.438   43.09
 3849     86.479   15.504   42.021
 3849.5     82.171   15.57   40.751
 3850     93.703   15.637   39.48
 3850.5     100.643   15.703   38.209
 3851     107.582   15.752   36.939
 3851.5     114.522   15.76   35.668
 3852     111.087   15.768   34.397
 3852.5     102.874   15.776   34.915
 3853     108.579   15.785   35.619
 3853.5     81.842   15.793   36.322
 3854     85.614   15.801   37.026
 3854.5     89.385   15.809   37.729
 3855     83.705   15.818   38.433
 3855.5     88.773   15.826   39.136
 3856     90.038   15.834   39.84
 3856.5     95.017   15.842   40.543
 3857     99.995   15.851   41.247
 3857.5     109.329   15.859   41.95
 3858     118.906   15.867   42.603
 3858.5     100.81   15.875   42.789
 3859     104.413   15.884   42.976
 3859.5     90.98   15.892   43.162
 3860     93.635   15.9   43.349
 3860.5     96.291   15.908   42.878
 3861     98.946   15.917   42.276
 3861.5     103.97   15.925   41.673
 3862     111.065   15.933   41.071
 3862.5     114.385   15.941   40.469
 3863     103.27   15.95   40.123
 3863.5     104.755   15.958   39.947
 3864     105.166   15.966   39.77
 3864.5     103.654   15.974   39.594
 3865     102.502   15.983   39.417
 3865.5     110.18   15.991   39.241
 3866     100.244   15.999   39.064
 3866.5     100.243   15.993   38.888
 3867     103.771   15.973   38.711
 3867.5     110.554   15.953   39.159
 3868     107.664   15.933   39.841
 3868.5     114.328   15.912   40.522
 3869     119.063   15.892   41.203
 3869.5     118.267   15.872   41.884
 3870     115.131   15.852   42.566
 3870.5     100.181   15.832   43.247
 3871     100.208   15.812   42.084
 3871.5     100.236   15.792   40.347
 3872     100.263   15.772   38.987
 3872.5     100.291   15.752   38.667
 3873     104.764   15.732   38.346
 3873.5     71.722   15.712   38.025
 3874     80.052   15.689   37.705
 3874.5     75.487   15.624   37.429
 3875     79.896   15.559   37.232
 3875.5     84.587   15.493   37.035
 3876     84.448   15.428   36.838
 3876.5     88.372   15.363   36.641
 3877     89.968   15.297   36.444
 3877.5     88.557   15.232   36.247
 3878     87.465   15.167   36.05
 3878.5     91.735   15.101   36.701
 3879     96.006   15.036   38.614
 3879.5     100.471   14.971   40.527
 3880     80.099   14.906   42.44
 3880.5     78.043   14.84   44.353
 3881     71.274   14.775   46.139
 3881.5     61.702   14.71   44.35
 3882     55.502   14.644   42.56
 3882.5     56.716   14.579   40.771
 3883     57.929   14.514   39.521
 3883.5     58.853   14.448   39.615
