###############################################
##         ENVERUS                           ##
##         ESS - Open Hole                   ##
##         PERMIAN / DELAWARE                ##
##         Nov 04 2023  V4.0                 ##
##         42-389-30422-00-00                ##
###############################################
## Copyright 2017-2023  ENVERUS.  All Rights Reserved. 
## Confidential - Property of ENVERUS, use governed by terms and 
## conditions found within the existing Information Services Subscription Agreement 
## (as may be amended, the “ISSA”) between Customer and ENVERUS. 
## 
~VERSION INFORMATION
# MNEM.UNIT                               DATA : DESCRIPTION OF MNEMONIC
#-----.-----     ----------------------------- : -----------------------------
VERS.                                     2.00 : CWLS LOG ASCII STANDARD - VERSION 2.00
WRAP.                                       NO : MULTIPLE LINES PER DEPTH STEP
VEND.                                  ENVERUS : VENDOR
TYPE.                          ESS - OPEN HOLE : ENVERUS ESSENTIAL CURVES – ACCESSIBLE THROUGH ENVERUS PRISM(TM)
DOC.                                  31749874 : ENVERUS HEADER RAW DOCUMENT ID
#___________________________________________________________________________________________________ 
~WELL INFORMATION 
# u82sU1u0B8de5w9HEAjaYOtqLlVzfD+KUeD2ZoqivGgiUzwSeb1LYInaR9MNeJxDUIxxjb7EPbXz9g+KH10l6Q== 
# MNEM.UNIT                                              DATA : DESCRIPTION OF MNEMONIC 
#-----.-----                    ----------------------------- : ----------------------------- 
CNTY.                                                  REEVES : COUNTY 
STATE.                                                  TEXAS : STATE 
CNTRY.                                                    USA : COUNTRY 
API.                                             42-389-30422 : API (10 Digit) 
API_14.                                    42-389-30422-00-00 : API (14 Digits) 
API_14_std.                                 42-389-30422-0000 : API (14 Digits Standard) 
UWI.                                           42389304220000 : UNIQUE WELL ID 
WELL.                                    BECKHAM  AGNES 26  1 : WELL NAME
STRT.FT                                                  89.0 : START DEPTH
STOP.FT                                               15719.0 : STOP DEPTH
STEP.FT                                                   0.5 : STEP BETWEEN DEPTHS
NULL.                                                 -999.25 : NULL VALUE
COMP.                                     WALSH & WATTS  INC. : COMPANY
#___________________________________________________________________________________________________ 
~CURVE INFORMATION 
# MNEM.UNIT           : CURVE DESCRIPTION 
#-----.-----          : ----------------------------- 
 DEPT.FT               : MEASURED DEPTH 
 CALI.IN               : CALIPER (CAL - CAL) 
 GR.API                : GAMMA RAY (GR) 
 DT.US/FT              : SONIC DELTA TRANSIT TIME (DT) 
 #___________________________________________________________________________________________________ 
~A         DEPT           CALI             GR             DT
# ...
         4181.0         15.049         34.982         82.112
         4181.5         15.048         34.984         81.840
         4182.0         15.048         35.523         83.164
         4182.5         15.047         36.110         85.361
         4183.0         15.047         36.698         86.385
         4183.5         15.047         36.396         85.637
         4184.0         15.046         35.833         84.888
         4184.5         15.046         35.269         84.139
         4185.0         15.046         34.706         84.150
         4185.5         15.045         34.142         84.424
         4186.0         15.045         33.579         84.699
         4186.5         15.044         33.607         84.974
         4187.0         15.044         33.649         83.942
         4187.5         15.044         33.691         82.030
         4188.0         15.043         33.733         80.118
         4188.5         15.043         33.775         78.205
         4189.0         15.043         34.160         76.293
         4189.5         15.042         34.580         74.380
         4190.0         15.042         34.999         72.468
         4190.5         15.042         35.419         70.961
         4191.0         15.041         35.838         78.553
         4191.5         15.041         36.258         86.146
         4192.0         15.040         36.677         88.728
         4192.5         15.040         37.056         87.677
         4193.0         15.040         36.882         86.626
         4193.5         15.039         36.708         85.575
         4194.0         15.039         36.535         84.524
         4194.5         15.039         36.361         84.263
         4195.0         15.038         36.187         84.409
         4195.5         15.038         36.013         84.555
         4196.0         15.037         35.864         84.700
         4196.5         15.037         36.033         84.344
         4197.0         15.037         36.201         83.489
         4197.5         15.036         36.370         82.634
         4198.0         15.036         36.538         81.779
         4198.5         15.036         36.707         80.924
         4199.0         15.035         36.875         80.747
         4199.5         15.035         37.044         81.003
         4200.0         15.035         37.212         81.259
         4200.5         15.034         37.911         81.516
         4201.0         15.034         39.174         81.772
         4201.5         15.033         40.438         82.029
         4202.0         15.033         41.701         82.285
         4202.5         15.033         41.757         82.541
         4203.0         15.032         41.701         82.345
         4203.5         15.032         41.644         82.105
         4204.0         15.032         40.653         81.866
         4204.5         15.031         38.329         81.626
         4205.0         15.031         36.005         81.387
         4205.5         15.031         35.182         81.334
         4206.0         15.030         34.803         81.461
         4206.5         15.030         34.424         81.589
         4207.0         15.029         34.046         81.716
         4207.5         15.029         33.667         81.844
         4208.0         15.029         33.289         84.038
         4208.5         15.028         32.910         86.911
         4209.0         15.028         32.531         89.779
         4209.5         15.028         32.153         88.728
         4210.0         15.027         31.840         87.678
         4210.5         15.027         32.238         86.627
         4211.0         15.026         32.636         85.576
         4211.5         15.026         33.033         84.526
         4212.0         15.026         33.431         83.475
         4212.5         15.025         33.829         83.411
         4213.0         15.025         34.226         83.522
         4213.5         15.025         34.624         83.634
         4214.0         15.024         35.022         83.745
         4214.5         15.024         35.420         83.857
         4215.0         15.023         35.817         83.968
         4215.5         15.023         36.215         84.080
         4216.0         15.023         36.613         84.191
         4216.5         15.022         36.923         84.303
         4217.0         15.022         36.771         84.301
         4217.5         15.022         36.619         84.077
         4218.0         15.021         36.467         83.853
         4218.5         15.021         36.315         83.629
         4219.0         15.020         36.163         83.405
         4219.5         15.020         36.011         83.181
         4220.0         15.020         35.859         82.957
         4220.5         15.019         35.707         82.733
         4221.0         15.019         35.556         82.509
         4221.5         15.019         32.541         82.286
         4222.0         15.018         32.709         82.000
         4222.5         15.018         32.876         81.312
         4223.0         15.017         33.043         80.624
         4223.5         15.017         33.211         79.936
         4224.0         15.017         33.378         79.248
         4224.5         15.016         33.546         78.834
         4225.0         15.016         33.787         79.177
         4225.5         15.016         35.028         79.520
         4226.0         15.015         36.269         79.863
         4226.5         15.015         37.511         80.206
         4227.0         15.014         38.487         80.549
         4227.5         15.014         37.204         82.931
         4228.0         15.014         35.921         85.417
         4228.5         15.013         34.638         87.904
         4229.0         15.013         33.925         88.526
         4229.5         15.013         34.670         87.999
         4230.0         15.012         35.414         87.472
         4230.5         15.012         36.159         87.097
         4231.0         15.012         36.904         86.830
         4231.5         15.011         37.649         86.562
         4232.0         15.011         37.581         86.295
         4232.5         15.010         37.271         86.027
         4233.0         15.010         36.961         85.742
         4233.5         15.010         36.650         85.379
         4234.0         15.009         36.340         85.016
         4234.5         15.009         36.030         84.653
         4235.0         15.009         35.720         84.290
         4235.5         15.008         35.410         84.174
         4236.0         15.008         35.402         84.503
         4236.5         15.007         36.347         84.831
         4237.0         15.007         37.292         85.160
         4237.5         15.007         38.237         85.489
         4238.0         15.006         39.182         85.816
         4238.5         15.006         39.069         86.109
         4239.0         15.006         38.839         86.403
         4239.5         15.005         38.609         86.696
         4240.0         15.005         38.378         86.990
         4240.5         15.004         38.148         87.124
         4241.0         15.004         37.918         87.240
         4241.5         15.004         37.687         87.357
         4242.0         15.003         37.457         87.474
         4242.5         15.003         37.227         87.591
         4243.0         15.003         36.759         87.708
         4243.5         15.002         35.331         87.825
         4244.0         15.002         33.903         88.743
         4244.5         15.001         33.974         87.980
         4245.0         15.001         34.198         87.217
         4245.5         15.001         34.422         86.453
         4246.0         15.000         34.646         85.690
         4246.5         15.000         34.870         85.983
