#--------------------------------------------------#
#-------------------ENVERUS, INC.------------------#
#------------------WWW.ENVERUS.COM-----------------#
#------------------COPYRIGHT 2020------------------#
#--------------------------------------------------#
#THIS FILE MAY BE USED ONLY IN ACCORDANCE WITH A CURRENT SUBSCRIPTION AGREEMENT BETWEEN
#THE USER AND ENVERUS, INC. NO PART OF THIS FILE MAY BE REPRODUCED, USED, COPIED,
#MODIFIED, PROPAGATED, OR DISTRIBUTED EXCEPT IN ACCORDANCE WITH THE SUBSCRIPTION
#AGREEMENT. UNAUTHORIZED USE OR DISTRIBUTION OF ALL OR ANY PART OF THIS FILE MAY VIOLATE
#COPYRIGHT, TRADEMARK, AND/OR OTHER LAWS AND IS SUBJECT TO CIVIL AS WELL AS CRIMINAL
#SANCTIONS.
#--------------------------------------------------#
#THIS FILE IS PROVIDED "AS-IS" AND ALL WARRANTIES ARE EXPRESSLY DISCLAIMED, WHETHER
#EXPRESS, ORAL, IMPLIED, STATUTORY OR OTHERWISE, INCLUDING ANY IMPLIED WARRANTY OF FITNESS
#FOR A PARTICULAR PURPOSE, MERCHANTABILITY, TITLE OR NON-INFRINGEMENT, AND ANY WARRANTIES
#ARISING BY VIRTUE OF CUSTOM OF TRADE OR COURSE OF DEALING.  FURTHER, ENVERUS, INC.
#AND ITS LICENSORS DO NOT REPRESENT OR WARRANT THAT THIS FILE WILL MEET USER'S
#REQUIREMENTS OR ARE SUITABLE FOR USER'S NEEDS OR THAT THE DATA OR RESULTS PROVIDED IN
#CONJUNCTION THEREWITH ARE CORRECT, ACCURATE, TIMELY OR RELIABLE. THESE DISCLAIMERS SHALL
#APPLY REGARDLESS OF ANY FAILURE OF ESSENTIAL PURPOSE OF ANY LIMITED REMEDY.  SOME
#JURISDICTIONS DO NOT ALLOW THE EXCLUSION OF CERTAIN WARRANTIES SO SOME OF THE ABOVE
#EXCLUSIONS MAY NOT APPLY. IN NO EVENT SHALL ENVERUS, INC. OR ANY OF ITS AFFILIATES
#BE LIABLE UNDER ANY LEGAL THEORY, WHETHER IN TORT (INCLUDING WITHOUT LIMITATION
#NEGLIGENCE), CONTRACT, STRICT LIABILITY, STATUTORY OR OTHERWISE, FOR ANY SPECIAL,
#INCIDENTAL, CONSEQUENTIAL, EXEMPLARY, PUNITIVE OR INDIRECT DAMAGE OF ANY KIND, INCLUDING
#WITHOUT LIMITATION LOSS OF REVENUE, PROFITS, GOODWILL, USE, AND/OR DATA OR THE COST OF
#PROCUREMENT OF SUBSTITUTE GOODS OR SERVICES, EVEN IF APPRISED OF THE POSSIBILITY OF SUCH
#DAMAGES IN ADVANCE.
#--------------------------------------------------#

~VERSION INFORMATION
VERS. 2.0 : CWLS LOG ASCII STANDARD - VERSION 2.0
WRAP. NO : ONE LINE PER DEPTH STEP
~WELL INFORMATION
#MNEMONIC     .UNIT              VALUE :DESCRIPTION
STRT       .FT                2834.00000 :START DEPTH
STOP       .FT                7010.00000 :STOP DEPTH
STEP       .FT                0.50000 :STEP
NULL       .                -999.25000 :NULL VALUE
UWI       .                42389304120000 :UNIQUE WELL ID
API       .                42389304120000 :API NUMBER
COMP       .                 :COMPANY
WELL       .                 :WELL
FLD       .                 :FIELD
LOC       .                 :LOCATION
CNTY       .                 :COUNTY
STAT       .                 :STATE
CTRY       .                 :COUNTRY
SRVC       .                 :SERVICE COMPANY
DATE       .                 :DATE
~CURVE INFORMATION
#MNEMONIC     .UNIT      API CODE :CURVE DESCRIPTION
DEPTH       .FT                      :MEASURED DEPTH
CAL       .IN        UNKNOWN   :CAL
DT       .US/FT        UNKNOWN   :DT
GR       .GAPI        UNKNOWN   :GR
~A    DEPTH    CAL    DT    GR
# ...
3484.00000    15.18495    -999.25000    38.91074
3484.50000    15.18822    -999.25000    38.98415
3485.00000    15.19149    -999.25000    39.05756
3485.50000    15.19475    -999.25000    39.13097
3486.00000    15.19802    -999.25000    39.20439
3486.50000    15.20129    -999.25000    38.45560
3487.00000    15.20455    -999.25000    36.50206
3487.50000    15.20782    -999.25000    34.54852
3488.00000    15.21108    -999.25000    33.78063
3488.50000    15.21435    -999.25000    33.31553
3489.00000    15.21762    -999.25000    32.85042
3489.50000    15.22088    -999.25000    32.38532
3490.00000    15.22415    -999.25000    31.92022
3490.50000    15.22741    -999.25000    31.45512
3491.00000    15.23068    -999.25000    30.99002
3491.50000    15.23395    -999.25000    31.04769
3492.00000    15.23721    -999.25000    31.29793
3492.50000    15.24048    -999.25000    31.54818
3493.00000    15.24374    -999.25000    31.79842
3493.50000    15.24701    -999.25000    32.04866
3494.00000    15.25028    -999.25000    32.29891
3494.50000    15.25354    -999.25000    32.05748
3495.00000    15.25681    -999.25000    31.76458
3495.50000    15.26007    -999.25000    31.47168
3496.00000    15.26334    -999.25000    31.13547
3496.50000    15.26661    -999.25000    30.67384
3497.00000    15.26987    -999.25000    30.21220
3497.50000    15.27314    -999.25000    29.75056
3498.00000    15.27641    -999.25000    29.28892
3498.50000    15.27967    -999.25000    28.82728
3499.00000    15.28294    -999.25000    28.36564
3499.50000    15.28620    -999.25000    27.90401
3500.00000    15.28947    -999.25000    28.00984
3500.50000    15.29274    -999.25000    28.31223
3501.00000    15.29600    -999.25000    28.61463
3501.50000    15.29927    -999.25000    28.91703
3502.00000    15.30253    -999.25000    29.21943
3502.50000    15.30580    -999.25000    29.52182
3503.00000    15.30907    -999.25000    29.82422
3503.50000    15.31233    -999.25000    30.12662
3504.00000    15.31560    -999.25000    30.42902
3504.50000    15.31886    -999.25000    30.26097
3505.00000    15.32213    -999.25000    28.74201
3505.50000    15.32540    -999.25000    27.22305
3506.00000    15.32866    -999.25000    25.70409
3506.50000    15.33193    -999.25000    25.45315
3507.00000    15.33520    -999.25000    25.54264
3507.50000    15.33846    -999.25000    25.63212
3508.00000    15.34173    -999.25000    25.72161
3508.50000    15.33587    -999.25000    25.81110
3509.00000    15.32925    -999.25000    26.93036
3509.50000    15.32262    -999.25000    31.22784
3510.00000    15.31599    -999.25000    35.52533
3510.50000    15.30936    -999.25000    38.77868
3511.00000    15.30274    -999.25000    38.14242
3511.50000    15.29611    -999.25000    37.50617
3512.00000    15.28948    -999.25000    36.86991
3512.50000    15.28285    -999.25000    36.23366
3513.00000    15.27623    -999.25000    35.59740
3513.50000    15.26960    -999.25000    34.96115
3514.00000    15.26297    -999.25000    34.32489
3514.50000    15.25635    -999.25000    34.48607
3515.00000    15.24972    -999.25000    34.68868
3515.50000    15.24309    -999.25000    34.89129
3516.00000    15.23647    -999.25000    35.09390
3516.50000    15.22984    -999.25000    35.29651
3517.00000    15.22321    -999.25000    35.49911
3517.50000    15.23092    -999.25000    35.70172
3518.00000    15.24043    -999.25000    35.90433
3518.50000    15.24994    -999.25000    36.47708
3519.00000    15.25945    -999.25000    37.31916
3519.50000    15.26896    -999.25000    38.16125
3520.00000    15.27847    -999.25000    39.00333
3520.50000    15.28798    -999.25000    39.41774
3521.00000    15.29748    -999.25000    39.19529
3521.50000    15.30699    -999.25000    38.97284
3522.00000    15.31650    -999.25000    38.91280
3522.50000    15.32601    -999.25000    39.31786
3523.00000    15.33552    -999.25000    39.72292
3523.50000    15.34503    -999.25000    40.12799
3524.00000    15.35454    -999.25000    40.53305
3524.50000    15.36404    -999.25000    40.92380
3525.00000    15.37355    -999.25000    41.31098
3525.50000    15.38306    -999.25000    41.69815
3526.00000    15.39257    -999.25000    42.08533
3526.50000    15.40208    -999.25000    42.47251
3527.00000    15.41159    -999.25000    42.85968
3527.50000    15.42109    -999.25000    43.24686
3528.00000    15.43060    -999.25000    43.63403
3528.50000    15.44011    -999.25000    44.02121
3529.00000    15.44962    -999.25000    42.93621
3529.50000    15.45156    -999.25000    40.06297
3530.00000    15.45149    -999.25000    37.18973
3530.50000    15.45143    -999.25000    34.31649
3531.00000    15.45136    -999.25000    31.44325
3531.50000    15.45129    -999.25000    29.92562
3532.00000    15.45122    -999.25000    29.41201
3532.50000    15.45115    -999.25000    28.89840
3533.00000    15.45108    -999.25000    28.38478
3533.50000    15.45102    -999.25000    27.87117
3534.00000    15.45095    -999.25000    27.35755
3534.50000    15.45088    -999.25000    26.84394
3535.00000    15.45081    -999.25000    26.33032
3535.50000    15.45074    -999.25000    25.81671
3536.00000    15.45067    -999.25000    26.22512
3536.50000    15.45060    -999.25000    27.15362
3537.00000    15.45054    -999.25000    28.08213
3537.50000    15.45047    -999.25000    29.01063
3538.00000    15.45040    -999.25000    29.93913
3538.50000    15.45033    -999.25000    30.86763
3539.00000    15.45026    -999.25000    31.79614
3539.50000    15.45019    -999.25000    31.91505
3540.00000    15.45013    -999.25000    31.23439
3540.50000    15.45006    -999.25000    30.55373
3541.00000    15.44999    -999.25000    29.87308
3541.50000    15.44992    -999.25000    29.41922
3542.00000    15.44985    -999.25000    30.27677
3542.50000    15.44978    -999.25000    31.13431
3543.00000    15.44971    -999.25000    31.99185
3543.50000    15.44965    -999.25000    31.71851
3544.00000    15.44958    -999.25000    31.03420
3544.50000    15.44951    -999.25000    30.34988
3545.00000    15.44944    -999.25000    29.66556
3545.50000    15.44937    -999.25000    28.98124
3546.00000    15.44930    -999.25000    28.29693
3546.50000    15.44923    -999.25000    27.61261
3547.00000    15.44917    -999.25000    27.71463
3547.50000    15.44910    -999.25000    27.84721
3548.00000    15.44903    -999.25000    27.97980
3548.50000    15.44896    -999.25000    28.11238
3549.00000    15.44889    -999.25000    28.24497
3549.50000    15.44882    -999.25000    28.37756
3550.00000    15.44876    -999.25000    28.51014
3550.50000    15.44869    -999.25000    28.64272
3551.00000    15.44870    -999.25000    29.00419
3551.50000    15.44871    -999.25000    29.57497
3552.00000    15.44873    -999.25000    30.14576
3552.50000    15.44874    -999.25000    30.71654
3553.00000    15.44875    -999.25000    31.28733
3553.50000    15.44876    -999.25000    31.85811
3554.00000    15.44877    -999.25000    32.42890
3554.50000    15.44879    -999.25000    32.99968
3555.00000    15.44880    -999.25000    33.14464
3555.50000    15.44881    -999.25000    31.80077
3556.00000    15.44882    -999.25000    30.45690
3556.50000    15.44884    -999.25000    29.11303
3557.00000    15.44885    -999.25000    27.76916
3557.50000    15.44886    -999.25000    26.42528
3558.00000    15.44887    -999.25000    26.49600
3558.50000    15.44888    -999.25000    26.99263
3559.00000    15.44890    -999.25000    27.48927
3559.50000    15.44891    -999.25000    27.65005
3560.00000    15.44892    -999.25000    27.56012
3560.50000    15.44893    -999.25000    27.47019
3561.00000    15.44895    -999.25000    27.38026
3561.50000    15.44896    -999.25000    27.29033
3562.00000    15.44897    -999.25000    27.20039
3562.50000    15.44898    -999.25000    27.11046
3563.00000    15.44899    -999.25000    27.02053
3563.50000    15.44900    -999.25000    26.93060
3564.00000    15.44902    -999.25000    26.84067
3564.50000    15.44903    -999.25000    26.78632
3565.00000    15.44904    -999.25000    27.04971
3565.50000    15.44905    -999.25000    27.31310
