###############################################
##         ENVERUS                           ##
##         ESS - Open Hole                   ##
##         PERMIAN / DELAWARE                ##
##         Nov 04 2023  V4.0                 ##
##         42-389-32730-00-00                ##
###############################################
## Copyright 2017-2023  ENVERUS.  All Rights Reserved. 
## Confidential - Property of ENVERUS, use governed by terms and 
## conditions found within the existing Information Services Subscription Agreement 
## (as may be amended, the “ISSA”) between Customer and ENVERUS. 
## 
~VERSION INFORMATION
# MNEM.UNIT                               DATA : DESCRIPTION OF MNEMONIC
#-----.-----     ----------------------------- : -----------------------------
VERS.                                     2.00 : CWLS LOG ASCII STANDARD - VERSION 2.00
WRAP.                                       NO : MULTIPLE LINES PER DEPTH STEP
VEND.                                  ENVERUS : VENDOR
TYPE.                          ESS - OPEN HOLE : ENVERUS ESSENTIAL CURVES – ACCESSIBLE THROUGH ENVERUS PRISM(TM)
DOC.                                  19552736 : ENVERUS HEADER RAW DOCUMENT ID
#___________________________________________________________________________________________________ 
~WELL INFORMATION 
# Emv0q1Fc4UOVqi1FEPTQ50pHgS2U6oO6A9wxQf5ozJtTAVTQXtUhuyCOytio7eHVwvke0CQF/LYkoyLsbhUTsQ== 
# MNEM.UNIT                                              DATA : DESCRIPTION OF MNEMONIC 
#-----.-----                    ----------------------------- : ----------------------------- 
CNTY.                                                  REEVES : COUNTY 
STATE.                                                  TEXAS : STATE 
CNTRY.                                                    USA : COUNTRY 
API.                                             42-389-32730 : API (10 Digit) 
API_14.                                    42-389-32730-00-00 : API (14 Digits) 
API_14_std.                                 42-389-32730-0000 : API (14 Digits Standard) 
UWI.                                           42389327300000 : UNIQUE WELL ID 
WELL.                                  BIG SKY 55 - 16 NO. 1H : WELL NAME
STRT.FT                                                3850.0 : START DEPTH
STOP.FT                                               12070.5 : STOP DEPTH
STEP.FT                                                   0.5 : STEP BETWEEN DEPTHS
NULL.                                                 -999.25 : NULL VALUE
COMP.                                      CIMAREX ENERGY CO. : COMPANY 
FLD.                                                  WILDCAT : FIELD 
SRVC.                                             HALLIBURTON : SERVICE COMPANY 
DATE.                                              03/23/2011 : DATE 
TVD.                                                       NO : TVD FLAG 
WSTA.                                                     LOC : WELL STATUS
#___________________________________________________________________________________________________ 
~PARAMETER INFORMATION 
# MNEM.UNIT                                              DATA : DESCRIPTION OF MNEMONIC 
#-----.-----                    ----------------------------- : ----------------------------- 
RUN.                                                      ONE : RUN NUMBER 
PDAT.                                                      GL : PERMANENT DATUM 
EPD.FT                                              2996.0000 : ELEVATION OF PERM. DATUM 
LMF.                                            KELLY BUSHING : LOG MEASURED FROM 
EKB.FT                                              3021.0000 : ELEVATION OF KELLY BUSHING 
DF.FT                                               3020.0000 : ELEVATION OF DERRICK FLOOR 
GL.FT                                               2996.0000 : ELEVATION OF GROUND LEVEL 
TD.FT                                              12100.0000 : TOTAL DEPTH 
CSGD.FT                                                  3861 : CASING BOTTOM (DRILLER) 1 
CSGL.FT                                                  3855 : CASING BOTTOM (LOGGER) 1 
MUD.                                                    BRINE : DRILLING FLUID TYPE 
MUDV.CP                                               36.0000 : DRILLING FLUID VISCOSITY 
MUDD.LB/USG                                           10.1000 : DRILLING FLUID DENSITY 
PH.                                                   10.0000 : DRILLING FLUID PH 
MUDS.                                                FLOWLINE : MUD SAMPLE SOURCE 
RM.OHMM                                                0.0600 : RESISTIVITY OF MUD SAMPLE 
RMT.DEGF                                              75.0000 : MUD SAMPLE TEMPERATURE 
RMF.OHMM                                               0.0400 : MUD FILTRATE RESISTIVITY 
RMFT.DEGF                                             75.0000 : MUD FILTRATE SAMPLE TEMPERATURE 
RMC.OHMM                                               0.0600 : MUD CAKE RESISTIVITY 
RMCT.DEGF                                             75.0000 : MUD CAKE SAMPLE TEMPERATURE 
RMB.OHMM                                               0.0240 : MUD RESISTIVITY AT BHT 
TMAX.DEGF                                            200.0000 : BOTTOM HOLE TEMPERATURE
#___________________________________________________________________________________________________ 
~CURVE INFORMATION 
# MNEM.UNIT           : CURVE DESCRIPTION 
#-----.-----          : ----------------------------- 
 DEPT.FT               : MEASURED DEPTH 
 GR.API                : GAMMA RAY (GAMMA RAY) 
 DT.US/FT              : SONIC DELTA TRANSIT TIME (DELTA T) 
 RESD_LL.OHMM          : DEEP LATEROLOG (LLD - DEEP LATEROLOG) 
 DPHI.V/V              : DENSITY POROSITY (DENSITY POROSITY) 
 NPHI.V/V              : NEUTRON POROSITY (NEUTRON POROSITY) 
 #___________________________________________________________________________________________________ 
~A         DEPT             GR             DT        RESD_LL           DPHI           NPHI
         3850.0       -999.250         66.152      -999.2500     -999.25000        0.19400
         3850.5       -999.250         67.335      -999.2500     -999.25000        0.19900
         3851.0       -999.250         68.301      -999.2500     -999.25000        0.20500
         3851.5       -999.250         69.074      -999.2500     -999.25000        0.21200
         3852.0       -999.250         70.120      -999.2500     -999.25000        0.24400
         3852.5       -999.250         69.832      -999.2500     -999.25000        0.23700
         3853.0       -999.250         68.843      -999.2500     -999.25000        0.22800
         3853.5       -999.250         67.536      -999.2500     -999.25000        0.23000
         3854.0       -999.250         66.591      -999.2500     -999.25000        0.22400
         3854.5       -999.250         66.138      -999.2500     -999.25000        0.21800
         3855.0       -999.250         66.917      -999.2500        0.16400        0.21400
         3855.5         38.731         68.085      -999.2500        0.11300        0.22200
         3856.0         41.114         69.540      -999.2500        0.07800        0.23000
         3856.5         45.037         70.999      -999.2500        0.07600        0.23100
         3857.0         48.345         72.076      -999.2500        0.07500        0.23100
         3857.5         52.566         72.526      -999.2500        0.08300        0.23000
         3858.0         54.807         71.723      -999.2500        0.08800        0.22600
         3858.5         56.256         70.887      -999.2500        0.08400        0.21800
         3859.0         57.462         70.000      -999.2500        0.08000        0.20900
         3859.5         59.251         69.853      -999.2500        0.08100        0.22200
         3860.0         61.473         70.410      -999.2500        0.08200        0.22700
         3860.5         63.695         72.128      -999.2500        0.08600        0.23200
         3861.0         65.868         73.861      -999.2500        0.10400        0.23600
         3861.5         65.753         74.204      -999.2500        0.12200        0.23900
         3862.0         60.339         73.373      -999.2500        0.12200        0.22700
         3862.5         48.447         71.924      -999.2500        0.11200        0.19500
         3863.0         36.855         69.199      -999.2500        0.10200        0.17100
         3863.5         33.677         67.828      -999.2500        0.09600        0.15800
         3864.0         32.772         67.699      -999.2500        0.09000        0.16100
         3864.5         41.356         69.898      -999.2500        0.08100        0.16800
         3865.0         52.461         72.096      -999.2500        0.08600        0.19300
         3865.5         66.361         74.570      -999.2500        0.09500        0.21700
         3866.0         73.022         74.701      -999.2500        0.10200        0.22900
         3866.5         75.026         73.128      -999.2500        0.08800        0.20500
         3867.0         64.626         70.814      -999.2500        0.07200        0.18300
         3867.5         53.801         69.674      1594.7380        0.06000        0.18600
         3868.0         47.146         68.905       469.8400        0.05400        0.18900
         3868.5         44.543         68.774       179.8610        0.05200        0.19200
         3869.0         44.292         69.167        89.1930        0.05900        0.18800
         3869.5         44.079         69.559        76.3190        0.06400        0.18900
         3870.0         45.343         69.951        68.0670        0.06700        0.19600
         3870.5         46.485         70.267        54.3310        0.06900        0.19900
         3871.0         47.482         70.361        45.7290        0.07900        0.19100
         3871.5         46.630         69.992        41.0350        0.09200        0.18200
         3872.0         43.590         69.569        41.0420        0.10200        0.17300
         3872.5         40.563         69.107        41.0820        0.10200        0.16400
         3873.0         38.276         68.646        43.4460        0.09400        0.16300
         3873.5         36.726         68.250        45.9720        0.08600        0.16400
         3874.0         37.194         68.018        48.6530        0.08300        0.16200
         3874.5         38.461         67.786        52.2440        0.08300        0.15300
         3875.0         39.901         67.715        51.0460        0.08700        0.15300
         3875.5         42.051         67.999        49.5790        0.08700        0.15300
         3876.0         40.871         68.314        48.1660        0.08700        0.15300
         3876.5         40.123         68.629        46.7940        0.09000        0.15100
         3877.0         39.366         68.944        45.4610        0.10000        0.15300
         3877.5         38.720         69.299        44.1670        0.10300        0.15300
         3878.0         39.032         69.742        43.4210        0.10400        0.15500
         3878.5         39.580         70.185        43.3880        0.10500        0.16000
         3879.0         41.753         70.565        43.3810        0.10600        0.16300
         3879.5         43.402         70.819        49.7850        0.10600        0.16300
         3880.0         44.936         71.073        55.7080        0.10000        0.17300
         3880.5         45.916         71.327        62.3400        0.08900        0.18400
         3881.0         46.865         71.745        69.7600        0.08000        0.18800
         3881.5         49.908         72.296        78.0640        0.08300        0.18800
         3882.0         53.745         72.908        87.3560        0.09100        0.19000
         3882.5         57.740         73.812        97.7550        0.09400        0.19200
         3883.0         61.751         74.569        99.6380        0.09700        0.20000
         3883.5         65.609         74.569        81.4100        0.10000        0.20800
         3884.0         65.275         74.091        66.4860        0.10300        0.21100
         3884.5         51.628         73.206        61.8720        0.10400        0.19900
         3885.0         41.321         72.286        57.5780        0.10300        0.18400
         3885.5         37.301         71.922        53.5830        0.09900        0.18000
         3886.0         35.614         71.994        50.9100        0.09800        0.18400
         3886.5         35.553         72.172        48.6900        0.09700        0.17800
         3887.0         35.450         72.502        45.8620        0.09600        0.18900
         3887.5         35.378         72.920        43.1980        0.10200        0.20500
         3888.0         35.293         73.696        40.3550        0.11100        0.21400
         3888.5         39.186         74.472        43.6500        0.11700        0.22400
         3889.0         43.893         74.920        46.7430        0.11600        0.23900
         3889.5         48.585         74.897        44.9740        0.10900        0.22500
         3890.0         51.221         74.874        44.2300        0.09900        0.22100
         3890.5         48.815         74.851        38.9960        0.10200        0.22000
         3891.0         44.823         74.827        33.6840        0.11600        0.19700
         3891.5         40.749         74.768        31.1470        0.12100        0.19600
         3892.0         38.846         74.587        35.0140        0.12100        0.19600
         3892.5         39.029         74.527        38.4060        0.11500        0.20400
         3893.0         42.155         74.854        41.0820        0.09800        0.22700
         3893.5         45.195         75.181        39.5930        0.09000        0.23100
