#--------------------------------------------------#
#-------------------ENVERUS, INC.------------------#
#------------------WWW.ENVERUS.COM-----------------#
#------------------COPYRIGHT 2020------------------#
#--------------------------------------------------#
#THIS FILE MAY BE USED ONLY IN ACCORDANCE WITH A CURRENT SUBSCRIPTION AGREEMENT BETWEEN
#THE USER AND ENVERUS, INC. NO PART OF THIS FILE MAY BE REPRODUCED, USED, COPIED,
#MODIFIED, PROPAGATED, OR DISTRIBUTED EXCEPT IN ACCORDANCE WITH THE SUBSCRIPTION
#AGREEMENT. UNAUTHORIZED USE OR DISTRIBUTION OF ALL OR ANY PART OF THIS FILE MAY VIOLATE
#COPYRIGHT, TRADEMARK, AND/OR OTHER LAWS AND IS SUBJECT TO CIVIL AS WELL AS CRIMINAL
#SANCTIONS.
#--------------------------------------------------#
#THIS FILE IS PROVIDED "AS-IS" AND ALL WARRANTIES ARE EXPRESSLY DISCLAIMED, WHETHER
#EXPRESS, ORAL, IMPLIED, STATUTORY OR OTHERWISE, INCLUDING ANY IMPLIED WARRANTY OF FITNESS
#FOR A PARTICULAR PURPOSE, MERCHANTABILITY, TITLE OR NON-INFRINGEMENT, AND ANY WARRANTIES
#ARISING BY VIRTUE OF CUSTOM OF TRADE OR COURSE OF DEALING.  FURTHER, ENVERUS, INC.
#AND ITS LICENSORS DO NOT REPRESENT OR WARRANT THAT THIS FILE WILL MEET USER'S
#REQUIREMENTS OR ARE SUITABLE FOR USER'S NEEDS OR THAT THE DATA OR RESULTS PROVIDED IN
#CONJUNCTION THEREWITH ARE CORRECT, ACCURATE, TIMELY OR RELIABLE. THESE DISCLAIMERS SHALL
#APPLY REGARDLESS OF ANY FAILURE OF ESSENTIAL PURPOSE OF ANY LIMITED REMEDY.  SOME
#JURISDICTIONS DO NOT ALLOW THE EXCLUSION OF CERTAIN WARRANTIES SO SOME OF THE ABOVE
#EXCLUSIONS MAY NOT APPLY. IN NO EVENT SHALL ENVERUS, INC. OR ANY OF ITS AFFILIATES
#BE LIABLE UNDER ANY LEGAL THEORY, WHETHER IN TORT (INCLUDING WITHOUT LIMITATION
#NEGLIGENCE), CONTRACT, STRICT LIABILITY, STATUTORY OR OTHERWISE, FOR ANY SPECIAL,
#INCIDENTAL, CONSEQUENTIAL, EXEMPLARY, PUNITIVE OR INDIRECT DAMAGE OF ANY KIND, INCLUDING
#WITHOUT LIMITATION LOSS OF REVENUE, PROFITS, GOODWILL, USE, AND/OR DATA OR THE COST OF
#PROCUREMENT OF SUBSTITUTE GOODS OR SERVICES, EVEN IF APPRISED OF THE POSSIBILITY OF SUCH
#DAMAGES IN ADVANCE.
#--------------------------------------------------#

# EXPORTED FROM DI TRANSFORM
# DI TRANSFORM - A PRODUCT OF DRILLINGINFO, INC. - WWW.DRILLINGINFO.COM
#
~VERSION INFORMATION
 VERS.        2.0 : LAS ASCII STANDARD - VERSION 2.0
 WRAP.         NO : ONE LINE PER DEPTH STEP

~WELL INFORMATION
#MNEM.UNIT       DATA TYPE       INFORMATION
#---------       ---------       -----------
 STRT.FT                3800 : START DEPTH
 STOP.FT               10654 : STOP DEPTH
 STEP.FT                 0.5 : STEP LENGTH
 NULL.               -999.25 : NULL VALUE
 UWI.         42389340250000 : UNIQUE WELL ID
 API.         42389340250000 : WELL IDENTIFIER
 COMP.                       : COMPANY
 WELL.  42389340250000_API14 : WELL NAME
 FLD.                        : FIELD NAME
 LOC.                        : WELL LOCATION
 CNTY.                       : COUNTY
 STAT.                       : STATE OR PROVINCE
 CTRY.                       : COUNTRY
 SRVC.                       : SERVICE COMPANY
 DATE.                       : DATE

~CURVE INFORMATION
#MNEM.UNIT       API CODE       CURVE DESCRIPTION
#---------       --------       -----------------
 DEPT.FT        : <MEASURED DEPTH>
 CAL.IN         : CALIPER
 DT.US/FT       : SONIC
 GR.GAPI        : GAMMA RAY

~PARAMETER INFORMATION
#MNEM.UNIT       VALUE       DESCRIPTION
#---------       -----       -----------
 EKB.FT      3120.5 : ELEVATION ABOVE MSL

~A      DEPT         CAL          DT          GR
# ...
        9622      9.4531      64.649     58.4547
      9622.5      9.4531     66.2804     67.8458
        9623      9.4531     68.4049      77.237
      9623.5      9.4531     70.6414     86.6281
        9624      9.4531     72.4336     96.0192
      9624.5      9.4531     73.2236    105.4103
        9625      9.4531     74.1211    114.8014
      9625.5      9.4531     75.2056    116.2234
        9626      9.4531     74.8633     95.4113
      9626.5      9.4531     74.4563    106.4127
        9627      9.4531     73.6955    118.9423
      9627.5      9.4531     71.8612    131.4718
        9628      9.4531     69.7317    126.3421
      9628.5      9.4531     68.7759    109.0885
        9629      9.4531     67.4304      91.835
      9629.5      9.4531      66.899     74.5814
        9630      9.4531     66.0908     57.3278
      9630.5      9.4531     65.4832     40.0742
        9631      9.4531     65.0752     62.5937
      9631.5      9.4531      64.674     91.6394
        9632      9.4531     64.5631     95.1906
      9632.5      9.4531     64.1396     86.9701
        9633      9.4531     63.5485     78.7496
      9633.5      9.4531     63.1695     70.5291
        9634      9.4531     62.9689     64.5163
      9634.5      9.4531     62.7683        62.9
        9635      9.4531     62.5223     61.2837
      9635.5      9.4531     62.3671     59.6674
        9636      9.4531     62.3671     58.0511
      9636.5      9.4531     62.1679     56.4348
        9637      9.4531     62.9372     54.8185
      9637.5      9.4531     63.3701     53.2022
        9638      9.4531     63.8515     51.5859
      9638.5      9.4531     64.3302     52.7856
        9639      9.4531     65.0582     62.9445
      9639.5      9.4531     65.2785     73.1034
        9640      9.4531     65.5798     83.2623
      9640.5      9.4531     66.1963     90.3383
        9641      9.4531     67.5118     95.9648
      9641.5      9.4531     69.0074    101.7253
        9642      9.4531     70.1165     89.2957
      9642.5      9.4531     70.7562     90.5516
        9643      9.4531      71.733     91.8075
      9643.5      9.4531     71.8957     92.7929
        9644      9.4531     71.5453      93.763
      9644.5      9.4531     70.5263     94.7331
        9645      9.4531     69.0437     95.7031
      9645.5      9.4331     68.0174     96.6732
        9646      9.4331     66.5001     93.5957
      9646.5      9.4331     63.9153     75.5107
        9647      9.4331     61.2559     57.4256
      9647.5      9.4331     59.0777     49.7659
        9648      9.3932     58.0586     47.9185
      9648.5      9.3932     57.6516     46.0711
        9649      9.3932     57.1301     44.2237
      9649.5      9.3932     56.9638     42.3763
        9650      9.3932     57.6904     40.5289
      9650.5      9.3932     58.2793     42.1603
        9651      9.3932     58.7166     47.0979
      9651.5      9.4132     59.5948     52.0354
        9652      9.4331     61.0137     56.9729
      9652.5      9.4531     63.1646     61.9104
        9653      9.4531     64.1792     66.8479
      9653.5      9.4531     64.8336     71.7854
        9654      9.4531     65.2406     80.7328
      9654.5       9.489     65.5473     92.4379
        9655       9.493     65.6003    104.1429
      9655.5      9.4531      65.093     115.848
        9656      9.4132     63.0812    109.1509
      9656.5      9.4132     62.5739     92.0177
        9657      9.4132     61.3658     74.8845
      9657.5      9.4132      59.247     57.7512
        9658      9.4132     57.8312     51.8825
      9658.5      9.4132     56.5157      42.706
        9659      9.4132     55.8475     33.5295
      9659.5      9.4132     55.8475     37.5179
        9660      9.4132     55.7816     47.6201
      9660.5      9.4132     55.8475     38.7362
        9661      9.4132      55.601     29.8523
      9661.5      9.4132      55.346     20.9684
        9662      9.4132     55.1882     41.4359
      9662.5      9.4531     55.0451     55.0251
        9663      9.4576     55.0839     44.6077
      9663.5      9.4132     56.2234     34.1903
        9664      9.4132     57.6945     23.7728
      9664.5      9.4132     59.2302     27.2895
        9665      9.4132     60.3451     38.8438
      9665.5      9.4132     61.8634     50.3982
        9666      9.4331     62.5713       84.94
      9666.5      9.4531     62.9689    116.2121
        9667      9.4531     62.9689    114.0467
      9667.5      9.4531      62.647     93.6325
        9668      9.4531     61.9123     73.2183
      9668.5      9.4531       60.83     52.8041
        9669      9.4531     60.4614     32.3898
      9669.5      9.4531     60.5056     34.5683
        9670      9.4531     60.9126     38.0392
      9670.5      9.4531     61.3196     41.5101
        9671      9.4531     62.1894     44.9809
      9671.5      9.4531      63.707     48.4518
        9672      9.4531     65.1673     51.9227
      9672.5      9.4531     66.2362     55.3936
        9673      9.4531     68.1069     58.8644
      9673.5      9.4531     69.7796     67.2082
        9674      9.4531      70.993     90.4715
      9674.5      9.4531     72.0981    113.7348
        9675      9.4531     72.4975    105.3185
      9675.5      9.4531      72.484    109.5483
        9676      9.4531     71.7994     117.921
      9676.5      9.4531     70.0402    115.9678
        9677      9.4254     68.3312    119.8432
      9677.5      9.4132     65.6404     97.6325
        9678      9.4132     63.4588     73.9679
      9678.5      9.4132      62.668      65.344
        9679      9.4132     62.8223     56.7201
      9679.5      9.4132     63.3296     48.0962
        9680      9.4132     64.0029     39.4723
      9680.5      9.4331     65.0889     40.6765
        9681      9.4531     67.3901     48.3375
      9681.5      9.4531     68.4682     55.9986
        9682      9.4531     70.1446     63.6596
      9682.5      9.4531     70.2966     71.3206
        9683      9.4531     69.8896     78.9817
      9683.5      9.4531     68.7687     86.6427
        9684      9.4531     66.2788     94.3037
      9684.5      9.4531     64.8828     95.5173
        9685      9.4531     62.2972     93.8974
      9685.5      9.4731     61.6359     92.2776
        9686       9.493      61.399     90.6577
      9686.5      9.5027      61.806     89.0379
        9687      9.6036     62.6607      87.418
      9687.5      9.6327      64.133     85.7981
        9688      9.6527     66.0096     84.1783
      9688.5      9.6384      67.674     82.5584
        9689      9.5928     69.3269     81.0322
      9689.5      9.4964     70.0406     94.0219
        9690      9.4553     70.2718    107.0116
      9690.5      9.4531     70.2038    113.7163
        9691      9.4531     69.3956    100.3351
      9691.5      9.4531     68.2865      86.954
        9692      9.4531      67.984     73.5729
      9692.5      9.4531     67.9939     60.1918
        9693      9.4531     68.5012      54.137
      9693.5      9.4531     69.0085     49.8283
        9694      9.4531     69.5158     52.2757
      9694.5      9.4531     69.6219     54.7231
        9695      9.4531     70.0903     57.1705
      9695.5      9.4531      70.135     59.6179
        9696      9.4531     70.5918     62.0653
      9696.5      9.4531     70.4352     64.5127
        9697      9.4531     69.7654     66.9601
      9697.5      9.4531     68.9838       75.73
        9698      9.4531     67.6359     94.0663
      9698.5      9.4531     66.9222     92.6083
        9699      9.4531     66.4794     86.6916
      9699.5      9.4531     66.4794     80.7748
        9700      9.4531     66.5797     74.0542
      9700.5      9.4531       66.68     65.0116
        9701      9.4531     66.5716     55.9691
      9701.5      9.4331     66.0643     58.9778
        9702      9.4331     65.0357     63.5593
      9702.5      9.4331     63.9208     68.1409
        9703      9.4331     62.4484     72.7224
      9703.5      9.4331     60.4242      77.304
