#--------------------------------------------------#
#-------------------ENVERUS, INC.------------------#
#------------------WWW.ENVERUS.COM-----------------#
#------------------COPYRIGHT 2020------------------#
#--------------------------------------------------#
#THIS FILE MAY BE USED ONLY IN ACCORDANCE WITH A CURRENT SUBSCRIPTION AGREEMENT BETWEEN
#THE USER AND ENVERUS, INC. NO PART OF THIS FILE MAY BE REPRODUCED, USED, COPIED,
#MODIFIED, PROPAGATED, OR DISTRIBUTED EXCEPT IN ACCORDANCE WITH THE SUBSCRIPTION
#AGREEMENT. UNAUTHORIZED USE OR DISTRIBUTION OF ALL OR ANY PART OF THIS FILE MAY VIOLATE
#COPYRIGHT, TRADEMARK, AND/OR OTHER LAWS AND IS SUBJECT TO CIVIL AS WELL AS CRIMINAL
#SANCTIONS.
#--------------------------------------------------#
#THIS FILE IS PROVIDED "AS-IS" AND ALL WARRANTIES ARE EXPRESSLY DISCLAIMED, WHETHER
#EXPRESS, ORAL, IMPLIED, STATUTORY OR OTHERWISE, INCLUDING ANY IMPLIED WARRANTY OF FITNESS
#FOR A PARTICULAR PURPOSE, MERCHANTABILITY, TITLE OR NON-INFRINGEMENT, AND ANY WARRANTIES
#ARISING BY VIRTUE OF CUSTOM OF TRADE OR COURSE OF DEALING.  FURTHER, ENVERUS, INC.
#AND ITS LICENSORS DO NOT REPRESENT OR WARRANT THAT THIS FILE WILL MEET USER'S
#REQUIREMENTS OR ARE SUITABLE FOR USER'S NEEDS OR THAT THE DATA OR RESULTS PROVIDED IN
#CONJUNCTION THEREWITH ARE CORRECT, ACCURATE, TIMELY OR RELIABLE. THESE DISCLAIMERS SHALL
#APPLY REGARDLESS OF ANY FAILURE OF ESSENTIAL PURPOSE OF ANY LIMITED REMEDY.  SOME
#JURISDICTIONS DO NOT ALLOW THE EXCLUSION OF CERTAIN WARRANTIES SO SOME OF THE ABOVE
#EXCLUSIONS MAY NOT APPLY. IN NO EVENT SHALL ENVERUS, INC. OR ANY OF ITS AFFILIATES
#BE LIABLE UNDER ANY LEGAL THEORY, WHETHER IN TORT (INCLUDING WITHOUT LIMITATION
#NEGLIGENCE), CONTRACT, STRICT LIABILITY, STATUTORY OR OTHERWISE, FOR ANY SPECIAL,
#INCIDENTAL, CONSEQUENTIAL, EXEMPLARY, PUNITIVE OR INDIRECT DAMAGE OF ANY KIND, INCLUDING
#WITHOUT LIMITATION LOSS OF REVENUE, PROFITS, GOODWILL, USE, AND/OR DATA OR THE COST OF
#PROCUREMENT OF SUBSTITUTE GOODS OR SERVICES, EVEN IF APPRISED OF THE POSSIBILITY OF SUCH
#DAMAGES IN ADVANCE.
#--------------------------------------------------#

~VERSION INFORMATION
VERS. 2.0 : CWLS LOG ASCII STANDARD - VERSION 2.0
WRAP.  NO : ONE LINE PER DEPTH STEP
~WELL INFORMATION
#MNEMONIC     .UNIT              VALUE :DESCRIPTION
STRT       .FT                145 :START DEPTH
STOP       .FT                15608 :STOP DEPTH
STEP       .FT                   0.500 :STEP
NULL       .                  -999.250 :NULL
UWI        .              42389304120000 :UNIQUE WELL ID
API        .              42389304120000 :API NUMBER
COMP       .         BTA OIL PRODUCERS :COMPANY
WELL       .        7607 JV-P ORLA  1 :WELL
DATE       .                            :LOG DATE
~CURVE INFORMATION
#MNEMONIC     .UNIT      API CODE :CURVE DESCRIPTION
DEPTH       .FT                      :MEASURED DEPTH
DT.US/FT        UNKNOWN   :DT
CAL.INCH        UNKNOWN   :CAL
GR.API        UNKNOWN   :GR
~A    DEPTH    DT    CAL    GR
# ...
 9612     73.064   13.94   55.434
 9612.5     75.396   13.94   55.107
 9613     74.076   13.94   57.167
 9613.5     72.756   13.939   59.96
 9614     69.992   13.939   60.921
 9614.5     64.584   13.938   58.225
 9615     60.464   13.938   52.03
 9615.5     60.516   13.938   47.544
 9616     63.361   13.937   43.527
 9616.5     66.206   13.937   43.378
 9617     67.559   13.936   43.229
 9617.5     67.514   13.936   43.82
 9618     67.306   13.936   45.016
 9618.5     68.965   13.935   46.212
 9619     70.625   13.935   47.604
 9619.5     71.939   13.935   49.536
 9620     72.044   13.934   51.467
 9620.5     70.661   13.919   53.399
 9621     69.018   13.896   55.331
 9621.5     68.705   13.873   56.016
 9622     70.584   13.85   54.533
 9622.5     72.759   13.827   51.783
 9623     73.548   13.804   49.033
 9623.5     73.122   13.781   46.74
 9624     66.553   13.758   47.125
 9624.5     66.047   13.735   47.511
 9625     63.051   13.713   47.288
 9625.5     58.855   13.69   46.127
 9626     61.192   13.667   44.966
 9626.5     63.186   13.644   39.404
 9627     63.646   13.621   39.723
 9627.5     62.167   13.648   39.634
 9628     59.59   13.69   39.305
 9628.5     61.762   13.732   38.977
 9629     65.114   13.774   38.649
 9629.5     69.296   13.816   38.744
 9630     73.647   13.858   40.534
 9630.5     72.962   13.9   42.324
 9631     72.368   13.941   44.014
 9631.5     74.238   13.983   45.32
 9632     76.109   14.02   46.625
 9632.5     76.849   14.026   47.602
 9633     77.214   14.033   48.467
 9633.5     75.592   14.04   49.332
 9634     69.005   14.046   50.196
 9634.5     68.92   14.053   48.627
 9635     68.836   14.06   45.617
 9635.5     70.178   14.066   42.972
 9636     71.814   14.073   40.964
 9636.5     72.132   14.079   40.008
 9637     72.175   14.086   40.655
 9637.5     72.507   14.093   41.302
 9638     72.84   14.099   41.949
 9638.5     73.172   14.106   42.595
 9639     73.13   14.113   43.303
 9639.5     73.086   14.119   44.01
 9640     73.043   14.126   44.717
 9640.5     72.772   14.132   45.948
 9641     72.455   14.139   47.189
 9641.5     72   14.146   48.431
 9642     71.451   14.152   49.673
 9642.5     70.632   14.159   50.914
 9643     69.392   14.166   51.845
 9643.5     68.705   14.135   51.754
 9644     69.518   14.099   51.663
 9644.5     70.331   14.063   51.573
 9645     71.144   14.026   51.425
 9645.5     71.957   13.99   50.696
 9646     72.486   13.954   49.966
 9646.5     72.249   13.917   49.236
 9647     72.012   13.881   48.507
 9647.5     71.129   13.845   48.149
 9648     69.115   13.808   48
 9648.5     63.738   13.772   47.851
 9649     64.065   13.736   47.702
 9649.5     66.531   13.699   47.553
 9650     68.997   13.663   48.542
 9650.5     71.463   13.662   50.113
 9651     72.858   13.664   51.684
 9651.5     72.514   13.667   53.255
 9652     72.008   13.669   54.826
 9652.5     71.502   13.671   56.397
 9653     70.894   13.673   57.968
 9653.5     70.245   13.675   57.533
 9654     69.845   13.677   56.722
 9654.5     70.015   13.679   54.077
 9655     70.186   13.681   50.3
 9655.5     65.474   13.683   46.523
 9656     64.745   13.685   43.144
 9656.5     63.211   13.687   41.349
 9657     64.642   13.689   41.144
 9657.5     66.851   13.691   41.339
 9658     69.059   13.693   41.535
 9658.5     71.267   13.695   42.31
 9659     73.176   13.697   45.223
 9659.5     72.765   13.699   48.137
 9660     72.353   13.701   51.05
 9660.5     71.955   13.703   53.53
 9661     72.911   13.705   53.785
 9661.5     73.867   13.707   54.041
 9662     72.809   13.709   55.219
 9662.5     71.386   13.711   57.751
 9663     71.924   13.713   60.283
 9663.5     73.129   13.715   62.45
 9664     74.235   13.717   62.661
 9664.5     75.316   13.719   62.873
 9665     67.528   13.721   63.084
 9665.5     67.45   13.723   61.73
 9666     67.372   13.725   60.097
 9666.5     69.139   13.727   58.464
 9667     73.03   13.729   56.32
 9667.5     73.031   13.731   54.023
 9668     69.61   13.733   51.725
 9668.5     65.336   13.735   52.399
 9669     60.814   13.737   53.211
 9669.5     58.197   13.739   50.279
 9670     59.456   13.737   46.171
 9670.5     62.531   13.735   42.063
 9671     66.768   13.732   40.849
 9671.5     70.035   13.729   41.425
 9672     71.446   13.726   42.934
 9672.5     73.054   13.724   50.031
 9673     76.08   13.721   57.129
 9673.5     77.484   13.718   63.814
 9674     75.851   13.715   69.375
 9674.5     73.342   13.713   74.936
 9675     70.833   13.71   75.944
 9675.5     70.213   13.707   74.5
 9676     70.819   13.705   66.94
 9676.5     71.389   13.702   63.214
 9677     70.002   13.699   60.667
 9677.5     68.616   13.696   58.12
 9678     68.305   13.694   56.166
 9678.5     68.095   13.691   55.171
 9679     70.053   13.688   54.177
 9679.5     72.267   13.685   53.182
 9680     74.481   13.683   56.255
 9680.5     77.584   13.68   60.595
 9681     80.947   13.677   64.934
 9681.5     79.914   13.674   69.274
 9682     77.807   13.672   73.614
 9682.5     75.7   13.669   77.279
 9683     75.567   13.666   77.274
 9683.5     75.502   13.664   76.043
 9684     75.437   13.661   70.462
 9684.5     75.372   13.658   64.881
 9685     73.103   13.655   60.373
 9685.5     69.732   13.653   58.053
 9686     66.36   13.65   55.733
 9686.5     65.613   13.647   53.626
 9687     68.697   13.644   52.211
 9687.5     72.08   13.642   50.795
 9688     75.145   13.639   50.514
 9688.5     74.349   13.636   51.672
 9689     71   13.633   52.83
 9689.5     69.251   13.631   55.643
 9690     71.055   13.636   58.495
 9690.5     76.303   13.642   61.347
 9691     81.197   13.647   62.526
 9691.5     81.094   13.653   61.785
 9692     76.528   13.659   65.562
 9692.5     70.159   13.665   71.312
 9693     66.069   13.67   74.73
 9693.5     65.586   13.676   71.102
 9694     63.559   13.682   62.734
 9694.5     60.983   13.687   54.366
 9695     58.882   13.693   50.183
 9695.5     63.78   13.699   48.332
 9696     66.873   13.705   46.928
 9696.5     68.343   13.71   48.825
 9697     68.896   13.716   50.721
 9697.5     65.343   13.722   52.618
 9698     63.62   13.728   54.514
 9698.5     62.057   13.733   55.598
 9699     60.546   13.739   53.804
 9699.5     67.337   13.745   52.011
 9700     70.994   13.75   52.43
 9700.5     72.17   13.756   55.931
 9701     74.442   13.762   59.433
 9701.5     73.164   13.768   62.934
 9702     71.886   13.773   66.435
 9702.5     75.597   13.779   68.352
 9703     77.326   13.785   66.735
 9703.5     75.186   13.791   65.118
 9704     73.046   13.796   63.501
 9704.5     69.58   13.802   61.884
 9705     65.105   13.808   60.267
 9705.5     68.463   13.813   58.65
 9706     72.746   13.819   57.033
 9706.5     77.528   13.825   58.543
 9707     82.31   13.831   61.064
 9707.5     84.754   13.836   63.585
 9708     82.764   13.839   72.447
 9708.5     80.39   13.843   83.124
 9709     78.017   13.846   90.779
 9709.5     75.643   13.849   88.232
 9710     73.27   13.852   85.686
 9710.5     70.896   13.856   72.566
 9711     64.368   13.859   63.382
 9711.5     57.919   13.862   54.198
 9712     57.242   13.865   45.015
 9712.5     56.566   13.869   35.831
 9713     58.502   13.872   34.154
 9713.5     62.548   13.875   33.504
 9714     66.593   13.878   32.854
 9714.5     67.748   13.881   34.427
 9715     68.499   13.885   37.825
 9715.5     69.249   13.888   41.223
 9716     70   13.891   44.621
 9716.5     70.751   13.894   48.019
 9717     71.663   13.898   50.236
 9717.5     73.333   13.901   51.96
 9718     75.002   13.904   53.684
 9718.5     75.482   13.907   55.409
 9719     75.852   13.911   57.133
 9719.5     75.308   13.914   58.152
 9720     74.138   13.917   58.537
 9720.5     74.115   13.92   58.922
 9721     74.103   13.924   57.719
 9721.5     72.169   13.927   56.05
 9722     70.235   13.93   54.381
 9722.5     69.776   13.933   52.712
 9723     70.049   13.936   51.043
 9723.5     71.607   13.94   49.966
 9724     73.165   13.943   51.641
