###############################################
##         ENVERUS                           ##
##         ESS - Open Hole                   ##
##         PERMIAN / DELAWARE                ##
##         Nov 02 2023  V4.0                 ##
##         42-301-31112-00-00                ##
###############################################
## Copyright 2017-2023  ENVERUS.  All Rights Reserved. 
## Confidential - Property of ENVERUS, use governed by terms and 
## conditions found within the existing Information Services Subscription Agreement 
## (as may be amended, the “ISSA”) between Customer and ENVERUS. 
## 
~VERSION INFORMATION
# MNEM.UNIT                               DATA : DESCRIPTION OF MNEMONIC
#-----.-----     ----------------------------- : -----------------------------
VERS.                                     2.00 : CWLS LOG ASCII STANDARD - VERSION 2.00
WRAP.                                       NO : MULTIPLE LINES PER DEPTH STEP
VEND.                                  ENVERUS : VENDOR
TYPE.                          ESS - OPEN HOLE : ENVERUS ESSENTIAL CURVES – ACCESSIBLE THROUGH ENVERUS PRISM(TM)
DOC.                                  31879965 : ENVERUS HEADER RAW DOCUMENT ID
#___________________________________________________________________________________________________ 
~WELL INFORMATION 
# p11foxtE5QnwhaJbtzBz2LJF4p4dkL7jzyXNzohJvMqLCglFSJK87xuVm3WB3m+8huK6qzS+fp5X73xeHrMy5w== 
# MNEM.UNIT                                              DATA : DESCRIPTION OF MNEMONIC 
#-----.-----                    ----------------------------- : ----------------------------- 
CNTY.                                                  LOVING : COUNTY 
STATE.                                                  TEXAS : STATE 
CNTRY.                                                    USA : COUNTRY 
API.                                             42-301-31112 : API (10 Digit) 
API_14.                                    42-301-31112-00-00 : API (14 Digits) 
API_14_std.                                 42-301-31112-0000 : API (14 Digits Standard) 
UWI.                                           42301311120000 : UNIQUE WELL ID 
WELL.                                                    JR 1 : WELL NAME
STRT.FT                                                3102.0 : START DEPTH
STOP.FT                                               15993.0 : STOP DEPTH
STEP.FT                                                   0.5 : STEP BETWEEN DEPTHS
NULL.                                                 -999.25 : NULL VALUE
LOC.                                                      UNK : LOCATION 
SRVC.                                                     UNK : SERVICE COMPANY
#___________________________________________________________________________________________________ 
~CURVE INFORMATION 
# MNEM.UNIT           : CURVE DESCRIPTION 
#-----.-----          : ----------------------------- 
 DEPT.FT               : MEASURED DEPTH 
 CALI.IN               : CALIPER (CAL - CAL) 
 GR.API                : GAMMA RAY (GR) 
 DT.US/FT              : SONIC DELTA TRANSIT TIME (DT) 
 #___________________________________________________________________________________________________ 
~A         DEPT           CALI             GR             DT
# ...
         3234.0       -999.250         15.943       -999.250
         3234.5       -999.250         16.515       -999.250
         3235.0       -999.250         17.087       -999.250
         3235.5       -999.250         17.658       -999.250
         3236.0       -999.250         17.997       -999.250
         3236.5       -999.250         17.295       -999.250
         3237.0       -999.250         16.593       -999.250
         3237.5       -999.250         16.273       -999.250
         3238.0       -999.250         16.845       -999.250
         3238.5       -999.250         17.417       -999.250
         3239.0       -999.250         17.846       -999.250
         3239.5       -999.250         17.839       -999.250
         3240.0       -999.250         16.823       -999.250
         3240.5       -999.250         15.808       -999.250
         3241.0       -999.250         14.792       -999.250
         3241.5       -999.250         13.777       -999.250
         3242.0       -999.250         13.123       -999.250
         3242.5       -999.250         13.758       -999.250
         3243.0       -999.250         14.978       -999.250
         3243.5       -999.250         16.198       -999.250
         3244.0       -999.250         17.418       -999.250
         3244.5       -999.250         17.698       -999.250
         3245.0       -999.250         17.152       -999.250
         3245.5       -999.250         15.972       -999.250
         3246.0       -999.250         15.086       -999.250
         3246.5       -999.250         15.716       -999.250
         3247.0       -999.250         16.056       -999.250
         3247.5       -999.250         15.983       -999.250
         3248.0       -999.250         15.910       -999.250
         3248.5       -999.250         16.163       -999.250
         3249.0       -999.250         16.404       -999.250
         3249.5       -999.250         15.309       -999.250
         3250.0       -999.250         15.257       -999.250
         3250.5       -999.250         16.211       -999.250
         3251.0       -999.250         16.781       -999.250
         3251.5       -999.250         16.691       -999.250
         3252.0       -999.250         16.600       -999.250
         3252.5       -999.250         16.612       -999.250
         3253.0       -999.250         16.855       -999.250
         3253.5       -999.250         17.097       -999.250
         3254.0       -999.250         17.340       -999.250
         3254.5       -999.250         17.583       -999.250
         3255.0       -999.250         17.236       -999.250
         3255.5       -999.250         16.041       -999.250
         3256.0       -999.250         15.752       -999.250
         3256.5       -999.250         16.416       -999.250
         3257.0       -999.250         17.081       -999.250
         3257.5       -999.250         16.909       -999.250
         3258.0       -999.250         16.604       -999.250
         3258.5       -999.250         16.299       -999.250
         3259.0       -999.250         16.565       -999.250
         3259.5       -999.250         17.318       -999.250
         3260.0         12.734         18.071       -999.250
         3260.5         13.017         18.823       -999.250
         3261.0         13.081         18.526       -999.250
         3261.5         13.254         17.241       -999.250
         3262.0         14.033         15.957       -999.250
         3262.5         14.813         14.672       -999.250
         3263.0         14.269         15.792       -999.250
         3263.5         13.457         17.079       -999.250
         3264.0         15.754         18.062       -999.250
         3264.5         17.699         17.982       -999.250
         3265.0         17.824         17.903       -999.250
         3265.5         14.357         17.823       -999.250
         3266.0         13.182         18.624       -999.250
         3266.5         13.062         19.760       -999.250
         3267.0         13.062         21.039       -999.250
         3267.5         13.062         19.996       -999.250
         3268.0         13.062         18.139       -999.250
         3268.5         13.062         17.907       -999.250
         3269.0         13.062         18.456       -999.250
         3269.5         13.061         20.298       -999.250
         3270.0         13.061         21.085       -999.250
         3270.5         13.061         21.871       -999.250
         3271.0         13.061         22.355       -999.250
         3271.5         13.061         22.234       -999.250
         3272.0         13.061         20.338       -999.250
         3272.5         13.061         18.442       -999.250
         3273.0         13.061         16.802       -999.250
         3273.5         13.061         16.998       -999.250
         3274.0         13.061         17.194       -999.250
         3274.5         13.061         17.019       -999.250
         3275.0         13.061         16.072       -999.250
         3275.5         13.060         15.125       -999.250
         3276.0         13.060         14.614       -999.250
         3276.5         13.060         14.287       -999.250
         3277.0         13.060         13.904       -999.250
         3277.5         13.060         13.246       -999.250
         3278.0         13.060         12.587       -999.250
         3278.5         13.060         11.929       -999.250
         3279.0         13.060         11.271       -999.250
         3279.5         13.060         10.830       -999.250
         3280.0         13.060         10.966       -999.250
         3280.5         13.060         10.984       -999.250
         3281.0         13.060         10.672       -999.250
         3281.5         13.059         10.360       -999.250
         3282.0         13.059         10.655       -999.250
         3282.5         13.059         11.016       -999.250
         3283.0         13.059         11.363       -999.250
         3283.5         13.059         11.587       -999.250
         3284.0         13.059         11.811       -999.250
         3284.5         13.059         12.823       -999.250
         3285.0         13.059         14.250       -999.250
         3285.5         13.059         15.397       -999.250
         3286.0         13.059         15.820       -999.250
         3286.5         13.059         14.989       -999.250
         3287.0         13.059         15.012       -999.250
         3287.5         13.059         15.647       -999.250
         3288.0         13.058         16.283       -999.250
         3288.5         13.058         15.383       -999.250
         3289.0         13.058         14.252       -999.250
         3289.5         13.057         13.366       -999.250
         3290.0         13.055         13.304       -999.250
         3290.5         13.052         14.198       -999.250
         3291.0         13.050         15.093       -999.250
         3291.5         13.048         14.874       -999.250
         3292.0         13.046         13.481       -999.250
         3292.5         13.044         12.087       -999.250
         3293.0         13.042         11.346       -999.250
         3293.5         13.042         11.279       -999.250
         3294.0         13.043         11.686       -999.250
         3294.5         13.044         13.744       -999.250
         3295.0         13.045         17.182       -999.250
         3295.5         13.046         20.621       -999.250
         3296.0         13.047         24.060       -999.250
         3296.5         13.048         27.498       -999.250
         3297.0         13.049         31.677       -999.250
         3297.5         13.050         35.943       -999.250
         3298.0         13.051         40.209       -999.250
         3298.5         13.052         42.840       -999.250
         3299.0         13.053         42.634       -999.250
         3299.5         13.054         41.329       -999.250
