###############################################
##         ENVERUS                           ##
##         ESS - Open Hole                   ##
##         PERMIAN / DELAWARE                ##
##         Nov 04 2023  V4.0                 ##
##         42-389-30424-00-00                ##
###############################################
## Copyright 2017-2023  ENVERUS.  All Rights Reserved. 
## Confidential - Property of ENVERUS, use governed by terms and 
## conditions found within the existing Information Services Subscription Agreement 
## (as may be amended, the “ISSA”) between Customer and ENVERUS. 
## 
~VERSION INFORMATION
# MNEM.UNIT                               DATA : DESCRIPTION OF MNEMONIC
#-----.-----     ----------------------------- : -----------------------------
VERS.                                     2.00 : CWLS LOG ASCII STANDARD - VERSION 2.00
WRAP.                                       NO : MULTIPLE LINES PER DEPTH STEP
VEND.                                  ENVERUS : VENDOR
TYPE.                          ESS - OPEN HOLE : ENVERUS ESSENTIAL CURVES – ACCESSIBLE THROUGH ENVERUS PRISM(TM)
DOC.                                  32008121 : ENVERUS HEADER RAW DOCUMENT ID
#___________________________________________________________________________________________________ 
~WELL INFORMATION 
# BBd8zmUYmd+wUdICSlYDIOWaOe8iOeA0ELK9EhSbx74Kr6OX4zJxS/eo6cO6KK5SWMTSkVzaKbU2EBBfROvOKA== 
# MNEM.UNIT                                              DATA : DESCRIPTION OF MNEMONIC 
#-----.-----                    ----------------------------- : ----------------------------- 
CNTY.                                                  REEVES : COUNTY 
STATE.                                                  TEXAS : STATE 
CNTRY.                                                    USA : COUNTRY 
API.                                             42-389-30424 : API (10 Digit) 
API_14.                                    42-389-30424-00-00 : API (14 Digits) 
API_14_std.                                 42-389-30424-0000 : API (14 Digits Standard) 
UWI.                                           42389304240000 : UNIQUE WELL ID 
WELL.                                      LEWELLING STATE  1 : WELL NAME
STRT.FT                                                   7.0 : START DEPTH
STOP.FT                                               15912.0 : STOP DEPTH
STEP.FT                                                   0.5 : STEP BETWEEN DEPTHS
NULL.                                                 -999.25 : NULL VALUE
COMP.                           PENN VIRGINIA OIL & GAS CORP. : COMPANY 
DATE.                                             14-AUG-1976 : LOG DATE
#___________________________________________________________________________________________________ 
~CURVE INFORMATION 
# MNEM.UNIT           : CURVE DESCRIPTION 
#-----.-----          : ----------------------------- 
 DEPT.FT               : MEASURED DEPTH 
 CALI__A.IN            : CALIPER (CAL - CAL) 
 GR__A.API             : GAMMA RAY (GR) 
 DT__A.US/FT           : SONIC DELTA TRANSIT TIME (DT) 
 DPHI__A.V/V           : DENSITY POROSITY (DPHI) 
 NPHI__A.V/V           : NEUTRON POROSITY (NPHI) 
 #___________________________________________________________________________________________________ 
~A         DEPT        CALI__A          GR__A          DT__A        DPHI__A        NPHI__A
# ...
        10611.0         12.755         59.678         80.738     -999.25000     -999.25000
        10611.5         12.766         62.468         83.128     -999.25000     -999.25000
        10612.0         12.766         65.257         84.277     -999.25000     -999.25000
        10612.5         12.766         66.980         84.163     -999.25000     -999.25000
        10613.0         12.766         68.700         83.476     -999.25000     -999.25000
        10613.5         12.754         70.385         82.273     -999.25000     -999.25000
        10614.0         12.685         67.500         80.880     -999.25000     -999.25000
        10614.5         12.616         65.032         80.377     -999.25000     -999.25000
        10615.0         12.547         63.008         79.822     -999.25000     -999.25000
        10615.5         12.549         60.984         77.574     -999.25000     -999.25000
        10616.0         12.581         62.116         78.001     -999.25000     -999.25000
        10616.5         12.613         63.884         79.408     -999.25000     -999.25000
        10617.0         12.646         65.652         80.816     -999.25000     -999.25000
        10617.5         12.678         67.082         82.223     -999.25000     -999.25000
        10618.0         12.687         65.319         82.299     -999.25000     -999.25000
        10618.5         12.685         63.557         80.484     -999.25000     -999.25000
        10619.0         12.682         61.794         80.125     -999.25000     -999.25000
        10619.5         12.680         60.852         80.851     -999.25000     -999.25000
        10620.0         12.678         60.737         81.577     -999.25000     -999.25000
        10620.5         12.676         59.214         82.302     -999.25000     -999.25000
        10621.0         12.674         55.799         82.514     -999.25000     -999.25000
        10621.5         12.672         52.384         79.580     -999.25000     -999.25000
        10622.0         12.670         48.969         75.611     -999.25000     -999.25000
        10622.5         12.668         47.659         74.160     -999.25000     -999.25000
        10623.0         12.666         49.218         76.170     -999.25000     -999.25000
        10623.5         12.663         50.778         78.180     -999.25000     -999.25000
        10624.0         12.661         52.337         80.190     -999.25000     -999.25000
        10624.5         12.659         54.912         82.200     -999.25000     -999.25000
        10625.0         12.657         58.512         84.210     -999.25000     -999.25000
        10625.5         12.655         63.443         86.221     -999.25000     -999.25000
        10626.0         12.653         69.937         88.233     -999.25000     -999.25000
        10626.5         12.729         67.982         86.707     -999.25000     -999.25000
        10627.0         12.977         66.691         83.958     -999.25000     -999.25000
        10627.5         13.224         65.400         81.571     -999.25000     -999.25000
        10628.0         13.348         64.138         79.341     -999.25000     -999.25000
        10628.5         13.048         64.164         79.121     -999.25000     -999.25000
        10629.0         12.749         64.190         80.765     -999.25000     -999.25000
        10629.5         12.495         64.216         82.409     -999.25000     -999.25000
        10630.0         12.522         64.242         84.053     -999.25000     -999.25000
        10630.5         12.548         64.268         84.952     -999.25000     -999.25000
        10631.0         12.574         64.294         83.516     -999.25000     -999.25000
        10631.5         12.600         64.320         85.754     -999.25000     -999.25000
        10632.0         12.613         64.346         84.755     -999.25000     -999.25000
        10632.5         12.614         64.372         82.842     -999.25000     -999.25000
        10633.0         12.614         64.398         82.122     -999.25000     -999.25000
        10633.5         12.614         64.404         81.786     -999.25000     -999.25000
        10634.0         12.614         64.391         83.020     -999.25000     -999.25000
        10634.5         12.614         64.377         85.354     -999.25000     -999.25000
        10635.0         12.615         64.364         85.354     -999.25000     -999.25000
        10635.5         12.615         64.350         84.520     -999.25000     -999.25000
        10636.0         12.615         64.336         83.402     -999.25000     -999.25000
        10636.5         12.615         64.323         83.401     -999.25000     -999.25000
        10637.0         12.615         64.309         83.637     -999.25000     -999.25000
        10637.5         12.616         64.296         82.159     -999.25000     -999.25000
        10638.0         12.616         64.282         80.681     -999.25000     -999.25000
        10638.5         12.616         64.269         79.203     -999.25000     -999.25000
        10639.0         12.616         64.255         78.377     -999.25000     -999.25000
        10639.5         12.616         64.241         77.914     -999.25000     -999.25000
        10640.0         12.617         64.228         79.411     -999.25000     -999.25000
        10640.5         12.617         64.214         80.769     -999.25000     -999.25000
        10641.0         12.617         64.201         80.045     -999.25000     -999.25000
        10641.5         12.617         64.187         79.321     -999.25000     -999.25000
        10642.0         12.617         64.174         78.086     -999.25000     -999.25000
        10642.5         12.618         64.160         75.569     -999.25000     -999.25000
        10643.0         12.618         64.147         75.370     -999.25000     -999.25000
        10643.5         12.618         64.133         74.583     -999.25000     -999.25000
        10644.0         12.618         64.119         71.151     -999.25000     -999.25000
        10644.5         12.618         64.106         65.995     -999.25000     -999.25000
        10645.0         12.619         64.092         61.568     -999.25000     -999.25000
        10645.5         12.619         64.079         62.653     -999.25000     -999.25000
        10646.0         12.619         64.065         67.484     -999.25000     -999.25000
        10646.5         12.619         64.052         72.314     -999.25000     -999.25000
        10647.0         12.619         64.038         78.168     -999.25000     -999.25000
        10647.5         12.620         64.024         82.113     -999.25000     -999.25000
        10648.0         12.620         32.150         82.218     -999.25000     -999.25000
        10648.5         12.620         36.083         85.233     -999.25000     -999.25000
        10649.0         12.620         37.076         86.000     -999.25000     -999.25000
        10649.5         12.620         38.069         86.008     -999.25000     -999.25000
        10650.0         12.621         39.063         86.015     -999.25000     -999.25000
        10650.5         12.621         38.930         86.023     -999.25000     -999.25000
        10651.0          8.745         38.282         86.031     -999.25000     -999.25000
        10651.5          8.753         37.634         86.038     -999.25000     -999.25000
        10652.0          8.774         36.982         86.046        0.23872     -999.25000
        10652.5          8.795         35.787         86.054        0.23768     -999.25000
        10653.0          8.756         34.593         86.061        0.24002     -999.25000
        10653.5          8.698         33.398         86.069        0.24428     -999.25000
        10654.0          8.679         33.574         86.076        0.24222     -999.25000
        10654.5          8.718         33.964         86.084        0.24017     -999.25000
