###############################################
##         ENVERUS                           ##
##         ESS - Open Hole                   ##
##         PERMIAN / DELAWARE                ##
##         Nov 04 2023  V4.0                 ##
##         42-389-31391-00-00                ##
###############################################
## Copyright 2017-2023  ENVERUS.  All Rights Reserved. 
## Confidential - Property of ENVERUS, use governed by terms and 
## conditions found within the existing Information Services Subscription Agreement 
## (as may be amended, the “ISSA”) between Customer and ENVERUS. 
## 
~VERSION INFORMATION
# MNEM.UNIT                               DATA : DESCRIPTION OF MNEMONIC
#-----.-----     ----------------------------- : -----------------------------
VERS.                                     2.00 : CWLS LOG ASCII STANDARD - VERSION 2.00
WRAP.                                       NO : MULTIPLE LINES PER DEPTH STEP
VEND.                                  ENVERUS : VENDOR
TYPE.                          ESS - OPEN HOLE : ENVERUS ESSENTIAL CURVES – ACCESSIBLE THROUGH ENVERUS PRISM(TM)
DOC.                                  23866972 : ENVERUS HEADER RAW DOCUMENT ID
#___________________________________________________________________________________________________ 
~WELL INFORMATION 
# fYFWm3OWRd9IdMsmH1sgiJ8+yI47SyIf11h8n9fSv2EtxvNnkQHcFoeZabdKB/2nhpfFDZXLrBDJ+4Q2ZBaHeQ== 
# MNEM.UNIT                                              DATA : DESCRIPTION OF MNEMONIC 
#-----.-----                    ----------------------------- : ----------------------------- 
CNTY.                                                  REEVES : COUNTY 
STATE.                                                  TEXAS : STATE 
CNTRY.                                                    USA : COUNTRY 
API.                                             42-389-31391 : API (10 Digit) 
API_14.                                    42-389-31391-00-00 : API (14 Digits) 
API_14_std.                                 42-389-31391-0000 : API (14 Digits Standard) 
UWI.                                           42389313910000 : UNIQUE WELL ID 
WELL.                                       DIXIELAND # 3 - 1 : WELL NAME
STRT.FT                                                4000.0 : START DEPTH
STOP.FT                                               12000.0 : STOP DEPTH
STEP.FT                                                   0.5 : STEP BETWEEN DEPTHS
NULL.                                                 -999.25 : NULL VALUE
COMP.                             R. K. PETROLEUM CORPORATION : COMPANY 
FLD.                                                  WILDCAT : FIELD 
DATE.                                              08/13/2015 : DATE 
TVD.                                                       NO : TVD FLAG 
WSTA.                                                     LOC : WELL STATUS
#___________________________________________________________________________________________________ 
~PARAMETER INFORMATION 
# MNEM.UNIT                                              DATA : DESCRIPTION OF MNEMONIC 
#-----.-----                    ----------------------------- : ----------------------------- 
RUN.                                                      ONE : RUN NUMBER 
PDAT.                                                      GL : PERMANENT DATUM 
LMF.                                            KELLY BUSHING : LOG MEASURED FROM
#___________________________________________________________________________________________________ 
~CURVE INFORMATION 
# MNEM.UNIT           : CURVE DESCRIPTION 
#-----.-----          : ----------------------------- 
 DEPT.FT               : MEASURED DEPTH 
 CALI.IN               : CALIPER (CALIPER) 
 GR.API                : GAMMA RAY (GAMMA RAY) 
 DT.US/FT              : SONIC DELTA TRANSIT TIME (DELTA-T) 
 RESD.OHMM             : DEEP INDUCTION RESISTIVITY (ILD - DEEP INDUCTION STANDARD PROCESSED RESISTIVITY) 
 RESD_LL.OHMM          : DEEP LATEROLOG (LLD - LATERO-LOG DEEP (RESISTIVITY)) 
 NPHI.V/V              : NEUTRON POROSITY (NEUTRON POROSITY) 
 #___________________________________________________________________________________________________ 
~A         DEPT           CALI             GR             DT           RESD        RESD_LL           NPHI
# ...
         7724.0         12.802        123.118         82.971       -999.250        46.7308     -999.25000
         7724.5         12.859        126.426         84.962       -999.250        53.0478     -999.25000
         7725.0         12.918        128.664         86.954       -999.250        56.9365     -999.25000
         7725.5         12.943        129.641         87.315       -999.250        46.4582     -999.25000
         7726.0         12.936        128.413         88.517       -999.250        46.6796     -999.25000
         7726.5         12.921        124.900         88.277       -999.250        47.1256     -999.25000
         7727.0         12.906        117.943         88.303       -999.250        92.5432     -999.25000
         7727.5         12.921        111.341         87.846       -999.250        90.8303     -999.25000
         7728.0         12.904         80.243         83.117       -999.250       148.8101     -999.25000
         7728.5         12.820         81.606         74.152       -999.250       177.9590     -999.25000
         7729.0         12.741         83.939         75.086       -999.250       168.2594     -999.25000
         7729.5         12.674         88.445         74.581       -999.250        82.7300     -999.25000
         7730.0         12.672         91.057         77.570       -999.250        78.2208     -999.25000
         7730.5         12.698         93.446         80.415       -999.250        68.6320     -999.25000
         7731.0         12.721         95.784         82.214       -999.250        69.1856     -999.25000
         7731.5         12.737         97.383         81.854       -999.250        71.2450     -999.25000
         7732.0         12.766         99.516         81.500       -999.250        70.1968     -999.25000
         7732.5         12.842        101.248         81.149       -999.250        69.0930     -999.25000
         7733.0         12.915        102.063         80.802       -999.250        67.3618     -999.25000
         7733.5         12.953        108.947         81.745       -999.250        69.9263     -999.25000
         7734.0         12.971        106.886         83.357       -999.250        71.6186     -999.25000
         7734.5         12.990        104.574         84.969       -999.250        73.9573     -999.25000
         7735.0         13.010        101.904         86.325       -999.250        66.1150     -999.25000
         7735.5         13.020         96.641         87.378       -999.250        62.5114     -999.25000
         7736.0         13.002         91.728         86.455       -999.250        49.4703     -999.25000
         7736.5         12.983         89.825         81.655       -999.250        43.7176     -999.25000
         7737.0         12.964         87.218         82.077       -999.250        40.6768     -999.25000
         7737.5         12.947         92.537         80.269       -999.250        42.2254     -999.25000
         7738.0         12.931        114.579         80.025       -999.250        31.7427     -999.25000
         7738.5         12.898        129.003         79.980       -999.250        31.5279     -999.25000
         7739.0         12.880        130.985         82.216       -999.250        31.3153     -999.25000
         7739.5         12.794        130.833         86.112       -999.250        33.3667     -999.25000
         7740.0         12.809        130.185         86.232       -999.250        34.5194     -999.25000
         7740.5         12.839        128.888         86.473       -999.250        35.7118     -999.25000
         7741.0         12.879        120.320         86.473       -999.250        36.3634     -999.25000
         7741.5         12.921        112.286         85.992       -999.250        35.3833     -999.25000
         7742.0         12.917        107.337         85.391       -999.250        39.5971     -999.25000
         7742.5         12.860        106.425         84.681       -999.250        43.5473     -999.25000
         7743.0         12.806        105.643         83.707       -999.250        48.1714     -999.25000
         7743.5         12.779        107.581         83.226       -999.250        52.8935     -999.25000
         7744.0         12.766        104.966         82.227       -999.250        52.3162     -999.25000
         7744.5         12.739        102.458         81.053       -999.250        51.3272     -999.25000
         7745.0         12.706        100.059         81.904       -999.250        49.9154     -999.25000
         7745.5         12.749         97.131         81.543       -999.250        46.4146     -999.25000
         7746.0         12.827         94.985         80.382       -999.250        42.5932     -999.25000
         7746.5         12.890        104.072         78.778       -999.250        38.3627     -999.25000
         7747.0         12.948        120.545         79.259       -999.250        35.0298     -999.25000
         7747.5         13.016        119.435         79.848       -999.250        30.8933     -999.25000
         7748.0         13.021        118.776         81.702       -999.250        31.2627     -999.25000
         7748.5         13.026        114.178         83.556       -999.250        32.0148     -999.25000
         7749.0         13.027        110.190         85.150       -999.250        34.7950     -999.25000
         7749.5         13.030        106.825         85.631       -999.250        39.9239     -999.25000
         7750.0         13.032        106.817         85.030       -999.250        41.0585     -999.25000
         7750.5         13.034        106.220         84.412       -999.250        42.0463     -999.25000
         7751.0         13.037        105.470         83.948       -999.250        43.0217     -999.25000
         7751.5         13.039        103.196         82.852       -999.250        49.9570     -999.25000
         7752.0         13.042        104.278         81.577       -999.250        51.2744     -999.25000
         7752.5         13.044        104.865         80.302       -999.250        52.0935     -999.25000
         7753.0         13.047        105.487         79.980       -999.250        52.8368     -999.25000
         7753.5         13.049        101.542         79.801       -999.250        62.5114     -999.25000
         7754.0         13.052         94.224         79.619       -999.250        58.0102     -999.25000
         7754.5         13.054         86.020         75.291       -999.250        83.5454     -999.25000
         7755.0         13.056         77.971         77.335       -999.250        92.5432     -999.25000
         7755.5         13.060         72.714         75.536       -999.250       107.4616     -999.25000
         7756.0         13.059         71.476         75.149       -999.250       107.4616     -999.25000
         7756.5         13.060         72.311         76.253       -999.250       107.4616     -999.25000
         7757.0         13.065         72.970         76.488       -999.250       111.9913     -999.25000
         7757.5         13.017         71.694         77.094       -999.250       113.6564     -999.25000
         7758.0         12.979         71.708         76.727       -999.250       109.4226     -999.25000
         7758.5         12.952         71.559         76.366       -999.250       106.2231     -999.25000
         7759.0         12.908         71.165         76.012       -999.250       101.8190     -999.25000
         7759.5         12.898         72.524         77.413       -999.250        99.4743     -999.25000
         7760.0         12.900         72.043         78.958       -999.250       106.4804     -999.25000
         7760.5         12.901         70.788         79.472       -999.250       113.0069     -999.25000
         7761.0         12.898         69.609         79.214       -999.250       123.8905     -999.25000
         7761.5         12.904         59.391         77.814       -999.250       154.9316     -999.25000
