#--------------------------------------------------#
#-------------------ENVERUS, INC.------------------#
#------------------WWW.ENVERUS.COM-----------------#
#------------------COPYRIGHT 2020------------------#
#--------------------------------------------------#
#THIS FILE MAY BE USED ONLY IN ACCORDANCE WITH A CURRENT SUBSCRIPTION AGREEMENT BETWEEN
#THE USER AND ENVERUS, INC. NO PART OF THIS FILE MAY BE REPRODUCED, USED, COPIED,
#MODIFIED, PROPAGATED, OR DISTRIBUTED EXCEPT IN ACCORDANCE WITH THE SUBSCRIPTION
#AGREEMENT. UNAUTHORIZED USE OR DISTRIBUTION OF ALL OR ANY PART OF THIS FILE MAY VIOLATE
#COPYRIGHT, TRADEMARK, AND/OR OTHER LAWS AND IS SUBJECT TO CIVIL AS WELL AS CRIMINAL
#SANCTIONS.
#--------------------------------------------------#
#THIS FILE IS PROVIDED "AS-IS" AND ALL WARRANTIES ARE EXPRESSLY DISCLAIMED, WHETHER
#EXPRESS, ORAL, IMPLIED, STATUTORY OR OTHERWISE, INCLUDING ANY IMPLIED WARRANTY OF FITNESS
#FOR A PARTICULAR PURPOSE, MERCHANTABILITY, TITLE OR NON-INFRINGEMENT, AND ANY WARRANTIES
#ARISING BY VIRTUE OF CUSTOM OF TRADE OR COURSE OF DEALING.  FURTHER, ENVERUS, INC.
#AND ITS LICENSORS DO NOT REPRESENT OR WARRANT THAT THIS FILE WILL MEET USER'S
#REQUIREMENTS OR ARE SUITABLE FOR USER'S NEEDS OR THAT THE DATA OR RESULTS PROVIDED IN
#CONJUNCTION THEREWITH ARE CORRECT, ACCURATE, TIMELY OR RELIABLE. THESE DISCLAIMERS SHALL
#APPLY REGARDLESS OF ANY FAILURE OF ESSENTIAL PURPOSE OF ANY LIMITED REMEDY.  SOME
#JURISDICTIONS DO NOT ALLOW THE EXCLUSION OF CERTAIN WARRANTIES SO SOME OF THE ABOVE
#EXCLUSIONS MAY NOT APPLY. IN NO EVENT SHALL ENVERUS, INC. OR ANY OF ITS AFFILIATES
#BE LIABLE UNDER ANY LEGAL THEORY, WHETHER IN TORT (INCLUDING WITHOUT LIMITATION
#NEGLIGENCE), CONTRACT, STRICT LIABILITY, STATUTORY OR OTHERWISE, FOR ANY SPECIAL,
#INCIDENTAL, CONSEQUENTIAL, EXEMPLARY, PUNITIVE OR INDIRECT DAMAGE OF ANY KIND, INCLUDING
#WITHOUT LIMITATION LOSS OF REVENUE, PROFITS, GOODWILL, USE, AND/OR DATA OR THE COST OF
#PROCUREMENT OF SUBSTITUTE GOODS OR SERVICES, EVEN IF APPRISED OF THE POSSIBILITY OF SUCH
#DAMAGES IN ADVANCE.
#--------------------------------------------------#

~VERSION INFORMATION
VERS. 2.0 : CWLS LOG ASCII STANDARD - VERSION 2.0
WRAP.  NO : ONE LINE PER DEPTH STEP
~WELL INFORMATION
#MNEMONIC     .UNIT              VALUE :DESCRIPTION
STRT       .FT                47 :START DEPTH
STOP       .FT                15730 :STOP DEPTH
STEP       .FT                   0.500 :STEP
NULL       .                  -999.250 :NULL
UWI        .              42389303580000 :UNIQUE WELL ID
API        .              42389303580000 :API NUMBER
COMP       .         CIMAREX ENERGY CO. OF COLORADO :COMPANY
WELL       .        REEVES  AZ  FEE  1 :WELL
DATE       .                08-JAN-2006 :LOG DATE
~CURVE INFORMATION
#MNEMONIC     .UNIT      API CODE :CURVE DESCRIPTION
DEPTH       .FT                      :MEASURED DEPTH
NEUT.API        UNKNOWN   :NEUT
GR.API        UNKNOWN   :GR
DT.US/FT        UNKNOWN   :DT
CAL.INCH        UNKNOWN   :CAL
~A    DEPTH    NEUT    GR    DT    CAL
# ...
 12976     994.328   13.914   -999.250   -999.250
 12976.5     983.063   12.423   -999.250   -999.250
 12977     970.34   10.933   -999.250   -999.250
 12977.5     950.925   9.442   -999.250   -999.250
 12978     931.51   8.175   -999.250   -999.250
 12978.5     912.096   7.578   -999.250   -999.250
 12979     892.681   6.982   -999.250   -999.250
 12979.5     873.266   6.546   -999.250   -999.250
 12980     860.097   6.486   -999.250   -999.250
 12980.5     854.436   6.426   -999.250   -999.250
 12981     848.776   6.405   -999.250   -999.250
 12981.5     846.592   6.441   -999.250   -999.250
 12982     853.947   6.478   -999.250   -999.250
 12982.5     861.302   6.514   -999.250   -999.250
 12983     868.657   6.551   -999.250   -999.250
 12983.5     877.2   6.364   -999.250   -999.250
 12984     886.086   5.885   -999.250   -999.250
 12984.5     894.971   5.406   -999.250   -999.250
 12985     903.856   5.22   -999.250   -999.250
 12985.5     912.741   5.335   -999.250   -999.250
 12986     921.626   5.45   -999.250   -999.250
 12986.5     930.512   5.565   -999.250   -999.250
 12987     942.703   5.68   -999.250   -999.250
 12987.5     959.974   5.795   -999.250   -999.250
 12988     977.245   5.897   -999.250   -999.250
 12988.5     994.517   5.969   -999.250   -999.250
 12989     1011.788   6.041   -999.250   -999.250
 12989.5     1029.06   6.589   -999.250   -999.250
 12990     1042.794   7.114   -999.250   -999.250
 12990.5     1056.098   7.247   -999.250   -999.250
 12991     1061.663   7.133   -999.250   -999.250
 12991.5     1064.618   7.018   -999.250   -999.250
 12992     1067.573   6.903   -999.250   -999.250
 12992.5     1069.363   6.788   -999.250   -999.250
 12993     1066.658   6.449   -999.250   -999.250
 12993.5     1063.952   6.057   -999.250   -999.250
 12994     1061.805   5.665   -999.250   -999.250
 12994.5     1070.175   5.273   -999.250   -999.250
 12995     1078.545   4.881   -999.250   -999.250
 12995.5     1081.777   4.489   -999.250   -999.250
 12996     1078.416   4.607   -999.250   -999.250
 12996.5     1076.53   5.186   -999.250   -999.250
 12997     1081.392   5.763   -999.250   -999.250
 12997.5     1086.253   6.321   -999.250   -999.250
 12998     1091.115   6.879   -999.250   -999.250
 12998.5     1096.902   7.437   -999.250   -999.250
 12999     1103.17   7.995   -999.250   -999.250
 12999.5     1109.437   8.553   -999.250   -999.250
 13000     1115.705   8.605   -999.250   -999.250
 13000.5     1118.723   7.843   -999.250   -999.250
 13001     1120.437   7.081   -999.250   -999.250
 13001.5     1118.895   7.804   -999.250   -999.250
 13002     1113.974   8.808   -999.250   -999.250
 13002.5     1109.053   9.812   -999.250   -999.250
 13003     1104.133   10.816   -999.250   -999.250
 13003.5     1099.212   11.82   -999.250   -999.250
 13004     1094.292   12.17   -999.250   -999.250
 13004.5     1089.371   10.114   -999.250   -999.250
 13005     1084.45   8.058   -999.250   -999.250
 13005.5     1085.715   6.305   -999.250   -999.250
 13006     1088.786   6.641   -999.250   -999.250
 13006.5     1091.856   6.977   -999.250   -999.250
 13007     1086.811   7.312   -999.250   -999.250
 13007.5     1077.861   7.648   -999.250   -999.250
 13008     1068.912   7.984   -999.250   -999.250
 13008.5     1070.523   8.319   -999.250   -999.250
 13009     1073.099   8.655   -999.250   -999.250
 13009.5     1071.122   8.581   -999.250   -999.250
 13010     1067.189   8.371   -999.250   -999.250
 13010.5     1063.256   8.16   -999.250   -999.250
 13011     1058.441   7.949   -999.250   -999.250
 13011.5     1043.401   8.242   -999.250   -999.250
 13012     1028.362   8.895   -999.250   -999.250
 13012.5     1013.322   9.375   -999.250   -999.250
 13013     1012.08   8.851   -999.250   -999.250
 13013.5     1014.391   8.328   -999.250   -999.250
 13014     1016.702   7.804   -999.250   -999.250
 13014.5     1019.013   8.426   -999.250   -999.250
 13015     1021.324   9.366   -999.250   -999.250
 13015.5     1023.153   10.305   -999.250   -999.250
 13016     1007.978   11.245   -999.250   -999.250
 13016.5     995.128   12.184   -999.250   -999.250
 13017     995.487   12.875   -999.250   -999.250
 13017.5     995.846   12.092   -999.250   -999.250
 13018     993.547   11.31   -999.250   -999.250
 13018.5     988.269   10.527   -999.250   -999.250
 13019     982.991   9.745   -999.250   -999.250
 13019.5     977.713   8.962   -999.250   -999.250
 13020     972.435   8.18   -999.250   -999.250
 13020.5     196.258   7.397   -999.250   -999.250
 13021     196.5   7.452   -999.250   -999.250
 13021.5     196.741   7.56   -999.250   -999.250
 13022     199.381   7.668   -999.250   -999.250
 13022.5     219.133   7.776   -999.250   -999.250
 13023     360.178   7.884   -999.250   -999.250
 13023.5     542.01   7.198   -999.250   -999.250
 13024     703.133   6.503   -999.250   -999.250
 13024.5     815.91   6.29   -999.250   -999.250
 13025     928.686   6.655   -999.250   -999.250
 13025.5     1061.641   7.02   -999.250   -999.250
 13026     1052.022   7.386   -999.250   -999.250
 13026.5     1042.403   7.751   -999.250   -999.250
 13027     1032.785   7.982   -999.250   -999.250
 13027.5     1018.536   7.315   -999.250   -999.250
 13028     995.673   6.648   -999.250   -999.250
 13028.5     972.809   5.98   -999.250   -999.250
 13029     951.922   5.313   -999.250   -999.250
 13029.5     939.895   5.197   -999.250   -999.250
 13030     927.867   5.137   -999.250   -999.250
 13030.5     909.219   5.077   -999.250   -999.250
 13031     863.975   5.018   -999.250   -999.250
 13031.5     818.731   4.958   -999.250   -999.250
 13032     773.486   4.898   -999.250   -999.250
 13032.5     734.009   4.838   -999.250   -999.250
 13033     713.445   4.778   -999.250   -999.250
 13033.5     990.629   4.774   -999.250   -999.250
 13034     991.522   4.989   -999.250   -999.250
 13034.5     992.414   5.205   -999.250   -999.250
 13035     993.307   5.42   -999.250   -999.250
 13035.5     994.2   5.468   -999.250   -999.250
 13036     995.093   5.5   -999.250   -999.250
 13036.5     989.556   5.531   -999.250   -999.250
 13037     982.627   5.563   -999.250   -999.250
 13037.5     975.698   5.594   -999.250   -999.250
 13038     968.769   5.625   -999.250   -999.250
 13038.5     961.84   5.657   -999.250   -999.250
 13039     954.109   5.688   -999.250   -999.250
 13039.5     944.823   5.72   -999.250   -999.250
 13040     935.537   5.751   -999.250   -999.250
 13040.5     932.19   5.783   -999.250   -999.250
 13041     933.164   5.814   -999.250   -999.250
 13041.5     934.138   5.846   -999.250   -999.250
 13042     935.112   5.877   -999.250   -999.250
 13042.5     936.086   5.909   -999.250   -999.250
 13043     933.91   5.94   -999.250   -999.250
 13043.5     930.237   5.971   -999.250   -999.250
 13044     926.563   5.774   -999.250   -999.250
 13044.5     922.889   5.384   -999.250   -999.250
 13045     919.215   4.994   -999.250   -999.250
 13045.5     915.542   4.604   -999.250   -999.250
 13046     911.868   4.213   -999.250   -999.250
 13046.5     917.436   3.823   -999.250   -999.250
 13047     923.633   3.846   -999.250   -999.250
 13047.5     930.552   4.061   -999.250   -999.250
 13048     944.418   4.276   -999.250   -999.250
 13048.5     953.371   4.492   -999.250   -999.250
 13049     957.031   4.707   -999.250   -999.250
 13049.5     960.691   4.922   -999.250   -999.250
 13050     964.351   5.138   -999.250   -999.250
 13050.5     973.782   5.353   -999.250   -999.250
 13051     995.323   5.338   -999.250   -999.250
 13051.5     1016.864   5.047   -999.250   -999.250
 13052     1024.034   4.755   -999.250   -999.250
 13052.5     1030.544   4.463   -999.250   -999.250
 13053     1031.896   4.172   -999.250   -999.250
 13053.5     1027.703   3.88   -999.250   -999.250
 13054     1023.51   3.6   -999.250   -999.250
 13054.5     1019.941   3.319   -999.250   -999.250
 13055     1024.253   3.038   -999.250   -999.250
 13055.5     1028.565   2.757   -999.250   -999.250
