###############################################
##         ENVERUS                           ##
##         ESS - Open Hole                   ##
##         PERMIAN / DELAWARE                ##
##         Nov 04 2023  V4.0                 ##
##         42-389-32421-01-00                ##
###############################################
## Copyright 2017-2023  ENVERUS.  All Rights Reserved. 
## Confidential - Property of ENVERUS, use governed by terms and 
## conditions found within the existing Information Services Subscription Agreement 
## (as may be amended, the “ISSA”) between Customer and ENVERUS. 
## 
~VERSION INFORMATION
# MNEM.UNIT                               DATA : DESCRIPTION OF MNEMONIC
#-----.-----     ----------------------------- : -----------------------------
VERS.                                     2.00 : CWLS LOG ASCII STANDARD - VERSION 2.00
WRAP.                                       NO : MULTIPLE LINES PER DEPTH STEP
VEND.                                  ENVERUS : VENDOR
TYPE.                          ESS - OPEN HOLE : ENVERUS ESSENTIAL CURVES – ACCESSIBLE THROUGH ENVERUS PRISM(TM)
DOC.                                  51226874 : ENVERUS HEADER RAW DOCUMENT ID
#___________________________________________________________________________________________________ 
~WELL INFORMATION 
# Tb73rb1SL3MkDZoC3l18/hn1AqNnLhXquKbAWMIBLpWCEGQs+cUq/9XFz1I3dh1trdNBSXyPtAuUBW0L3ONtkQ== 
# MNEM.UNIT                                              DATA : DESCRIPTION OF MNEMONIC 
#-----.-----                    ----------------------------- : ----------------------------- 
CNTY.                                                  REEVES : COUNTY 
STATE.                                                  TEXAS : STATE 
CNTRY.                                                    USA : COUNTRY 
API.                                             42-389-32421 : API (10 Digit) 
API_14.                                    42-389-32421-01-00 : API (14 Digits) 
API_14_std.                                 42-389-32421-0100 : API (14 Digits Standard) 
UWI.                                           42389324210100 : UNIQUE WELL ID 
WELL.                                      ARMSTRONG STATE  1 : WELL NAME
STRT.FT                                                 182.0 : START DEPTH
STOP.FT                                               14775.0 : STOP DEPTH
STEP.FT                                                   0.5 : STEP BETWEEN DEPTHS
NULL.                                                 -999.25 : NULL VALUE
PREV_UWI.                                      42389324210000 : UNIQUE WELL ID 
PREV_API.                                      42389324210000 : API NUMBER 
COMP.                                    STALEY OPERATING CO. : COMPANY 
DATE.                                             26-JUN-2006 : LOG DATE
#___________________________________________________________________________________________________ 
~CURVE INFORMATION 
# MNEM.UNIT           : CURVE DESCRIPTION 
#-----.-----          : ----------------------------- 
 DEPT.FT               : MEASURED DEPTH 
 CALI__A.IN            : CALIPER (CAL - CAL) 
 GR__A.API             : GAMMA RAY (GR) 
 DT__A.US/FT           : SONIC DELTA TRANSIT TIME (DT) 
 DPHI__A.V/V           : DENSITY POROSITY (DPHI) 
 NPHI__A.V/V           : NEUTRON POROSITY (NPHI) 
 RHOB__A.G/CC          : BULK DENSITY (RHOB) 
 #___________________________________________________________________________________________________ 
~A         DEPT        CALI__A          GR__A          DT__A        DPHI__A        NPHI__A        RHOB__A
# ...
        13900.0          8.592        201.614         66.137        0.08115        0.08759         2.5750
        13900.5          8.582        201.614         66.492        0.08430        0.08784         2.5600
        13901.0          8.573        201.614         66.847        0.08718        0.08771         2.5590
        13901.5          8.570        201.615         67.201        0.08674        0.08919         2.5590
        13902.0          8.567        201.615         67.432        0.08767        0.09479         2.5580
        13902.5          8.565        201.615         67.386        0.09232        0.10022         2.5580
        13903.0          8.562        201.615         67.340        0.09696        0.10295         2.5520
        13903.5          8.559        201.616         67.185        0.09778        0.10461         2.5420
        13904.0          8.557        201.616         66.477        0.09001        0.10433         2.5450
        13904.5          8.554        201.616         65.768        0.08389        0.09767         2.5540
        13905.0          8.552        194.298         65.060        0.07777        0.09051         2.5630
        13905.5          8.549        189.929         64.956        0.07279        0.08283         2.5710
        13906.0          8.547        195.866         65.081        0.07369        0.07844         2.5800
        13906.5          8.544        200.006         65.207        0.06870        0.08151         2.5890
        13907.0          8.541        201.119         65.332        0.06371        0.08457         2.5980
        13907.5          8.539        201.138         65.458        0.05872        0.08622         2.6070
        13908.0          8.536        201.158         65.583        0.06196        0.08700         2.6090
        13908.5          8.534        201.177         65.709        0.06766        0.08658         2.6040
        13909.0          8.572        201.197         65.834        0.07336        0.08507         2.5980
        13909.5          8.630        201.216         65.960        0.07362        0.08386         2.5930
        13910.0          8.687        201.236         66.085        0.07121        0.08392         2.5880
        13910.5          8.745        201.255         66.211        0.07088        0.08398         2.5830
        13911.0          8.802        201.275         66.509        0.07131        0.08404         2.5890
        13911.5          8.752        201.294         67.221        0.06173        0.08437         2.5960
        13912.0          8.688        201.314         67.933        0.05135        0.08685         2.6030
        13912.5          8.625        201.333         68.646        0.05191        0.09539         2.6090
        13913.0          8.610        201.353         68.503        0.06475        0.10792         2.6160
        13913.5          8.609        201.372         68.236        0.06824        0.11589         2.6210
        13914.0          8.607        201.392         67.969        0.06421        0.11887         2.5930
        13914.5          8.605        201.411         67.701        0.05165        0.11827         2.6030
        13915.0          8.603        201.431         67.506        0.04706        0.11413         2.6130
        13915.5          8.602        201.450         67.363        0.04871        0.11131         2.6220
        13916.0          8.600        201.470         67.220        0.05223        0.11077         2.6320
        13916.5          8.603        201.489         67.076        0.05894        0.11003         2.6190
        13917.0          8.618        201.509         66.933        0.05813        0.10847         2.6100
        13917.5          8.633        201.528         66.789        0.05565        0.10692         2.6150
        13918.0          8.648        201.548         66.825        0.05790        0.10637         2.6190
        13918.5          8.663        201.567         66.992        0.06305        0.10637         2.6230
        13919.0          8.678        201.587         67.159        0.06390        0.10774         2.6210
        13919.5          8.693        201.606         67.224        0.05470        0.10950         2.6000
        13920.0          8.696        201.129         66.685        0.04551        0.10952         2.6120
        13920.5          8.674        197.578         66.146        0.03631        0.10735         2.6320
        13921.0          8.651        199.916         65.607        0.03836        0.10012         2.6460
        13921.5          8.629        201.786         65.326        0.04682        0.09288         2.6360
        13922.0          8.617        201.748         65.397        0.05836        0.09241         2.6260
        13922.5          8.608        201.710         65.469        0.06157        0.09385         2.6150
        13923.0          8.599        201.672         65.541        0.06136        0.09529         2.6060
        13923.5          8.590        201.634         65.613        0.06312        0.09588         2.6060
        13924.0          8.581        198.003         65.684        0.07061        0.09625         2.6060
        13924.5          8.572        189.124         65.597        0.07185        0.09543         2.6060
        13925.0          8.563        177.624         65.288        0.07185        0.09188         2.5990
        13925.5          8.554        174.768         64.980        0.06628        0.08848         2.5920
        13926.0          8.545        172.426         64.672        0.06007        0.08646         2.6040
        13926.5          8.535        174.130         64.654        0.05386        0.08517         2.6160
        13927.0          8.526        180.666         64.762        0.04764        0.08564         2.6290
        13927.5          8.517        189.853         64.869        0.04765        0.08641         2.6310
        13928.0          8.508        191.511         64.977        0.05378        0.08719         2.6250
        13928.5          8.499        190.034         64.893        0.05991        0.08689         2.6190
        13929.0          8.495        180.023         64.726        0.06393        0.08559         2.6130
        13929.5          8.499        171.525         64.558        0.06517        0.08387         2.6070
        13930.0          8.502        173.655         64.391        0.05896        0.07952         2.6020
        13930.5          8.505        175.794         64.206        0.05577        0.07852         2.6030
        13931.0          8.508        177.810         63.995        0.06108        0.08301         2.6080
        13931.5          8.512        178.914         63.784        0.06215        0.08718         2.6120
        13932.0          8.515        182.782         63.573        0.05570        0.08874         2.6100
        13932.5          8.518        194.075         63.362        0.04925        0.08943         2.6040
        13933.0          8.521        200.777         63.151        0.04933        0.08876         2.6190
        13933.5          8.524        200.785         63.219        0.05271        0.08862         2.6150
        13934.0          8.528        200.793         63.297        0.05697        0.09035         2.6130
        13934.5          8.531        200.802         63.374        0.05386        0.09273         2.6200
        13935.0          8.534        200.810         63.751        0.04731        0.09511         2.6270
        13935.5          8.537        200.818         65.011        0.03983        0.10825         2.6340
        13936.0          8.541        200.827         66.271        0.03335        0.12243         2.6410
        13936.5          8.544        200.835         67.222        0.04268        0.13177         2.6480
        13937.0          8.547        200.844         67.724        0.04927        0.13552         2.6450
        13937.5          8.550        200.852         68.226        0.04645        0.13635         2.6360
