###############################################
##         ENVERUS                           ##
##         ESS - Open Hole                   ##
##         PERMIAN / DELAWARE                ##
##         Nov 04 2023  V4.0                 ##
##         42-389-30414-00-00                ##
###############################################
## Copyright 2017-2023  ENVERUS.  All Rights Reserved. 
## Confidential - Property of ENVERUS, use governed by terms and 
## conditions found within the existing Information Services Subscription Agreement 
## (as may be amended, the “ISSA”) between Customer and ENVERUS. 
## 
~VERSION INFORMATION
# MNEM.UNIT                               DATA : DESCRIPTION OF MNEMONIC
#-----.-----     ----------------------------- : -----------------------------
VERS.                                     2.00 : CWLS LOG ASCII STANDARD - VERSION 2.00
WRAP.                                       NO : MULTIPLE LINES PER DEPTH STEP
VEND.                                  ENVERUS : VENDOR
TYPE.                          ESS - OPEN HOLE : ENVERUS ESSENTIAL CURVES – ACCESSIBLE THROUGH ENVERUS PRISM(TM)
DOC.                                  31965441 : ENVERUS HEADER RAW DOCUMENT ID
#___________________________________________________________________________________________________ 
~WELL INFORMATION 
# 4Nagw4FJNzCtYOfTAudVsymR6uv0ccMrNFKiy1Vrqa1gQVNLoB6NNR/Tzdk8H0Jxf2Akv2rjPRKaT9zVNBkTiw== 
# MNEM.UNIT                                              DATA : DESCRIPTION OF MNEMONIC 
#-----.-----                    ----------------------------- : ----------------------------- 
CNTY.                                                  REEVES : COUNTY 
STATE.                                                  TEXAS : STATE 
CNTRY.                                                    USA : COUNTRY 
API.                                             42-389-30414 : API (10 Digit) 
API_14.                                    42-389-30414-00-00 : API (14 Digits) 
API_14_std.                                 42-389-30414-0000 : API (14 Digits Standard) 
UWI.                                           42389304140000 : UNIQUE WELL ID 
WELL.                                            TXL 17-39  2 : WELL NAME
STRT.FT                                                 237.0 : START DEPTH
STOP.FT                                               13872.0 : STOP DEPTH
STEP.FT                                                   0.5 : STEP BETWEEN DEPTHS
NULL.                                                 -999.25 : NULL VALUE
COMP.                          ENDEAVOR ENERGY RESOURCES L.P. : COMPANY
#___________________________________________________________________________________________________ 
~CURVE INFORMATION 
# MNEM.UNIT           : CURVE DESCRIPTION 
#-----.-----          : ----------------------------- 
 DEPT.FT               : MEASURED DEPTH 
 CALI.IN               : CALIPER (CAL - CAL) 
 GR.API                : GAMMA RAY (GR) 
 DT.US/FT              : SONIC DELTA TRANSIT TIME (DT) 
 RESS.OHMM             : SHALLOW INDUCTION RESISTIVITY (ILS - ILS) 
 RESD.OHMM             : DEEP INDUCTION RESISTIVITY (ILD - ILD) 
 #___________________________________________________________________________________________________ 
~A         DEPT           CALI             GR             DT           RESS           RESD
# ...
        11105.0          8.174         49.427         67.679       -999.250         19.519
        11105.5          8.159         49.561         66.872       -999.250         19.998
        11106.0          8.144         52.716         66.606       -999.250         19.597
        11106.5          8.129         55.871         68.831       -999.250         19.165
        11107.0          8.115         59.026         73.664       -999.250         18.733
        11107.5          8.100         60.837         78.524       -999.250         18.300
        11108.0          8.085         60.557         79.975       -999.250         17.493
        11108.5          8.070         60.800         79.047       -999.250         16.616
        11109.0          8.055         61.205         78.188       -999.250         15.738
        11109.5          8.040         61.610         77.744       -999.250         14.876
        11110.0          8.027         62.015         78.552       -999.250         14.050
        11110.5          8.017         62.420         79.360       -999.250         13.224
        11111.0          8.006         60.826         79.414       -999.250         12.398
        11111.5          7.996         58.434         78.243       -999.250         11.903
        11112.0          7.986         57.117         77.072       -999.250         11.510
        11112.5          7.976         57.874         74.626       -999.250         11.431
        11113.0          7.966         58.631         71.858       -999.250         11.431
        11113.5          7.956         59.388         72.031       -999.250         11.539
        11114.0          7.946         62.035         73.483       -999.250         11.745
        11114.5          7.878         65.348         74.935       -999.250         12.113
        11115.0          7.717         68.394         76.387       -999.250         12.481
        11115.5          7.556         67.616         79.505       -999.250         12.850
        11116.0          7.394         66.838         82.697       -999.250         13.218
        11116.5          7.233         66.060         82.223       -999.250         13.754
        11117.0          7.154         65.282         80.384       -999.250         15.155
        11117.5          7.152         64.504         74.090       -999.250         16.555
        11118.0          7.151         65.747         74.979       -999.250         17.955
        11118.5          7.149         67.463         75.869       -999.250         19.274
        11119.0          7.147         69.178         77.260       -999.250         18.921
        11119.5          7.145         70.894         79.101       -999.250         18.568
        11120.0          7.144         72.610         80.943       -999.250         18.215
        11120.5          7.142         72.369         82.785       -999.250         17.934
        11121.0          7.140         66.178         84.567       -999.250         18.202
        11121.5          7.138         59.987         83.631       -999.250         18.469
        11122.0          7.137         53.796         82.695       -999.250         19.018
        11122.5          7.135         47.605         76.162       -999.250         19.782
        11123.0          7.133         47.239         67.254       -999.250         20.547
        11123.5          7.131         50.207         62.689       -999.250         20.975
        11124.0          7.130         55.918         64.024       -999.250         20.951
        11124.5          7.128         61.629         67.764       -999.250         20.927
        11125.0          7.126         65.424         76.649       -999.250         20.903
        11125.5          7.124         65.845         83.207       -999.250         20.879
        11126.0          7.123         61.946         81.210       -999.250         20.855
        11126.5          7.121         56.527         78.238       -999.250         20.831
        11127.0          7.119         51.108         74.351       -999.250         20.807
        11127.5          7.117         46.151         70.464       -999.250         20.883
        11128.0          7.116         49.861         66.577       -999.250         21.125
        11128.5          7.114         53.571         62.689       -999.250         21.367
        11129.0          7.112         57.281         65.560       -999.250         21.609
        11129.5          7.111         60.195         68.517       -999.250         21.960
        11130.0          7.109         57.821         71.473       -999.250         22.635
        11130.5          7.107         55.447         71.596       -999.250         23.309
        11131.0          7.105         53.072         69.162       -999.250         23.984
        11131.5          7.104         52.442         67.676       -999.250         24.658
        11132.0          7.102         55.806         70.876       -999.250         24.195
        11132.5          7.100         59.171         74.076       -999.250         23.378
        11133.0          7.099         58.484         75.161       -999.250         22.773
        11133.5          7.098         57.674         73.708       -999.250         23.310
        11134.0          7.097         61.047         72.255       -999.250         25.565
        11134.5          7.096         64.420         70.803       -999.250         27.050
        11135.0          7.095         67.148         73.562       -999.250         26.173
        11135.5          7.094         65.822         77.218       -999.250         24.852
        11136.0          7.093         64.497         79.810       -999.250         22.398
        11136.5          7.092         63.073         80.219       -999.250         20.697
        11137.0          7.091         59.863         79.685       -999.250         19.723
        11137.5          7.090         56.652         79.150       -999.250         18.750
        11138.0          7.089         53.441         77.826       -999.250         17.776
        11138.5          7.088         50.230         74.488       -999.250         21.920
        11139.0          7.087         45.373         71.151       -999.250         26.220
        11139.5          7.086         39.688         67.814       -999.250         30.521
        11140.0          7.085         37.237         64.477       -999.250         34.822
        11140.5          7.084         43.673         61.140       -999.250         39.123
        11141.0          7.083         50.109         59.536       -999.250         42.289
        11141.5          7.082         56.544         60.055       -999.250         45.307
        11142.0          7.081         62.980         60.575       -999.250         45.850
        11142.5          7.080         69.416         81.959       -999.250         41.508
        11143.0          7.079         73.215         84.241       -999.250         36.353
        11143.5          7.078         75.371         85.146       -999.250         30.576
        11144.0          7.077         73.237         84.743       -999.250         28.029
        11144.5          7.076         70.189         84.339       -999.250         25.520
        11145.0          7.075         67.141         83.969       -999.250         24.011
        11145.5          7.074         64.283         83.606       -999.250         22.715
        11146.0          7.073         62.341         82.830       -999.250         21.420
        11146.5          7.072         60.399         80.878       -999.250         21.146
        11147.0          7.071         58.456         78.871       -999.250         21.361
        11147.5          7.070         58.081         76.794       -999.250         21.576
        11148.0          7.069         57.885         73.164       -999.250         21.791
        11148.5          7.068         57.689         68.513       -999.250         19.775
