###############################################
##         ENVERUS                           ##
##         ESS - Open Hole                   ##
##         PERMIAN / DELAWARE                ##
##         Nov 04 2023  V4.0                 ##
##         42-389-30259-00-00                ##
###############################################
## Copyright 2017-2023  ENVERUS.  All Rights Reserved. 
## Confidential - Property of ENVERUS, use governed by terms and 
## conditions found within the existing Information Services Subscription Agreement 
## (as may be amended, the “ISSA”) between Customer and ENVERUS. 
## 
~VERSION INFORMATION
# MNEM.UNIT                               DATA : DESCRIPTION OF MNEMONIC
#-----.-----     ----------------------------- : -----------------------------
VERS.                                     2.00 : CWLS LOG ASCII STANDARD - VERSION 2.00
WRAP.                                       NO : MULTIPLE LINES PER DEPTH STEP
VEND.                                  ENVERUS : VENDOR
TYPE.                          ESS - OPEN HOLE : ENVERUS ESSENTIAL CURVES – ACCESSIBLE THROUGH ENVERUS PRISM(TM)
DOC.                                  32063127 : ENVERUS HEADER RAW DOCUMENT ID
#___________________________________________________________________________________________________ 
~WELL INFORMATION 
# gPsidqVjAScFWwbHY3NvrhVb9Q0dnpAvxUas8qP1mSjKWoj7hBgJ2nw/4lW9Nf69eTG+8mlPQw3CFq6Jh/Hagw== 
# MNEM.UNIT                                              DATA : DESCRIPTION OF MNEMONIC 
#-----.-----                    ----------------------------- : ----------------------------- 
CNTY.                                                  REEVES : COUNTY 
STATE.                                                  TEXAS : STATE 
CNTRY.                                                    USA : COUNTRY 
API.                                             42-389-30259 : API (10 Digit) 
API_14.                                    42-389-30259-00-00 : API (14 Digits) 
API_14_std.                                 42-389-30259-0000 : API (14 Digits Standard) 
UWI.                                           42389302590000 : UNIQUE WELL ID 
WELL.                                         FORTUNE UNIT  1 : WELL NAME
STRT.FT                                                     0 : START DEPTH
STOP.FT                                               15675.0 : STOP DEPTH
STEP.FT                                                   0.5 : STEP BETWEEN DEPTHS
NULL.                                                 -999.25 : NULL VALUE
COMP.                          SANDRIDGE EXPL. AND PROD.  LLC : COMPANY 
DATE.                                             19-FEB-2007 : LOG DATE
#___________________________________________________________________________________________________ 
~CURVE INFORMATION 
# MNEM.UNIT           : CURVE DESCRIPTION 
#-----.-----          : ----------------------------- 
 DEPT.FT               : MEASURED DEPTH 
 CALI__B.IN            : CALIPER (CAL - CAL) 
 GR__B.API             : GAMMA RAY (GR) 
 DT__B.US/FT           : SONIC DELTA TRANSIT TIME (DT) 
 #___________________________________________________________________________________________________ 
~A         DEPT        CALI__B          GR__B          DT__B
# ...
         6996.0         12.701         67.918         78.563
         6996.5         12.705         63.481         81.052
         6997.0         12.709         59.711         82.537
         6997.5         12.713         58.712         80.840
         6998.0         12.717         57.712         78.994
         6998.5         12.721         56.713         77.085
         6999.0         12.725         63.941         76.966
         6999.5         12.730         73.122         79.126
         7000.0         12.734         81.253         81.705
         7000.5         12.738         85.291         85.089
         7001.0         12.742         83.793         86.984
         7001.5         12.746         80.407         86.792
         7002.0         12.750         75.611         84.742
         7002.5         12.754         70.814         84.771
         7003.0         12.758         69.557         83.967
         7003.5         12.762         75.149         85.019
         7004.0         12.766         81.142         87.492
         7004.5         12.770         88.912         89.243
         7005.0         12.775         96.681         90.718
         7005.5         12.779         98.655         90.585
         7006.0         12.783         93.549         90.871
         7006.5         12.787         81.253         88.861
         7007.0         12.787         72.337         84.323
         7007.5         12.786         71.068         82.409
         7008.0         12.786         70.161         82.473
         7008.5         12.786         69.314         81.587
         7009.0         12.785         68.026         80.126
         7009.5         12.785         55.691         77.890
         7010.0         12.784         43.166         74.131
         7010.5         12.784         34.986         67.585
         7011.0         12.784         36.485         64.694
         7011.5         12.783         41.837         63.085
         7012.0         12.783         57.186         65.203
         7012.5         12.782         73.341         70.587
         7013.0         12.782         89.326         77.051
         7013.5         12.781        105.260         84.632
         7014.0         12.781        107.655         87.261
         7014.5         12.781        104.445         89.061
         7015.0         12.780        101.116         90.397
         7015.5         12.780         99.117         89.072
         7016.0         12.779         90.539         87.805
         7016.5         12.779         77.518         85.926
         7017.0         12.779         76.568         81.851
         7017.5         12.778         79.659         79.875
         7018.0         12.778         84.702         81.962
         7018.5         12.777         89.745         84.149
         7019.0         12.777         89.389         87.329
         7019.5         12.777         86.225         90.086
         7020.0         12.776         87.023         88.995
         7020.5         12.776         83.526         87.753
         7021.0         12.775         78.337         87.621
         7021.5         12.775         76.671         87.509
         7022.0         12.775         67.170         87.397
         7022.5         12.774         59.827         85.050
         7023.0         12.774         56.722         81.845
         7023.5         12.773         61.090         81.666
         7024.0         12.773         67.540         83.306
         7024.5         12.773         78.190         88.193
         7025.0         12.772         88.840         90.688
         7025.5         12.772         94.632         90.540
         7026.0         12.771        100.125         91.040
         7026.5         12.771        105.617         91.154
         7027.0         12.770        103.022         91.591
         7027.5         12.771         92.558         91.474
         7028.0         12.773         82.731         90.388
         7028.5         12.775         78.982         86.852
         7029.0         12.776         77.946         82.674
         7029.5         12.778         77.459         82.074
         7030.0         12.780         77.152         82.247
         7030.5         12.782         76.845         80.926
         7031.0         12.783         69.737         79.368
         7031.5         12.785         58.667         75.710
         7032.0         12.787         47.086         71.494
         7032.5         12.789         40.716         67.420
         7033.0         12.790         36.392         64.809
         7033.5         12.792         36.546         62.447
         7034.0         12.794         42.129         61.580
         7034.5         12.795         58.634         62.751
         7035.0         12.797         78.261         67.582
         7035.5         12.799         99.013         72.581
         7036.0         12.801        119.895         77.942
         7036.5         12.802        125.342         84.525
         7037.0         12.804        116.789         90.029
         7037.5         12.806        109.963         89.900
         7038.0         12.808        107.294         90.468
         7038.5         12.809        105.129         90.399
         7039.0         12.811        100.781         89.458
         7039.5         12.813         92.138         87.670
         7040.0         12.815         78.650         84.705
         7040.5         12.816         74.990         81.581
         7041.0         12.818         77.209         81.300
         7041.5         12.820         80.618         82.121
         7042.0         12.821         85.834         82.941
         7042.5         12.822         91.050         84.064
         7043.0         12.821         91.172         85.566
         7043.5         12.820         90.105         85.447
         7044.0         12.819         91.100         83.702
         7044.5         12.818         93.171         83.301
         7045.0         12.817         88.309         84.231
         7045.5         12.816         84.313         81.454
         7046.0         12.815         68.606         79.129
         7046.5         12.814         53.949         74.772
         7047.0         12.813         43.447         67.913
         7047.5         12.812         37.294         64.934
         7048.0         12.811         31.190         61.828
         7048.5         12.810         28.903         59.609
         7049.0         12.809         32.633         61.613
         7049.5         12.808         38.049         63.925
         7050.0         12.807         48.966         66.821
         7050.5         12.806         60.133         70.098
         7051.0         12.805         74.229         76.875
         7051.5         12.804         88.325         82.485
         7052.0         12.803         97.052         86.752
         7052.5         12.802         97.357         88.449
         7053.0         12.801         93.094         87.511
         7053.5         12.800         85.291         84.137
         7054.0         12.799         78.355         83.329
         7054.5         12.798         76.692         84.401
         7055.0         12.797         79.134         84.183
         7055.5         12.796         81.576         85.894
         7056.0         12.795         76.642         86.928
         7056.5         12.794         81.253         85.961
         7057.0         12.793         85.864         85.958
         7057.5         12.792         89.540         86.875
         7058.0         12.791         81.213         81.305
         7058.5         12.790         70.559         78.052
         7059.0         12.789         58.133         74.800
         7059.5         12.788         61.096         75.307
         7060.0         12.787         67.619         80.394
         7060.5         12.786         71.401         81.856
         7061.0         12.785         66.963         82.519
         7061.5         12.784         69.747         80.551
