###############################################
##         ENVERUS                           ##
##         ESS - Open Hole                   ##
##         PERMIAN / DELAWARE                ##
##         Nov 04 2023  V4.0                 ##
##         42-389-32353-00-00                ##
###############################################
## Copyright 2017-2023  ENVERUS.  All Rights Reserved. 
## Confidential - Property of ENVERUS, use governed by terms and 
## conditions found within the existing Information Services Subscription Agreement 
## (as may be amended, the “ISSA”) between Customer and ENVERUS. 
## 
~VERSION INFORMATION
# MNEM.UNIT                               DATA : DESCRIPTION OF MNEMONIC
#-----.-----     ----------------------------- : -----------------------------
VERS.                                     2.00 : CWLS LOG ASCII STANDARD - VERSION 2.00
WRAP.                                       NO : MULTIPLE LINES PER DEPTH STEP
VEND.                                  ENVERUS : VENDOR
TYPE.                          ESS - OPEN HOLE : ENVERUS ESSENTIAL CURVES – ACCESSIBLE THROUGH ENVERUS PRISM(TM)
DOC.                                  31816014 : ENVERUS HEADER RAW DOCUMENT ID
#___________________________________________________________________________________________________ 
~WELL INFORMATION 
# N6wmpYeOPIEODBGNmaSz+o1WStwpnSM+Mr70h4S2k9wmNhpeTZrfoFyYX6I24xyp8IiB7B51j2C/wpla6NseZQ== 
# MNEM.UNIT                                              DATA : DESCRIPTION OF MNEMONIC 
#-----.-----                    ----------------------------- : ----------------------------- 
CNTY.                                                  REEVES : COUNTY 
STATE.                                                  TEXAS : STATE 
CNTRY.                                                    USA : COUNTRY 
API.                                             42-389-32353 : API (10 Digit) 
API_14.                                    42-389-32353-00-00 : API (14 Digits) 
API_14_std.                                 42-389-32353-0000 : API (14 Digits Standard) 
UWI.                                           42389323530000 : UNIQUE WELL ID 
WELL.                                             DORNFIELD 1 : WELL NAME
STRT.FT                                                 210.0 : START DEPTH
STOP.FT                                               13522.0 : STOP DEPTH
STEP.FT                                                   0.5 : STEP BETWEEN DEPTHS
NULL.                                                 -999.25 : NULL VALUE
LOC.                                                      UNK : LOCATION 
SRVC.                                                     UNK : SERVICE COMPANY
#___________________________________________________________________________________________________ 
~CURVE INFORMATION 
# MNEM.UNIT           : CURVE DESCRIPTION 
#-----.-----          : ----------------------------- 
 DEPT.FT               : MEASURED DEPTH 
 CALI.IN               : CALIPER (CAL - CAL) 
 GR.API                : GAMMA RAY (GR) 
 DT.US/FT              : SONIC DELTA TRANSIT TIME (DT) 
 RESS.OHMM             : SHALLOW INDUCTION RESISTIVITY (ILS - ILS) 
 RESD.OHMM             : DEEP INDUCTION RESISTIVITY (ILD - ILD) 
 DPHI.V/V              : DENSITY POROSITY (DPHI) 
 NPHI.V/V              : NEUTRON POROSITY (NPHI) 
 RHOB.G/CC             : BULK DENSITY (RHOB) 
 #___________________________________________________________________________________________________ 
~A         DEPT           CALI             GR             DT           RESS           RESD           DPHI           NPHI           RHOB
# ...
         5107.0          9.839         79.719         70.977          7.553          8.659        0.08789        0.17095         2.5090
         5107.5          9.839         75.009         70.532          5.985          7.447        0.09989        0.16387         2.5359
         5108.0          9.839         67.837         70.087          4.417          5.782        0.09118        0.14993         2.5601
         5108.5          9.840         63.448         70.017          5.558          5.885        0.07609        0.13599         2.5475
         5109.0          9.840         62.396         70.093          8.159          8.478        0.06100        0.12627         2.5348
         5109.5          9.840         61.637         70.170          8.737         10.792        0.06889        0.12896         2.5282
         5110.0          9.840         67.131         70.389          5.889          7.900        0.08093        0.13758         2.5577
         5110.5          9.828         73.512         70.655          4.833          5.290        0.07632        0.14621         2.5745
         5111.0          9.805         77.493         70.526          5.651          6.390        0.06418        0.15483         2.5708
         5111.5          9.782         80.318         70.004          6.469          7.489        0.05942        0.16298         2.5671
         5112.0          9.758         79.811         68.227          7.286          8.484        0.05751        0.15856         2.5679
         5112.5          9.735         72.567         65.979          7.586          8.774        0.05973        0.12526         2.6053
         5113.0          9.694         64.502         64.745          7.819          9.426        0.04571        0.09196         2.5726
         5113.5          9.687         56.436         64.754          8.053         12.263        0.02899        0.07802         2.5399
         5114.0          9.681         56.312         65.330          8.215         16.563        0.03427        0.07971         2.5386
         5114.5          9.674         59.934         66.505          7.817         11.774        0.05142        0.09474         2.5388
         5115.0          9.668         63.556         67.680          5.838          6.985        0.06798        0.11477         2.5391
         5115.5          9.662         68.715         68.854          4.917          4.994        0.07977        0.13472         2.5393
         5116.0          9.655         77.404         70.029          4.884          5.053        0.07402        0.14413         2.5396
         5116.5          9.649         86.093         69.587          5.294          5.112        0.07402        0.15260         2.5454
         5117.0          9.642         98.781         69.017         10.055          9.762        0.07472        0.15809         2.5512
         5117.5          9.636        109.528         68.448         17.441         15.212        0.07601        0.15839         2.5570
         5118.0          9.629        110.493         68.226         26.202         29.098        0.07447        0.15777         2.5535
         5118.5          9.631        103.984         68.366         23.617         23.882        0.06998        0.15715         2.5336
         5119.0          9.636         92.673         68.507         17.291         18.666        0.06549        0.15392         2.5514
         5119.5          9.642         81.362         68.383         10.966         13.450        0.06560        0.14763         2.5745
         5120.0          9.647         70.051         67.570          6.635          8.331        0.07667        0.14134         2.5976
         5120.5          9.652         59.897         66.758          6.780          7.455        0.07676        0.12558         2.6021
         5121.0          9.657         55.772         65.946          6.992          6.894        0.06901        0.10765         2.5794
         5121.5          9.662         55.203         65.934         15.185         13.293        0.03601        0.10090         2.5567
         5122.0          9.667         58.793         66.132         17.527         19.041        0.03255        0.10714         2.5596
         5122.5          9.672         64.621         66.828         11.604         13.836        0.05020        0.12167         2.5639
         5123.0          9.678         72.584         67.524          7.435          8.630        0.06530        0.13619         2.5509
         5123.5          9.683         81.229         68.220          7.791          7.598        0.06893        0.15071         2.5379
         5124.0          9.688         89.874         68.916          8.886          8.527        0.06504        0.16523         2.5249
         5124.5          9.693         97.225         69.020         11.144          9.784        0.06329        0.16897         2.5303
         5125.0          9.698         97.047         69.059         19.994         17.095        0.07284        0.16322         2.5365
         5125.5          9.701         90.415         69.097         18.655         23.171        0.08239        0.15747         2.5426
         5126.0          9.701         81.068         69.135         12.259         10.742        0.08148        0.15172         2.5487
         5126.5          9.702         75.141         68.723          8.604          9.096        0.07643        0.14834         2.5546
         5127.0          9.702         71.468         68.288          8.096          8.113        0.07139        0.14692         2.5546
         5127.5          9.702         70.521         67.853          8.180          8.100        0.06982        0.14549         2.5546
         5128.0          9.696         70.472         67.418          8.494          9.631        0.07063        0.14406         2.5546
         5128.5          9.648         73.121         67.294         12.492         13.122        0.06529        0.14493         2.5369
         5129.0          9.599         81.453         67.968         16.490         16.613        0.06367        0.15764         2.5184
         5129.5          9.551         95.623         68.642         20.487         20.104        0.07608        0.17036         2.4998
         5130.0          9.502        138.226         69.317         23.560         24.730        0.09166        0.18307         2.4954
         5130.5          9.454        173.789         69.991         45.123         64.130        0.10724        0.19579         2.5407
         5131.0          9.406        207.929         69.668        101.424        132.401        0.11068        0.20259         2.5860
         5131.5          9.357        216.409         68.239        130.660        188.098        0.09793        0.17513         2.6340
         5132.0          9.346        174.525         66.186         97.660        148.002        0.06992        0.14766         2.6933
         5132.5          9.346        132.641         64.198         64.659         77.883        0.04192        0.12140         2.6740
         5133.0          9.346         68.702         62.535         31.659         40.249        0.00784        0.10699         2.6531
         5133.5          9.346         49.528         61.099         39.130         33.809       -0.02183        0.09257         2.6323
         5134.0          9.354         44.574         60.886         90.712         73.617       -0.01990        0.08204         2.6115
         5134.5          9.390         47.180         61.968         60.257         70.388       -0.00702        0.08654         2.6073
         5135.0          9.426         49.786         63.049         29.802         19.728        0.00585        0.09105         2.6129
         5135.5          9.462         51.227         64.131         15.742         16.420        0.01873        0.09636         2.6157
         5136.0          9.498         52.103         65.213         13.557         13.752        0.03161        0.10272         2.6046
