###############################################
##         ENVERUS                           ##
##         ESS - Open Hole                   ##
##         PERMIAN / DELAWARE                ##
##         Nov 04 2023  V4.0                 ##
##         42-389-32245-00-00                ##
###############################################
## Copyright 2017-2023  ENVERUS.  All Rights Reserved. 
## Confidential - Property of ENVERUS, use governed by terms and 
## conditions found within the existing Information Services Subscription Agreement 
## (as may be amended, the “ISSA”) between Customer and ENVERUS. 
## 
~VERSION INFORMATION
# MNEM.UNIT                               DATA : DESCRIPTION OF MNEMONIC
#-----.-----     ----------------------------- : -----------------------------
VERS.                                     2.00 : CWLS LOG ASCII STANDARD - VERSION 2.00
WRAP.                                       NO : MULTIPLE LINES PER DEPTH STEP
VEND.                                  ENVERUS : VENDOR
TYPE.                          ESS - OPEN HOLE : ENVERUS ESSENTIAL CURVES – ACCESSIBLE THROUGH ENVERUS PRISM(TM)
DOC.                                  31784178 : ENVERUS HEADER RAW DOCUMENT ID
#___________________________________________________________________________________________________ 
~WELL INFORMATION 
# v5kOeJgG8V8Fdrn76qwaaSXPAkEfLGq57aawfXlCwOXh55ROPeN2VCvB7JmY2/dENYnWxxZwl4Ma/Wu+4c2YGQ== 
# MNEM.UNIT                                              DATA : DESCRIPTION OF MNEMONIC 
#-----.-----                    ----------------------------- : ----------------------------- 
CNTY.                                                  REEVES : COUNTY 
STATE.                                                  TEXAS : STATE 
CNTRY.                                                    USA : COUNTRY 
API.                                             42-389-32245 : API (10 Digit) 
API_14.                                    42-389-32245-00-00 : API (14 Digits) 
API_14_std.                                 42-389-32245-0000 : API (14 Digits Standard) 
UWI.                                           42389322450000 : UNIQUE WELL ID 
WELL.                          TEXAS PACIFIC LAND TRUST 25 1H : WELL NAME
STRT.FT                                                2519.0 : START DEPTH
STOP.FT                                               10624.0 : STOP DEPTH
STEP.FT                                                   0.5 : STEP BETWEEN DEPTHS
NULL.                                                 -999.25 : NULL VALUE
#___________________________________________________________________________________________________ 
~CURVE INFORMATION 
# MNEM.UNIT           : CURVE DESCRIPTION 
#-----.-----          : ----------------------------- 
 DEPT.FT               : MEASURED DEPTH 
 CALI__B.IN            : CALIPER (CAL - CAL) 
 GR__B.API             : GAMMA RAY (GR) 
 DT__B.US/FT           : SONIC DELTA TRANSIT TIME (DT) 
 #___________________________________________________________________________________________________ 
~A         DEPT        CALI__B          GR__B          DT__B
# ...
         4103.0         14.543         54.981         78.194
         4103.5         14.541         52.249         76.563
         4104.0         14.538         48.664         75.355
         4104.5         14.535         46.129         75.326
         4105.0         14.538         51.203         77.032
         4105.5         14.562         56.864         78.901
         4106.0         14.587         62.524         85.442
         4106.5         14.611         68.184         92.129
         4107.0         14.636         68.192         90.914
         4107.5         14.660         65.349         86.515
         4108.0         14.685         62.505         95.665
         4108.5         14.710         59.662        113.018
         4109.0         14.725         55.099        127.681
         4109.5         14.739         49.929        100.410
         4110.0         14.752         47.950         80.649
         4110.5         14.765         45.972         79.460
         4111.0         14.779         43.993         81.141
         4111.5         14.792         43.607         82.954
         4112.0         14.806         45.809         84.421
         4112.5         14.819         48.012         84.233
         4113.0         14.833         50.215         83.283
         4113.5         14.846         50.156         81.939
         4114.0         14.860         49.957         80.595
         4114.5         14.873         49.757         79.251
         4115.0         14.887         50.021         78.210
         4115.5         14.891         51.083         77.459
         4116.0         14.882         50.560         77.246
         4116.5         14.873         49.647         77.198
         4117.0         14.865         48.735         77.605
         4117.5         14.856         47.822         78.605
         4118.0         14.847         47.230         79.192
         4118.5         14.839         49.145         77.691
         4119.0         14.827         55.271         76.064
         4119.5         14.812         61.410         74.437
         4120.0         14.796         67.550         73.808
         4120.5         14.781         69.935         73.740
         4121.0         14.766         70.623         73.786
         4121.5         14.751         70.303         73.560
         4122.0         14.735         72.122         73.335
         4122.5         14.720         79.298         73.109
         4123.0         14.681         86.474         72.728
         4123.5         14.625         89.158         72.141
         4124.0         14.568         81.750         71.554
         4124.5         14.533         73.307         70.968
         4125.0         14.505         67.298         70.381
         4125.5         14.478         63.963         69.795
         4126.0         14.450         62.729         69.360
         4126.5         14.423         62.751         69.153
         4127.0         14.395         64.958         69.153
         4127.5         14.374         67.165         69.229
         4128.0         14.390         68.884         69.444
         4128.5         14.406         68.884         70.448
         4129.0         14.422         68.884         71.452
         4129.5         14.435         69.516         72.015
         4130.0         14.444         71.511         71.613
         4130.5         14.452         71.434         70.450
         4131.0         14.461         66.730         69.287
         4131.5         14.470         58.056         68.125
         4132.0         14.413         52.293         68.058
         4132.5         14.324         50.695         69.078
         4133.0         14.265         49.911         69.778
         4133.5         14.248         52.854         69.633
         4134.0         14.232         55.797         67.429
         4134.5         14.215         56.874         65.053
         4135.0         14.199         52.935         63.314
         4135.5         14.182         48.997         63.432
         4136.0         14.166         46.627         65.626
         4136.5         14.151         46.893         67.898
         4137.0         14.155         46.147         69.375
         4137.5         14.159         44.683         69.956
         4138.0         14.163         44.472         70.279
         4138.5         14.167         44.579         70.648
         4139.0         14.171         44.588         71.018
         4139.5         14.175         44.521         71.002
         4140.0         14.179         44.454         70.863
         4140.5         14.182         44.387         70.316
         4141.0         14.186         47.194         69.661
         4141.5         14.190         50.028         67.101
         4142.0         14.179         51.166         64.423
         4142.5         14.167         48.450         62.298
         4143.0         14.154         45.735         62.394
         4143.5         14.141         46.244         64.926
         4144.0         14.135         47.307         67.528
         4144.5         14.160         47.135         68.173
         4145.0         14.185         45.064         68.145
         4145.5         14.211         42.992         68.118
         4146.0         14.236         40.920         67.916
         4146.5         14.261         39.708         67.401
         4147.0         14.286         39.920         66.885
         4147.5         14.312         40.804         66.848
         4148.0         14.337         45.730         67.973
         4148.5         14.362         50.656         69.714
         4149.0         14.387         51.674         71.454
         4149.5         14.412         50.860         72.512
         4150.0         14.438         50.045         72.440
         4150.5         14.463         49.231         72.313
         4151.0         14.488         51.018         72.524
         4151.5         14.497         53.145         73.178
         4152.0         14.504         53.508         73.831
         4152.5         14.510         52.918         73.795
         4153.0         14.517         51.118         72.637
         4153.5         14.523         48.631         70.466
         4154.0         14.530         46.144         68.251
         4154.5         14.537         43.657         66.711
         4155.0         14.543         41.170         67.515
         4155.5         14.550         43.076         69.740
         4156.0         14.549         47.335         71.966
         4156.5         14.545         52.016         73.480
         4157.0         14.540         56.698         73.633
         4157.5         14.536         61.379         73.241
         4158.0         14.531         66.061         72.780
         4158.5         14.527         61.923         72.358
         4159.0         14.522         56.889         72.358
         4159.5         14.518         51.855         72.314
         4160.0         14.513         54.221         71.952
         4160.5         14.509         58.557         71.202
         4161.0         14.504         62.245         69.626
         4161.5         14.500         60.255         67.447
         4162.0         14.495         58.265         65.875
         4162.5         14.484         56.275         65.768
         4163.0         14.454         59.738         66.957
         4163.5         14.423         64.962         68.372
         4164.0         14.404         70.185         69.648
         4164.5         14.393         70.238         70.095
         4165.0         14.382         68.340         70.599
         4165.5         14.371         63.903         71.238
         4166.0         14.360         59.466         71.554
         4166.5         14.349         55.029         71.263
         4167.0         14.338         50.789         70.209
         4167.5         14.327         50.692         69.317
         4168.0         14.316         50.595         69.227
         4168.5         14.305         49.616         70.143
