###############################################
##         ENVERUS                           ##
##         ESS - Open Hole                   ##
##         PERMIAN / DELAWARE                ##
##         Nov 02 2023  V4.0                 ##
##         42-301-31112-00-00                ##
###############################################
## Copyright 2017-2023  ENVERUS.  All Rights Reserved. 
## Confidential - Property of ENVERUS, use governed by terms and 
## conditions found within the existing Information Services Subscription Agreement 
## (as may be amended, the “ISSA”) between Customer and ENVERUS. 
## 
~VERSION INFORMATION
# MNEM.UNIT                               DATA : DESCRIPTION OF MNEMONIC
#-----.-----     ----------------------------- : -----------------------------
VERS.                                     2.00 : CWLS LOG ASCII STANDARD - VERSION 2.00
WRAP.                                       NO : MULTIPLE LINES PER DEPTH STEP
VEND.                                  ENVERUS : VENDOR
TYPE.                          ESS - OPEN HOLE : ENVERUS ESSENTIAL CURVES – ACCESSIBLE THROUGH ENVERUS PRISM(TM)
DOC.                                  31879965 : ENVERUS HEADER RAW DOCUMENT ID
#___________________________________________________________________________________________________ 
~WELL INFORMATION 
# p11foxtE5QnwhaJbtzBz2LJF4p4dkL7jzyXNzohJvMqLCglFSJK87xuVm3WB3m+8huK6qzS+fp5X73xeHrMy5w== 
# MNEM.UNIT                                              DATA : DESCRIPTION OF MNEMONIC 
#-----.-----                    ----------------------------- : ----------------------------- 
CNTY.                                                  LOVING : COUNTY 
STATE.                                                  TEXAS : STATE 
CNTRY.                                                    USA : COUNTRY 
API.                                             42-301-31112 : API (10 Digit) 
API_14.                                    42-301-31112-00-00 : API (14 Digits) 
API_14_std.                                 42-301-31112-0000 : API (14 Digits Standard) 
UWI.                                           42301311120000 : UNIQUE WELL ID 
WELL.                                                    JR 1 : WELL NAME
STRT.FT                                                3102.0 : START DEPTH
STOP.FT                                               15993.0 : STOP DEPTH
STEP.FT                                                   0.5 : STEP BETWEEN DEPTHS
NULL.                                                 -999.25 : NULL VALUE
LOC.                                                      UNK : LOCATION 
SRVC.                                                     UNK : SERVICE COMPANY
#___________________________________________________________________________________________________ 
~CURVE INFORMATION 
# MNEM.UNIT           : CURVE DESCRIPTION 
#-----.-----          : ----------------------------- 
 DEPT.FT               : MEASURED DEPTH 
 CALI.IN               : CALIPER (CAL - CAL) 
 GR.API                : GAMMA RAY (GR) 
 DT.US/FT              : SONIC DELTA TRANSIT TIME (DT) 
 #___________________________________________________________________________________________________ 
~A         DEPT           CALI             GR             DT
# ...
        12540.0       -999.250         63.319         73.478
        12540.5       -999.250         71.509         77.807
        12541.0       -999.250         80.544         80.496
        12541.5       -999.250         87.516         81.762
        12542.0       -999.250         84.029         80.598
        12542.5       -999.250         79.634         78.638
        12543.0       -999.250         75.239         76.679
        12543.5       -999.250         75.379         77.356
        12544.0       -999.250         80.158         78.418
        12544.5       -999.250         83.495         79.026
        12545.0       -999.250         83.799         79.635
        12545.5       -999.250         83.968         80.244
        12546.0       -999.250         84.634         80.673
        12546.5       -999.250         81.958         77.828
        12547.0       -999.250         75.999         71.829
        12547.5       -999.250         65.303         65.830
        12548.0       -999.250         54.608         61.964
        12548.5       -999.250         50.419         62.150
        12549.0       -999.250         60.522         66.001
        12549.5       -999.250         70.678         70.956
        12550.0       -999.250         80.799         75.910
        12550.5       -999.250         83.999         76.106
        12551.0       -999.250         81.025         74.323
        12551.5       -999.250         75.569         72.445
        12552.0       -999.250         70.112         72.756
        12552.5       -999.250         67.263         73.092
        12553.0       -999.250         66.075         73.932
        12553.5       -999.250         67.572         74.772
        12554.0       -999.250         68.741         75.100
        12554.5       -999.250         68.277         73.547
        12555.0       -999.250         64.347         71.637
        12555.5       -999.250         59.920         69.728
        12556.0       -999.250         55.493         67.819
        12556.5       -999.250         55.918         67.707
        12557.0       -999.250         62.965         71.057
        12557.5       -999.250         72.008         74.408
        12558.0       -999.250         75.906         77.664
        12558.5       -999.250         73.203         74.549
        12559.0       -999.250         65.649         70.393
        12559.5       -999.250         57.368         66.237
        12560.0       -999.250         49.087         63.710
        12560.5       -999.250         49.160         67.418
        12561.0       -999.250         59.032         71.457
        12561.5       -999.250         72.772         75.495
        12562.0       -999.250         78.738         77.023
        12562.5       -999.250         77.644         74.575
        12563.0       -999.250         73.189         71.439
        12563.5       -999.250         68.734         68.302
        12564.0       -999.250         68.698         68.156
        12564.5       -999.250         72.201         71.307
        12565.0       -999.250         75.703         74.070
        12565.5       -999.250         78.949         73.132
        12566.0       -999.250         71.398         70.650
        12566.5       -999.250         62.221         68.168
        12567.0       -999.250         58.874         66.842
        12567.5       -999.250         61.504         69.444
        12568.0       -999.250         70.080         74.702
        12568.5       -999.250         79.392         79.186
        12569.0       -999.250         85.748         80.863
        12569.5       -999.250         89.085         81.684
        12570.0       -999.250         89.682         82.027
        12570.5       -999.250         89.888         82.370
        12571.0       -999.250         88.065         80.001
        12571.5       -999.250         80.166         76.611
        12572.0       -999.250         71.422         73.222
        12572.5       -999.250         62.679         69.832
        12573.0       -999.250         57.218         66.754
        12573.5       -999.250         58.056         67.570
        12574.0       -999.250         62.707         68.387
        12574.5       -999.250         64.731         69.203
        12575.0       -999.250         64.636         70.020
        12575.5       -999.250         65.130         72.174
        12576.0       -999.250         69.827         74.622
        12576.5       -999.250         76.856         76.650
        12577.0       -999.250         78.531         76.166
        12577.5       -999.250         77.301         75.681
        12578.0       -999.250         75.012         75.786
        12578.5       -999.250         74.427         76.251
        12579.0       -999.250         76.050         78.331
        12579.5       -999.250         79.469         81.011
        12580.0       -999.250         84.175         83.692
        12580.5       -999.250         84.900         81.921
        12581.0       -999.250         78.908         78.557
        12581.5       -999.250         67.555         75.193
        12582.0       -999.250         56.201         69.253
        12582.5       -999.250         47.936         62.414
        12583.0       -999.250         42.567         58.322
        12583.5       -999.250         37.197         56.651
        12584.0       -999.250         34.714         57.328
        12584.5       -999.250         36.267         61.210
        12585.0       -999.250         44.589         66.212
        12585.5       -999.250         59.602         71.214
        12586.0       -999.250         74.614         76.215
        12586.5       -999.250         80.760         81.217
        12587.0       -999.250         81.990         83.108
        12587.5       -999.250         80.581         83.377
        12588.0       -999.250         79.044         84.112
        12588.5       -999.250         77.712         83.977
        12589.0       -999.250         78.260         83.404
        12589.5       -999.250         79.277         77.216
        12590.0       -999.250         73.164         73.581
        12590.5       -999.250         64.141         69.945
        12591.0       -999.250         55.766         66.309
        12591.5       -999.250         49.741         62.674
        12592.0       -999.250         49.741         62.517
        12592.5       -999.250         61.702         66.971
        12593.0       -999.250         72.730         71.705
        12593.5       -999.250         83.758         76.438
        12594.0       -999.250         84.993         77.332
        12594.5       -999.250         80.782         75.974
        12595.0       -999.250         76.395         74.893
        12595.5       -999.250         77.089         76.090
        12596.0       -999.250         82.096         77.288
        12596.5       -999.250         82.473         75.258
        12597.0       -999.250         73.160         70.683
        12597.5       -999.250         61.718         66.008
        12598.0       -999.250         56.892         66.131
        12598.5       -999.250         62.257         69.560
        12599.0       -999.250         67.622         73.490
        12599.5       -999.250         72.690         74.857
        12600.0       -999.250         74.787         75.392
        12600.5       -999.250         76.167         74.621
        12601.0       -999.250         74.961         72.064
        12601.5       -999.250         73.018         70.846
        12602.0       -999.250         72.609         69.502
        12602.5       -999.250         72.758         68.158
        12603.0       -999.250         68.126         66.814
        12603.5       -999.250         56.856         64.709
        12604.0       -999.250         43.341         61.466
        12604.5       -999.250         40.036         59.902
        12605.0       -999.250         40.036         61.828
        12605.5       -999.250         45.140         64.994
