###############################################
##         ENVERUS                           ##
##         ESS - Open Hole                   ##
##         PERMIAN / DELAWARE                ##
##         Nov 02 2023  V4.0                 ##
##         42-301-31112-00-00                ##
###############################################
## Copyright 2017-2023  ENVERUS.  All Rights Reserved. 
## Confidential - Property of ENVERUS, use governed by terms and 
## conditions found within the existing Information Services Subscription Agreement 
## (as may be amended, the “ISSA”) between Customer and ENVERUS. 
## 
~VERSION INFORMATION
# MNEM.UNIT                               DATA : DESCRIPTION OF MNEMONIC
#-----.-----     ----------------------------- : -----------------------------
VERS.                                     2.00 : CWLS LOG ASCII STANDARD - VERSION 2.00
WRAP.                                       NO : MULTIPLE LINES PER DEPTH STEP
VEND.                                  ENVERUS : VENDOR
TYPE.                          ESS - OPEN HOLE : ENVERUS ESSENTIAL CURVES – ACCESSIBLE THROUGH ENVERUS PRISM(TM)
DOC.                                  31879965 : ENVERUS HEADER RAW DOCUMENT ID
#___________________________________________________________________________________________________ 
~WELL INFORMATION 
# p11foxtE5QnwhaJbtzBz2LJF4p4dkL7jzyXNzohJvMqLCglFSJK87xuVm3WB3m+8huK6qzS+fp5X73xeHrMy5w== 
# MNEM.UNIT                                              DATA : DESCRIPTION OF MNEMONIC 
#-----.-----                    ----------------------------- : ----------------------------- 
CNTY.                                                  LOVING : COUNTY 
STATE.                                                  TEXAS : STATE 
CNTRY.                                                    USA : COUNTRY 
API.                                             42-301-31112 : API (10 Digit) 
API_14.                                    42-301-31112-00-00 : API (14 Digits) 
API_14_std.                                 42-301-31112-0000 : API (14 Digits Standard) 
UWI.                                           42301311120000 : UNIQUE WELL ID 
WELL.                                                    JR 1 : WELL NAME
STRT.FT                                                3102.0 : START DEPTH
STOP.FT                                               15993.0 : STOP DEPTH
STEP.FT                                                   0.5 : STEP BETWEEN DEPTHS
NULL.                                                 -999.25 : NULL VALUE
LOC.                                                      UNK : LOCATION 
SRVC.                                                     UNK : SERVICE COMPANY
#___________________________________________________________________________________________________ 
~CURVE INFORMATION 
# MNEM.UNIT           : CURVE DESCRIPTION 
#-----.-----          : ----------------------------- 
 DEPT.FT               : MEASURED DEPTH 
 CALI.IN               : CALIPER (CAL - CAL) 
 GR.API                : GAMMA RAY (GR) 
 DT.US/FT              : SONIC DELTA TRANSIT TIME (DT) 
 #___________________________________________________________________________________________________ 
~A         DEPT           CALI             GR             DT
# ...
        11682.0       -999.250         76.121         88.709
        11682.5       -999.250         73.154         87.036
        11683.0       -999.250         72.343         86.266
        11683.5       -999.250         71.741         85.495
        11684.0       -999.250         69.945         84.725
        11684.5       -999.250         66.235         83.954
        11685.0       -999.250         63.306         80.407
        11685.5       -999.250         58.475         76.022
        11686.0       -999.250         52.730         71.523
        11686.5       -999.250         45.366         66.871
        11687.0       -999.250         38.002         62.219
        11687.5       -999.250         30.638         60.271
        11688.0       -999.250         33.501         66.071
        11688.5       -999.250         43.475         72.806
        11689.0       -999.250         55.502         79.541
        11689.5       -999.250         67.530         86.276
        11690.0       -999.250         75.556         90.775
        11690.5       -999.250         78.776         91.168
        11691.0       -999.250         84.740         92.262
        11691.5       -999.250         90.705         93.355
        11692.0       -999.250         94.323         94.449
        11692.5       -999.250         95.501         95.324
        11693.0       -999.250         96.890         94.678
        11693.5       -999.250         98.485         94.863
        11694.0       -999.250         99.182         95.049
        11694.5       -999.250         97.710         94.856
        11695.0       -999.250         93.553         94.463
        11695.5       -999.250         86.563         93.562
        11696.0       -999.250         79.191         91.430
        11696.5       -999.250         71.819         89.297
        11697.0       -999.250         71.051         87.328
        11697.5       -999.250         76.148         87.524
        11698.0       -999.250         83.703         89.887
        11698.5       -999.250         86.711         92.249
        11699.0       -999.250         83.894         93.222
        11699.5       -999.250         78.809         92.101
        11700.0       -999.250         74.416         89.869
        11700.5       -999.250         72.272         87.636
        11701.0       -999.250         70.399         85.404
        11701.5       -999.250         70.502         85.306
        11702.0       -999.250         73.120         86.396
        11702.5       -999.250         76.369         87.485
        11703.0       -999.250         75.485         85.252
        11703.5       -999.250         68.510         81.835
        11704.0       -999.250         61.536         78.418
        11704.5       -999.250         61.176         80.024
        11705.0       -999.250         68.351         84.154
        11705.5       -999.250         79.274         88.283
        11706.0       -999.250         85.558         91.602
        11706.5       -999.250         83.830         89.789
        11707.0       -999.250         74.635         87.134
        11707.5       -999.250         65.439         84.479
        11708.0       -999.250         60.640         81.824
        11708.5       -999.250         59.252         79.169
        11709.0       -999.250         58.541         78.589
        11709.5       -999.250         57.938         78.039
        11710.0       -999.250         59.125         77.489
        11710.5       -999.250         62.853         77.599
        11711.0       -999.250         66.581         78.315
        11711.5       -999.250         67.108         79.031
        11712.0       -999.250         64.898         78.812
        11712.5       -999.250         62.688         77.725
        11713.0       -999.250         60.180         76.637
        11713.5       -999.250         53.662         74.248
        11714.0       -999.250         47.144         69.666
        11714.5       -999.250         40.625         64.853
        11715.0       -999.250         34.546         61.168
        11715.5       -999.250         32.808         60.801
        11716.0       -999.250         33.963         63.311
        11716.5       -999.250         38.668         66.377
        11717.0       -999.250         44.835         69.444
        11717.5       -999.250         51.357         72.511
        11718.0       -999.250         57.879         75.578
        11718.5       -999.250         58.429         74.316
        11719.0       -999.250         56.210         72.875
        11719.5       -999.250         57.518         73.343
        11720.0       -999.250         62.482         79.527
        11720.5       -999.250         72.618         85.711
        11721.0       -999.250         79.253         89.746
        11721.5       -999.250         82.012         91.471
        11722.0       -999.250         84.771         90.972
        11722.5       -999.250         87.433         89.944
        11723.0       -999.250         87.665         88.915
        11723.5       -999.250         83.595         89.635
        11724.0       -999.250         78.768         90.460
        11724.5       -999.250         78.093         91.190
        11725.0       -999.250         80.093         91.057
        11725.5       -999.250         81.379         90.022
        11726.0       -999.250         78.065         88.982
        11726.5       -999.250         73.427         87.942
        11727.0       -999.250         70.956         87.086
        11727.5       -999.250         72.217         86.534
        11728.0       -999.250         75.445         87.426
        11728.5       -999.250         78.630         88.381
        11729.0       -999.250         78.355         89.336
        11729.5       -999.250         77.087         90.291
        11730.0       -999.250         77.443         91.246
        11730.5       -999.250         78.998         90.417
        11731.0       -999.250         80.613         88.320
        11731.5       -999.250         79.278         86.222
        11732.0       -999.250         76.213         84.125
        11732.5       -999.250         73.468         85.238
        11733.0       -999.250         74.889         86.443
        11733.5       -999.250         78.078         87.647
        11734.0       -999.250         80.226         87.383
        11734.5       -999.250         78.471         87.073
        11735.0       -999.250         75.976         86.763
        11735.5       -999.250         75.006         85.874
        11736.0       -999.250         72.433         81.403
        11736.5       -999.250         66.684         73.742
        11737.0       -999.250         55.532         66.081
        11737.5       -999.250         47.586         61.071
        11738.0       -999.250         42.059         60.432
        11738.5       -999.250         39.889         67.704
        11739.0       -999.250         47.520         75.422
        11739.5       -999.250         60.158         83.139
        11740.0       -999.250         72.796         85.642
        11740.5       -999.250         78.632         85.585
        11741.0       -999.250         75.888         83.722
        11741.5       -999.250         68.554         83.579
        11742.0       -999.250         68.138         84.294
        11742.5       -999.250         67.721         85.009
        11743.0       -999.250         65.201         83.115
        11743.5       -999.250         60.306         79.983
        11744.0       -999.250         56.391         76.850
        11744.5       -999.250         56.153         75.352
        11745.0       -999.250         58.069         79.329
        11745.5       -999.250         66.075         83.306
        11746.0       -999.250         74.082         87.283
        11746.5       -999.250         80.499         91.260
        11747.0       -999.250         85.096         93.402
        11747.5       -999.250         89.693         92.128
