~Version Information
 VERS.                  2.0:   CWLS log ASCII Standard -VERSION 2.0
 WRAP.                   NO:   One line per depth step
~Well Information Block
#MNEM.UNIT     VALUE/NAME     DESCRIPTION
#---------     -----------    ---------------------------
 STRT.F              8800.0000: START DEPTH
 STOP.F             14300.0000: STOP DEPTH
 STEP.F                 0.5000: STEP DEPTH
 NULL.                 -999.25: NULL VALUE
 LOC .     336'' FSL & 729' FWL:  LOCATION
 FL6 .        API 42-389-36322:  LOCATIONLINE6
 FL4 .           ABSTRACT 3622:  LOCATIONLINE4
 FL3 .        T&P RR CO SURVEY:  LOCATIONLINE3
 FL2 .     SECTION 36, BLOCK 58 T2:  LOCATIONLINE2
 FL1 .     336'' FSL & 729' FWL:  LOCATIONLINE1
 DMF .                      KB:  DRILL MEAS FROM
 PDAT.                      GL:  PERMANENT DATUM
 CNTY.                  REEVES:  COUNTY NAME
 FLD .     FORD, WEST (WOLFCAMP):  FIELD NAME
 WELL.        AVA STATE 36 #2H:  WELL NAME
 COMP.     CAPITAN ENERGY INC.:  COMPANY
 DATE.             01-Nov-2017:  DATE
 SVCO.             Halliburton:  SERVICECONAME
 PROV.                   TEXAS:  PROVINCE
 STAT.                   TEXAS:  STATE NAME
 CTRY.           UNITED STATES:  COUNTRY NAME
 HIDE.                        :  WELLNAMEOPERAT
 BASI.                 PERMIAN:  BASIN
 UWI .            42-389-36322LAT:  UNIQUE WELL IDENTIFIER
 API .            42-389-36322LAT:  API NUMBER
 RANG.                     N/A:  RANGE
 TOWN.                     N/A:  TOWNSHIP
 SECT.                     N/A:  SECTION
 SON .               904399722:  JOB NUMBER
 SRVC.             Halliburton:  SERVICE COMPANY
 LMF .                      KB:  LOG MEASURED FROM
 EGL .ft             3011.0000:  GROUND ELEVATION
 BAP .ft                0.0000:  GL ELEV ONSHORE
 GVFD.g                 1.0000:  GRAVITY FIELD
 EKB .ft             3037.0000:  KB ELEVATION
 EDF .ft             3036.0000:  DF ELEVATION
~Curve Information Block
#MNEM.UNIT                 API CODE     Curve Description
#---------               -----------    ---------------------------
 DEPT.F                 00 000 000 000:  Depth
 CCL .V                 00 000 000 000:  Casing Collar Locator
 NPHI_OH.pu             00 000 000 000:  NPHI_OH
 NPHI_CHI.pu            00 000 000 000:  NPHI_CHI
 GR_CHI.api             00 000 000 000:  GR_CHI
 GR_OH.api              00 000 000 000:  GR_OH
 RHOB_OH.g/cc           00 000 000 000:  RHOB_OH
 RHOB_CHI.g/cc          00 000 000 000:  RHOB_CHI
 PE_CHI.b/e             00 000 000 000:  PE_CHI
 PE_OH.b/e              00 000 000 000:  PE_OH
 DTC_OH.uspf            00 000 000 000:  DTC_OH
 DTC_CHI.uspf           00 000 000 000:  DTC_CHI
 SPHI_CHI.pu            00 000 000 000:  Acou Porosity CHI
 RT10_OH.ohmm           00 000 000 000:  RT10_OH
 RT10_CHI.ohmm          00 000 000 000:  RT10_CHI
 RT30_OH.ohmm           00 000 000 000:  RT30_OH
 RT30_CHI.ohmm          00 000 000 000:  RT30_CHI
 RT90_OH.ohmm           00 000 000 000:  RT90_OH
 RT90_CHI.ohmm          00 000 000 000:  RT90_CHI
 SGF .cu                00 000 000 000:  Formation Sigma
 CRNF.NONE              00 000 000 000:  CM GrsCaptRatio
 RIN .NONE              00 000 000 000:  CM GrsInelRatio
#Other Information
#
#WARRANTY: Halliburton will use its best efforts to furnish customers with 
#accurate information and interpretations that are part of, and incident to, the services 
#provided.  However, Halliburton cannot and does not warrant the accuracy 
#or correctness of such information and interpretations.  Under no circumstances should any 
#such information or interpretation be relied upon as the sole basis for any drilling, 
#completion, production, or financial decision or any procedure involving any risk to the 
#safety of any drilling venture, drilling rig or its crew or any other third party.  The 
#Customer has full responsibility for all drilling, completion and production operation.  
#Halliburton makes no representations or warranties, either expressed or 
#implied, including, but not limited to, the implied warranties of merchantability or fitness 
#for a particular purpose, with respect to the services rendered.  In no event will 
#Halliburton be liable for failure to obtain any particular results or for 
#any damages, including, but not limited to, indirect, special or consequential damages, 
#resulting from the use of any information or interpretation provided by Halliburton.
#
~A    DEPT      CCL   NPHI_OH NPHI_CHI   GR_CHI   GR_OH   RHOB_OH RHOB_CHI  PE_CHI   PE_OH  DTC_OH  DTC_CHI SPHI_CHI RT10_OH  RT10_CHI RT30_OH  RT30_CHI RT90_OH  RT90_CHI   SGF    CRNF   RIN   
# ...
    9892.0000  0.0000 -999.25    6.8125  54.8702  -999.25 -999.25    2.6080  4.8882 -999.25 -999.25 58.4940   7.7000  -999.25  53.4813  -999.25  62.7755  -999.25  72.2829 13.9093 0.8236 0.9344
    9892.5000  0.0000 -999.25    6.9474  55.1554  -999.25 -999.25    2.6066  4.8766 -999.25 -999.25 58.7259   7.8700  -999.25  53.4561  -999.25  62.7439  -999.25  72.2288 13.9665 0.8228 0.9338
    9893.0000  0.0000 -999.25    7.0425  56.2162  -999.25 -999.25    2.6058  4.8654 -999.25 -999.25 58.8138   7.9300  -999.25  53.6288  -999.25  62.8227  -999.25  72.2650 14.0425 0.8201 0.9373
    9893.5000  0.0000 -999.25    7.0700  57.3542  -999.25 -999.25    2.6058  4.8568 -999.25 -999.25 58.7768   7.9000  -999.25  53.7388  -999.25  62.7235  -999.25  72.0612 14.1379 0.8191 0.9432
    9894.0000  0.0000 -999.25    7.1276  60.8691  -999.25 -999.25    2.6060  4.8390 -999.25 -999.25 58.5658   7.7600  -999.25  53.9749  -999.25  62.7459  -999.25  71.9581 14.1875 0.8195 0.9536
    9894.5000  0.0000 -999.25    6.7513  56.7651  -999.25 -999.25    2.6099  4.8861 -999.25 -999.25 58.2363   7.5200  -999.25  53.6627  -999.25  61.8572  -999.25  70.8077 14.1792 0.8204 0.9616
    9895.0000  0.0000 -999.25    6.6937  57.1181  -999.25 -999.25    2.6108  4.8896 -999.25 -999.25 58.0973   7.4200  -999.25  53.5659  -999.25  61.5618  -999.25  70.3947 14.1559 0.8211 0.9666
    9895.5000  0.0000 -999.25    6.6189  55.8053  -999.25 -999.25    2.6115  4.9010 -999.25 -999.25 58.0764   7.4100  -999.25  53.4667  -999.25  61.3440  -999.25  70.1238 14.0785 0.8211 0.9674
    9896.0000  0.0000 -999.25    6.5109  53.4022  -999.25 -999.25    2.6124  4.9190 -999.25 -999.25 58.0941   7.4200  -999.25  53.3480  -999.25  61.1086  -999.25  69.8508 14.0005 0.8217 0.9666
    9896.5000  0.0000 -999.25    6.4142  51.0974  -999.25 -999.25    2.6132  4.9378 -999.25 -999.25 58.1167   7.4400  -999.25  53.2908  -999.25  61.0007  -999.25  69.7426 13.8962 0.8215 0.9651
    9897.0000  0.0000 -999.25    6.5829  53.9662  -999.25 -999.25    2.6118  4.9164 -999.25 -999.25 58.1555   7.4600  -999.25  53.5014  -999.25  61.4374  -999.25  70.2710 13.8150 0.8227 0.9647
    9897.5000  0.0000 -999.25    6.5336  52.6528  -999.25 -999.25    2.6122  4.9289 -999.25 -999.25 58.1688   7.4700  -999.25  53.5000  -999.25  61.4290  -999.25  70.2740 13.8499 0.8224 0.9639
    9898.0000  0.0000 -999.25    6.7153  55.4642  -999.25 -999.25    2.6106  4.9064 -999.25 -999.25 58.2395   7.5200  -999.25  53.7620  -999.25  61.9990  -999.25  70.9862 13.9894 0.8246 0.9617
    9898.5000  0.0000 -999.25    6.8894  58.2205  -999.25 -999.25    2.6089  4.8796 -999.25 -999.25 58.3269   7.5900  -999.25  53.8353  -999.25  62.1961  -999.25  71.2109 14.2503 0.8295 0.9617
    9899.0000  0.0000 -999.25    6.5254  52.2643  -999.25 -999.25    2.6121  4.9267 -999.25 -999.25 58.2089   7.5000  -999.25  53.4002  -999.25  61.2641  -999.25  70.0735 14.5237 0.8378 0.9635
    9899.5000  0.0000 -999.25    6.1604  46.7448  -999.25 -999.25    2.6155  4.9667 -999.25 -999.25 58.0783   7.4100  -999.25  52.6643  -999.25  59.6958  -999.25  68.0863 14.6701 0.8489 0.9712
    9900.0000  0.0000 -999.25    6.5868  54.8749  -999.25 -999.25    2.6119  4.8909 -999.25 -999.25 58.1727   7.4800  -999.25  52.2924  -999.25  59.1140  -999.25  67.2198 14.7812 0.8578 0.9814
    9900.5000  0.0000 -999.25    6.6968  56.0581  -999.25 -999.25    2.6111  4.8704 -999.25 -999.25 58.3041   7.5700  -999.25  51.3660  -999.25  57.5452  -999.25  65.1788 14.7632 0.8661 0.9916
    9901.0000  0.0000 -999.25    6.6391  51.8923  -999.25 -999.25    2.6113  4.8810 -999.25 -999.25 58.6131   7.7900  -999.25  50.4371  -999.25  55.8905  -999.25  63.1050 14.7372 0.8668 0.9963
    9901.5000  0.0000 -999.25    7.0351  55.6507  -999.25 -999.25    2.6073  4.8313 -999.25 -999.25 59.0676   8.1100  -999.25  50.2710  -999.25  55.8017  -999.25  62.9609 14.6555 0.8645 0.9953
    9902.0000  0.0000 -999.25    7.1468  54.0203  -999.25 -999.25    2.6057  4.8238 -999.25 -999.25 59.4728   8.4000  -999.25  50.0531  -999.25  55.4448  -999.25  62.5273 14.5888 0.8621 0.9929
    9902.5000  0.0000 -999.25    7.1677  53.6302  -999.25 -999.25    2.6054  4.8255 -999.25 -999.25 59.5510   8.4500  -999.25  50.1963  -999.25  55.6995  -999.25  62.8578 14.5710 0.8590 0.9904
    9903.0000  0.0000 -999.25    7.3218  56.8995  -999.25 -999.25    2.6040  4.8042 -999.25 -999.25 59.5387   8.4400  -999.25  50.5710  -999.25  56.4399  -999.25  63.7724 14.5781 0.8617 0.9880
    9903.5000  0.0000 -999.25    7.3858  58.6360  -999.25 -999.25    2.6035  4.7938 -999.25 -999.25 59.4944   8.4100  -999.25  50.8453  -999.25  56.9516  -999.25  64.4110 14.7429 0.8622 0.9862
    9904.0000  0.0000 -999.25    7.1999  55.8147  -999.25 -999.25    2.6051  4.8192 -999.25 -999.25 59.3841   8.3300  -999.25  51.0228  -999.25  57.1574  -999.25  64.7074 14.8990 0.8628 0.9835
    9904.5000  0.0000 -999.25    7.3708  57.6011  -999.25 -999.25    2.6031  4.7889 -999.25 -999.25 59.5857   8.4800  -999.25  51.0080  -999.25  57.1914  -999.25  64.7434 15.0359 0.8588 0.9819
    9905.0000  0.0000 -999.25    7.6330  62.0648  -999.25 -999.25    2.6005  4.7428 -999.25 -999.25 59.7035   8.5600  -999.25  51.1426  -999.25  57.5387  -999.25  65.1499 15.1492 0.8532 0.9811
    9905.5000  0.0000 -999.25    7.7972  64.2710  -999.25 -999.25    2.5986  4.7124 -999.25 -999.25 59.8402   8.6600  -999.25  51.2837  -999.25  57.8578  -999.25  65.5493 15.2631 0.8445 0.9784
    9906.0000  0.0000 -999.25    7.7405  63.9438  -999.25 -999.25    2.5989  4.7130 -999.25 -999.25 59.7567   8.6000  -999.25  51.5328  -999.25  58.2944  -999.25  66.1308 15.3132 0.8361 0.9746
    9906.5000  0.0000 -999.25    7.6315  62.2272  -999.25 -999.25    2.5993  4.7217 -999.25 -999.25 59.7058   8.5600  -999.25  51.8373  -999.25  58.9534  -999.25  67.0489 15.2304 0.8239 0.9657
    9907.0000  0.0000 -999.25    7.9657  68.9538  -999.25 -999.25    2.5957  4.6633 -999.25 -999.25 59.6866   8.5500  -999.25  52.5741  -999.25  60.7241  -999.25  69.3382 14.9847 0.8098 0.9541
    9907.5000  0.0000 -999.25    8.2785  74.1786  -999.25 -999.25    2.5923  4.6159 -999.25 -999.25 59.7359   8.5800  -999.25  52.9835  -999.25  62.2224  -999.25  71.3574 14.6215 0.7955 0.9390
    9908.0000  0.0000 -999.25    7.6030  63.2600  -999.25 -999.25    2.5983  4.7340 -999.25 -999.25 59.3933   8.3400  -999.25  51.8144  -999.25  61.1602  -999.25  70.3303 14.2551 0.7816 0.9241
    9908.5000  0.0000 -999.25    7.0039  55.2376  -999.25 -999.25    2.6042  4.8428 -999.25 -999.25 58.9145   8.0000  -999.25  50.9553  -999.25  60.4573  -999.25  69.6755 13.9650 0.7738 0.9142
    9909.0000  0.0000 -999.25    6.6083  50.9211  -999.25 -999.25    2.6085  4.9193 -999.25 -999.25 58.4490   7.6700  -999.25  50.5179  -999.25  60.3183  -999.25  69.6656 13.7698 0.7707 0.9067
    9909.5000  0.0000 -999.25    6.4656  51.1438  -999.25 -999.25    2.6107  4.9526 -999.25 -999.25 58.0246   7.3700  -999.25  50.7706  -999.25  61.0451  -999.25  70.6634 13.6414 0.7705 0.9023
    9910.0000  0.0000 -999.25    6.5756  54.0784  -999.25 -999.25    2.6102  4.9448 -999.25 -999.25 57.8565   7.2500  -999.25  51.1408  -999.25  61.8926  -999.25  71.7680 13.5433 0.7725 0.8988
    9910.5000  0.0000 -999.25    6.6026  55.3109  -999.25 -999.25    2.6103  4.9453 -999.25 -999.25 57.7482   7.1800  -999.25  51.7443  -999.25  62.7238  -999.25  72.7944 13.4873 0.7752 0.8995
    9911.0000  0.0000 -999.25    6.7767  59.4605  -999.25 -999.25    2.6093  4.9193 -999.25 -999.25 57.6725   7.1200  -999.25  53.2907  -999.25  64.5971  -999.25  75.0265 13.4802 0.7806 0.9054
    9911.5000  0.0000 -999.25    6.8589  62.1694  -999.25 -999.25    2.6091  4.9041 -999.25 -999.25 57.5967   7.0700  -999.25  54.6542  -999.25  66.0410  -999.25  76.6899 13.5826 0.7884 0.9141
    9912.0000  0.0000 -999.25    7.0098  65.6174  -999.25 -999.25    2.6081  4.8774 -999.25 -999.25 57.5928   7.0700  -999.25  55.5370  -999.25  66.9741  -999.25  77.7344 13.7515 0.7961 0.9211
    9912.5000  0.0000 -999.25    6.5137  56.0613  -999.25 -999.25    2.6122  4.9495 -999.25 -999.25 57.5893   7.0600  -999.25  54.5299  -999.25  65.1110  -999.25  75.4182 13.9235 0.8006 0.9234
