###############################################
##         ENVERUS                           ##
##         ESS - Open Hole                   ##
##         PERMIAN / DELAWARE                ##
##         Nov 04 2023  V4.0                 ##
##         42-389-32421-01-00                ##
###############################################
## Copyright 2017-2023  ENVERUS.  All Rights Reserved. 
## Confidential - Property of ENVERUS, use governed by terms and 
## conditions found within the existing Information Services Subscription Agreement 
## (as may be amended, the “ISSA”) between Customer and ENVERUS. 
## 
~VERSION INFORMATION
# MNEM.UNIT                               DATA : DESCRIPTION OF MNEMONIC
#-----.-----     ----------------------------- : -----------------------------
VERS.                                     2.00 : CWLS LOG ASCII STANDARD - VERSION 2.00
WRAP.                                       NO : MULTIPLE LINES PER DEPTH STEP
VEND.                                  ENVERUS : VENDOR
TYPE.                          ESS - OPEN HOLE : ENVERUS ESSENTIAL CURVES – ACCESSIBLE THROUGH ENVERUS PRISM(TM)
DOC.                                  51227099 : ENVERUS HEADER RAW DOCUMENT ID
#___________________________________________________________________________________________________ 
~WELL INFORMATION 
# zrraAS4ibxVPgm4F4FjILRFQbgMcjf5VKWH9QXz9oP+5l3DBeEvHFHP9dTNjNwXm2+WMaTXZz7qhRLDoyN0AVg== 
# MNEM.UNIT                                              DATA : DESCRIPTION OF MNEMONIC 
#-----.-----                    ----------------------------- : ----------------------------- 
CNTY.                                                  REEVES : COUNTY 
STATE.                                                  TEXAS : STATE 
CNTRY.                                                    USA : COUNTRY 
API.                                             42-389-32421 : API (10 Digit) 
API_14.                                    42-389-32421-01-00 : API (14 Digits) 
API_14_std.                                 42-389-32421-0100 : API (14 Digits Standard) 
UWI.                                           42389324210100 : UNIQUE WELL ID 
WELL.                                      ARMSTRONG STATE #1 : WELL NAME
STRT.FT                                                2000.0 : START DEPTH
STOP.FT                                               14700.0 : STOP DEPTH
STEP.FT                                                   0.5 : STEP BETWEEN DEPTHS
NULL.                                                 -999.25 : NULL VALUE
COMP.                                   BULLDOG OPERATING CO. : COMPANY 
FLD.                                                  WILDCAT : FIELD 
LOC.                                                3-59-2778 : LOCATION 
SRVC.                                            SCHLUMBERGER : SERVICE COMPANY 
DATE.                                              08/28/2006 : DATE 
PREV_APII.                                       423893242100 : API NUMBER 
PREV_UWI.                                        423893242100 : UWI NUMBER 
TVD.                                                       NO : TVD FLAG
#___________________________________________________________________________________________________ 
~PARAMETER INFORMATION 
# MNEM.UNIT                                              DATA : DESCRIPTION OF MNEMONIC 
#-----.-----                    ----------------------------- : ----------------------------- 
RUN.                                                      ONE : RUN NUMBER 
PDAT.                                                      GL : PERMANENT DATUM 
EPD.FT                                              3134.8000 : ELEVATION OF PERM. DATUM 
LMF.                                            KELLY BUSHING : LOG MEASURED FROM 
EKB.FT                                              3157.8000 : ELEVATION OF KELLY BUSHING 
DF.FT                                               3156.8000 : ELEVATION OF DERRICK FLOOR 
GL.FT                                               3134.8000 : ELEVATION OF GROUND LEVEL 
TD.FT                                              14700.0000 : TOTAL DEPTH 
BHT.DEGF                                               230.00 : BOTTOM HOLE TEMPERATURE 
BLI.FT                                             14700.0000 : BOTTOM LOG INTERVAL 
CSGSIZE.IN                                             9.6250 : CASING SIZE 
BITSIZE.IN                                              8.750 : BITSIZE 
CSGD.FT                                                  2014 : CASING BOTTOM (DRILLER) 1 
CSGL.FT                                                  2014 : CASING BOTTOM (LOGGER) 1 
MUD.                                                    BRINE : DRILLING FLUID TYPE 
MUDV.CP                                               31.0000 : DRILLING FLUID VISCOSITY 
MUDD.LB/USG                                            9.3000 : DRILLING FLUID DENSITY 
FL.ML/30MIN                                           13.0000 : DRILLING FLUID LOSS 
PH.                                                   10.0000 : DRILLING FLUID PH 
MUDS.                                        CIRCULATION TANK : MUD SAMPLE SOURCE 
RM.OHMM                                                0.0540 : RESISTIVITY OF MUD SAMPLE 
RMT.DEGF                                              90.0000 : MUD SAMPLE TEMPERATURE 
RMF.OHMM                                               0.0640 : MUD FILTRATE RESISTIVITY 
RMFT.DEGF                                             80.0000 : MUD FILTRATE SAMPLE TEMPERATURE
#___________________________________________________________________________________________________ 
~CURVE INFORMATION 
# MNEM.UNIT           : CURVE DESCRIPTION 
#-----.-----          : ----------------------------- 
 DEPT.FT               : MEASURED DEPTH 
 DT.US/FT              : SONIC DELTA TRANSIT TIME (DELTA T) 
 SPHI.V/V              : SONIC POROSITY (SONIC POROSITY) 
 #___________________________________________________________________________________________________ 
~A         DEPT             DT           SPHI
# ...
        10439.0         73.300        0.19500
        10439.5         76.743        0.22100
        10440.0         81.046        0.25200
        10440.5         85.350        0.28400
        10441.0         88.793        0.29800
        10441.5         87.586        0.29900
        10442.0         82.699        0.25300
        10442.5         77.813        0.20700
        10443.0         73.903        0.19600
        10443.5         75.283        0.20500
        10444.0         76.433        0.21300
        10444.5         77.123        0.21700
        10445.0         77.123        0.21400
        10445.5         77.123        0.21600
        10446.0         77.123        0.21800
        10446.5         75.915        0.20400
        10447.0         74.406        0.18600
        10447.5         71.757        0.16800
        10448.0         68.270        0.15400
        10448.5         69.779        0.16500
        10449.0         72.042        0.18600
        10449.5         74.306        0.20600
        10450.0         76.569        0.21700
        10450.5         78.598        0.22800
        10451.0         80.275        0.24100
        10451.5         81.952        0.25500
        10452.0         84.611        0.27300
        10452.5         87.269        0.29100
        10453.0         89.396        0.29900
        10453.5         89.698        0.29900
        10454.0         86.290        0.30000
        10454.5         80.443        0.25000
        10455.0         74.595        0.17400
        10455.5         70.785        0.17200
        10456.0         70.709        0.16900
        10456.5         71.087        0.17400
        10457.0         71.464        0.17700
        10457.5         71.529        0.17600
        10458.0         71.127        0.17500
        10458.5         70.724        0.17100
        10459.0         70.322        0.16800
        10459.5         68.954        0.16400
        10460.0         66.137        0.14600
        10460.5         63.320        0.11700
        10461.0         60.503        0.08300
        10461.5         57.686        0.06900
        10462.0         54.869        0.04300
        10462.5         53.179        0.04800
        10463.0         54.990        0.07100
        10463.5         59.685        0.09900
        10464.0         63.597        0.12700
        10464.5         67.510        0.15500
        10465.0         70.181        0.17200
        10465.5         72.025        0.18200
        10466.0         73.501        0.18800
        10466.5         73.199        0.18600
        10467.0         71.822        0.18200
        10467.5         69.694        0.16900
        10468.0         67.565        0.15300
        10468.5         65.437        0.13600
        10469.0         63.309        0.12000
        10469.5         62.233        0.11000
        10470.0         62.636        0.11700
        10470.5         65.137        0.13000
        10471.0         67.220        0.14200
        10471.5         68.320        0.15400
        10472.0         67.867        0.14300
        10472.5         65.788        0.12800
        10473.0         63.189        0.10900
        10473.5         61.486        0.10400
        10474.0         61.127        0.09700
        10474.5         60.767        0.09700
        10475.0         60.684        0.09700
        10475.5         60.785        0.09900
        10476.0         61.060        0.10200
        10476.5         61.451        0.10500
        10477.0         61.842        0.10800
        10477.5         62.233        0.11200
        10478.0         66.042        0.14000
        10478.5         69.851        0.16900
        10479.0         72.897        0.19200
        10479.5         75.010        0.20000
        10480.0         75.412        0.20500
        10480.5         74.909        0.20000
        10481.0         74.507        0.19700
        10481.5         75.330        0.20300
        10482.0         76.016        0.20800
        10482.5         76.702        0.21300
        10483.0         77.525        0.21900
        10483.5         75.341        0.20300
        10484.0         72.610        0.18400
        10484.5         69.879        0.16400
        10485.0         70.445        0.16900
        10485.5         71.011        0.17500
        10486.0         71.690        0.17500
        10486.5         67.364        0.15700
        10487.0         61.957        0.10200
        10487.5         56.549        0.05100
        10488.0         54.789        0.06200
        10488.5         56.600        0.08100
        10489.0         62.803        0.12100
        10489.5         69.007        0.17400
        10490.0         75.211        0.21100
        10490.5         79.185        0.23500
        10491.0         79.638        0.23700
        10491.5         79.135        0.23400
        10492.0         74.482        0.19400
        10492.5         69.829        0.15500
        10493.0         64.497        0.12400
        10493.5         64.916        0.12900
        10494.0         67.029        0.15000
        10494.5         69.991        0.17200
        10495.0         72.953        0.19400
        10495.5         75.915        0.21000
        10496.0         76.984        0.21800
        10496.5         78.053        0.22500
        10497.0         79.336        0.22900
        10497.5         79.095        0.23100
        10498.0         78.790        0.22800
        10498.5         78.488        0.22500
        10499.0         78.118        0.22500
        10499.5         78.108        0.22500
        10500.0         78.101        0.22500
        10500.5         75.482        0.18600
        10501.0         68.711        0.13600
        10501.5         61.942        0.08600
        10502.0         56.398        0.06600
        10502.5         56.398        0.07300
        10503.0         60.536        0.10300
        10503.5         64.759        0.13300
        10504.0         68.982        0.16300
        10504.5         73.205        0.19500
        10505.0         77.427        0.22200
        10505.5         80.212        0.24000
        10506.0         80.203        0.23900
        10506.5         79.431        0.23800
        10507.0         78.408        0.23000
        10507.5         77.386        0.22300
        10508.0         76.370        0.21500
        10508.5         74.930        0.20700
        10509.0         75.492        0.20100
        10509.5         76.662        0.21400
        10510.0         77.807        0.22400
        10510.5         77.928        0.22400
        10511.0         77.163        0.22000
        10511.5         76.328        0.21300
        10512.0         76.241        0.20700
        10512.5         76.886        0.21500
        10513.0         77.530        0.22100
        10513.5         76.891        0.21400
        10514.0         75.689        0.20800
        10514.5         75.607        0.20700
        10515.0         76.036        0.20900
        10515.5         76.519        0.21100
        10516.0         76.431        0.21100
        10516.5         76.331        0.21000
        10517.0         76.231        0.21000
        10517.5         76.117        0.20900
        10518.0         75.342        0.20500
        10518.5         74.306        0.19500
        10519.0         73.087        0.18500
        10519.5         71.656        0.17600
        10520.0         70.282        0.16600
        10520.5         71.650        0.17700
        10521.0         72.965        0.18800
        10521.5         74.507        0.20100
        10522.0         74.093        0.19300
        10522.5         72.890        0.18400
        10523.0         71.288        0.17400
        10523.5         73.748        0.19300
        10524.0         76.170        0.21200
        10524.5         77.726        0.22000
        10525.0         77.123        0.22000
        10525.5         76.371        0.21300
