#--------------------------------------------------#
#-------------------ENVERUS, INC.------------------#
#------------------WWW.ENVERUS.COM-----------------#
#------------------COPYRIGHT 2020------------------#
#--------------------------------------------------#
#THIS FILE MAY BE USED ONLY IN ACCORDANCE WITH A CURRENT SUBSCRIPTION AGREEMENT BETWEEN
#THE USER AND ENVERUS, INC. NO PART OF THIS FILE MAY BE REPRODUCED, USED, COPIED,
#MODIFIED, PROPAGATED, OR DISTRIBUTED EXCEPT IN ACCORDANCE WITH THE SUBSCRIPTION
#AGREEMENT. UNAUTHORIZED USE OR DISTRIBUTION OF ALL OR ANY PART OF THIS FILE MAY VIOLATE
#COPYRIGHT, TRADEMARK, AND/OR OTHER LAWS AND IS SUBJECT TO CIVIL AS WELL AS CRIMINAL
#SANCTIONS.
#--------------------------------------------------#
#THIS FILE IS PROVIDED "AS-IS" AND ALL WARRANTIES ARE EXPRESSLY DISCLAIMED, WHETHER
#EXPRESS, ORAL, IMPLIED, STATUTORY OR OTHERWISE, INCLUDING ANY IMPLIED WARRANTY OF FITNESS
#FOR A PARTICULAR PURPOSE, MERCHANTABILITY, TITLE OR NON-INFRINGEMENT, AND ANY WARRANTIES
#ARISING BY VIRTUE OF CUSTOM OF TRADE OR COURSE OF DEALING.  FURTHER, ENVERUS, INC.
#AND ITS LICENSORS DO NOT REPRESENT OR WARRANT THAT THIS FILE WILL MEET USER'S
#REQUIREMENTS OR ARE SUITABLE FOR USER'S NEEDS OR THAT THE DATA OR RESULTS PROVIDED IN
#CONJUNCTION THEREWITH ARE CORRECT, ACCURATE, TIMELY OR RELIABLE. THESE DISCLAIMERS SHALL
#APPLY REGARDLESS OF ANY FAILURE OF ESSENTIAL PURPOSE OF ANY LIMITED REMEDY.  SOME
#JURISDICTIONS DO NOT ALLOW THE EXCLUSION OF CERTAIN WARRANTIES SO SOME OF THE ABOVE
#EXCLUSIONS MAY NOT APPLY. IN NO EVENT SHALL ENVERUS, INC. OR ANY OF ITS AFFILIATES
#BE LIABLE UNDER ANY LEGAL THEORY, WHETHER IN TORT (INCLUDING WITHOUT LIMITATION
#NEGLIGENCE), CONTRACT, STRICT LIABILITY, STATUTORY OR OTHERWISE, FOR ANY SPECIAL,
#INCIDENTAL, CONSEQUENTIAL, EXEMPLARY, PUNITIVE OR INDIRECT DAMAGE OF ANY KIND, INCLUDING
#WITHOUT LIMITATION LOSS OF REVENUE, PROFITS, GOODWILL, USE, AND/OR DATA OR THE COST OF
#PROCUREMENT OF SUBSTITUTE GOODS OR SERVICES, EVEN IF APPRISED OF THE POSSIBILITY OF SUCH
#DAMAGES IN ADVANCE.
#--------------------------------------------------#

# EXPORTED FROM DI TRANSFORM
# DI TRANSFORM - A PRODUCT OF DRILLINGINFO, INC. - WWW.DRILLINGINFO.COM
#
~VERSION INFORMATION
 VERS.        2.0 : LAS ASCII STANDARD - VERSION 2.0
 WRAP.         NO : ONE LINE PER DEPTH STEP

~WELL INFORMATION
#MNEM.UNIT       DATA TYPE       INFORMATION
#---------       ---------       -----------
 STRT.FT                3800 : START DEPTH
 STOP.FT               10654 : STOP DEPTH
 STEP.FT                 0.5 : STEP LENGTH
 NULL.               -999.25 : NULL VALUE
 UWI.         42389340250000 : UNIQUE WELL ID
 API.         42389340250000 : WELL IDENTIFIER
 COMP.                       : COMPANY
 WELL.  42389340250000_API14 : WELL NAME
 FLD.                        : FIELD NAME
 LOC.                        : WELL LOCATION
 CNTY.                       : COUNTY
 STAT.                       : STATE OR PROVINCE
 CTRY.                       : COUNTRY
 SRVC.                       : SERVICE COMPANY
 DATE.                       : DATE

~CURVE INFORMATION
#MNEM.UNIT       API CODE       CURVE DESCRIPTION
#---------       --------       -----------------
 DEPT.FT        : <MEASURED DEPTH>
 CAL.IN         : CALIPER
 DT.US/FT       : SONIC
 GR.GAPI        : GAMMA RAY

~PARAMETER INFORMATION
#MNEM.UNIT       VALUE       DESCRIPTION
#---------       -----       -----------
 EKB.FT      3120.5 : ELEVATION ABOVE MSL

~A      DEPT         CAL          DT          GR
# ...
        6014      9.5329     57.9449     47.0316
      6014.5      9.5329     58.8471     48.0476
        6015      9.5329     60.0628     49.0636
      6015.5      9.5329      60.587     50.0796
        6016      9.5329     61.4786     51.0956
      6016.5      9.5329     62.4071     52.1116
        6017      9.5329     63.8746     53.1276
      6017.5      9.5329      65.302      58.408
        6018      9.5329      66.454     60.9675
      6018.5      9.5329     67.4254     47.1967
        6019      9.5329     67.8346     33.4259
      6019.5      9.5329     67.8837     19.6551
        6020      9.5329     67.8837     17.7928
      6020.5      9.5329     67.8837     16.1222
        6021      9.5329     67.7112     14.4515
      6021.5       9.513     67.5827     12.7808
        6022       9.513     66.9137     11.1101
      6022.5       9.513     65.7881      9.4394
        6023       9.513     64.9848      7.7688
      6023.5       9.513      64.374     18.7524
        6024       9.513      64.547       43.96
      6024.5       9.513     63.5707     69.1676
        6025       9.513     63.5707     83.3094
      6025.5       9.513      63.671     86.6045
        6026       9.513     64.0018     89.8997
      6026.5      9.5255     64.2082     95.0149
        6027      9.5529     64.3731    110.9712
      6027.5      9.5529      64.621    126.9275
        6028      9.5529     64.9749     88.1293
      6028.5      9.5529     65.0752       2.768
        6029      9.5146     65.3405      2.4746
      6029.5       9.513     65.7475      2.1812
        6030       9.513     65.9539      1.8877
      6030.5       9.513     66.6252      1.5943
        6031       9.513     67.5827      1.3009
      6031.5       9.513     68.1779      1.0075
        6032      9.5329     69.0855    143.4891
      6032.5      9.5329      70.105     84.1112
        6033      9.5329     71.6483     29.4484
      6033.5      9.5329     72.6981     25.8296
        6034      9.5329     73.2219     43.1951
      6034.5      9.5329     73.6289     62.6536
        6035      9.5329      74.002     82.1121
      6035.5      9.5329     74.1023     91.7337
        6036      9.5329     74.3484     46.1422
      6036.5      9.5329     74.4032     36.0386
        6037      9.5497     74.3029     16.6402
      6037.5      9.5529     74.3658     49.6481
        6038      9.5529     74.3029    118.7356
      6038.5      9.5529     74.4032     99.2011
        6039      9.5529     74.2226     24.2008
      6039.5      9.5529      74.002     27.7828
        6040      9.5529     73.6092     46.8285
      6040.5      9.5529     73.2022     65.8743
        6041      9.5529     71.4755       84.92
      6041.5      9.5529     68.7684     53.6365
        6042      9.5529     66.3349     21.1459
      6042.5      9.5529     65.4559      37.951
        6043      9.5529      64.215     54.7561
      6043.5      9.5411     63.0371     71.5611
        6044      9.5329     62.4295     55.1843
      6044.5      9.5329     62.2668     49.3033
        6045      9.5329     62.3671     83.3802
      6045.5      9.5329     62.3671    128.0643
        6046      9.5504     62.4674    135.0971
      6046.5      9.5928       63.27     113.624
        6047      9.5729     64.1725     92.1508
      6047.5      9.5729      64.094    105.7507
        6048      9.5928     64.0562     88.2204
      6048.5      9.5928     64.4632     91.0212
        6049      9.5928     65.3629     93.2711
      6049.5      9.5928     66.6828     93.2821
        6050      9.5949      69.202    131.2727
      6050.5      9.6805     70.3299    129.8723
        6051      9.7815     72.1715    128.4718
      6051.5      9.8824     73.9509    127.0714
        6052      9.9834     74.7345     121.729
      6052.5       9.816     75.6513    108.3711
        6053       9.659     76.4512     95.0132
      6053.5      9.5581     76.5095     88.6587
        6054       9.513     75.7402     84.5241
      6054.5      9.4731     74.5444     80.3895
        6055      9.4926     73.6711     76.2549
      6055.5      9.5324     73.2999     72.1204
        6056      9.6128     73.1996     67.9858
      6056.5      9.6943     72.9164     63.8512
        6057      9.7953     72.5094     59.7166
      6057.5      9.8957     72.1966     53.0026
        6058      9.8272     71.7954     43.1996
      6058.5      9.7262     71.9011     33.3967
        6059      9.6253     71.8844     23.5937
      6059.5      9.5729     71.4945     12.6284
        6060      9.5729     71.0933     24.3177
      6060.5      9.5729     70.4628     67.0151
        6061      9.5729     69.6517    109.7124
      6061.5      9.5729     68.2645    118.8864
        6062      9.5729     67.2901    107.1813
      6062.5      9.5729     66.4761    107.8659
        6063      9.5928     65.8627    108.5506
      6063.5      9.5928     65.2758    105.2537
        6064      9.5928     65.1063     95.8364
      6064.5      9.5928      64.674     86.4191
        6065      9.5928     64.6545     77.0017
      6065.5      9.5928     65.0615     67.5844
        6066      9.5928     65.5688     69.0577
      6066.5      9.5928     66.0761     72.5049
        6067      9.5928     66.8917     73.9685
      6067.5      9.5928     67.7834     79.3597
        6068      9.5928     68.6469     88.9856
      6068.5      9.5635     69.7894     98.6115
        6069      9.5424     69.8162    108.2374
      6069.5      9.5329     70.4238    117.8633
        6070      9.5329     70.3293    127.4892
      6070.5      9.5329     70.3912    115.5044
        6071      9.5329     70.1906     102.362
      6071.5      9.5329     70.2464     96.3877
        6072      9.5329     70.2909    102.1689
      6072.5      9.5928     68.7189    107.9502
        6073      9.5928     67.9186    113.7314
      6073.5      9.5928     66.7013    119.5126
        6074      9.5949     66.0243    121.5699
      6074.5      9.6128     65.3761    111.7086
        6075      9.6128     65.3761    101.8472
      6075.5      9.6128     65.3781     91.9859
        6076      9.6128     66.1014     82.1246
      6076.5      9.6128     67.3957     72.2633
        6077      9.6327     68.1809      62.402
      6077.5      9.6327     70.1906     61.2816
        6078      9.6327     71.1166     69.3349
      6078.5      9.6327     72.6076     84.8562
        6079      9.6128     74.1873    100.3776
      6079.5      9.5329     74.8007    114.1598
        6080      9.5329       75.36    124.8964
      6080.5      9.5329     75.8673    107.7601
        6081      9.5329     76.0426     82.8397
      6081.5      9.5329     74.9196     60.3198
        6082      9.5329     73.2916     46.7579
      6082.5      9.5529     72.5491     33.1959
        6083      9.5529     70.7149     19.6339
      6083.5      9.5529     69.5944      42.894
        6084      9.5529     68.1831    110.3217
      6084.5      9.5529       66.68    132.0397
        6085      9.5529     67.3412    106.7641
      6085.5      9.5529     64.5386     78.1811
        6086      9.5529     63.9252     61.2089
      6086.5      9.5529     63.0529     69.6114
        6087      9.6048     62.6072     78.0139
      6087.5      9.6327     63.2698     86.4165
        6088      9.6926      63.671     69.2031
      6088.5      9.6926     63.8716     67.6391
        6089      9.6926     64.0722     66.7055
      6089.5      9.6926      64.501     65.7719
        6090      9.6926     65.2453      66.985
      6090.5      9.6727     65.2758     76.4024
        6091      9.6527     65.4575     85.8197
      6091.5      9.6527     65.9648      95.237
        6092      9.6527     66.9514    104.6544
      6092.5      9.6527     67.7834    100.3285
        6093      9.6527     67.4782     88.9177
      6093.5      9.6527     67.4925     85.8089
        6094      9.6246     67.5195      81.452
      6094.5      9.6221     67.0026     77.0952
        6095      9.6327     67.5827     72.7383
      6095.5      9.6327     67.4824     74.3365
