###############################################
##         ENVERUS                           ##
##         ESS - Open Hole                   ##
##         PERMIAN / DELAWARE                ##
##         Nov 04 2023  V4.0                 ##
##         42-389-32730-00-00                ##
###############################################
## Copyright 2017-2023  ENVERUS.  All Rights Reserved. 
## Confidential - Property of ENVERUS, use governed by terms and 
## conditions found within the existing Information Services Subscription Agreement 
## (as may be amended, the “ISSA”) between Customer and ENVERUS. 
## 
~VERSION INFORMATION
# MNEM.UNIT                               DATA : DESCRIPTION OF MNEMONIC
#-----.-----     ----------------------------- : -----------------------------
VERS.                                     2.00 : CWLS LOG ASCII STANDARD - VERSION 2.00
WRAP.                                       NO : MULTIPLE LINES PER DEPTH STEP
VEND.                                  ENVERUS : VENDOR
TYPE.                          ESS - OPEN HOLE : ENVERUS ESSENTIAL CURVES – ACCESSIBLE THROUGH ENVERUS PRISM(TM)
DOC.                                  19552736 : ENVERUS HEADER RAW DOCUMENT ID
#___________________________________________________________________________________________________ 
~WELL INFORMATION 
# Emv0q1Fc4UOVqi1FEPTQ50pHgS2U6oO6A9wxQf5ozJtTAVTQXtUhuyCOytio7eHVwvke0CQF/LYkoyLsbhUTsQ== 
# MNEM.UNIT                                              DATA : DESCRIPTION OF MNEMONIC 
#-----.-----                    ----------------------------- : ----------------------------- 
CNTY.                                                  REEVES : COUNTY 
STATE.                                                  TEXAS : STATE 
CNTRY.                                                    USA : COUNTRY 
API.                                             42-389-32730 : API (10 Digit) 
API_14.                                    42-389-32730-00-00 : API (14 Digits) 
API_14_std.                                 42-389-32730-0000 : API (14 Digits Standard) 
UWI.                                           42389327300000 : UNIQUE WELL ID 
WELL.                                  BIG SKY 55 - 16 NO. 1H : WELL NAME
STRT.FT                                                3850.0 : START DEPTH
STOP.FT                                               12070.5 : STOP DEPTH
STEP.FT                                                   0.5 : STEP BETWEEN DEPTHS
NULL.                                                 -999.25 : NULL VALUE
COMP.                                      CIMAREX ENERGY CO. : COMPANY 
FLD.                                                  WILDCAT : FIELD 
SRVC.                                             HALLIBURTON : SERVICE COMPANY 
DATE.                                              03/23/2011 : DATE 
TVD.                                                       NO : TVD FLAG 
WSTA.                                                     LOC : WELL STATUS
#___________________________________________________________________________________________________ 
~PARAMETER INFORMATION 
# MNEM.UNIT                                              DATA : DESCRIPTION OF MNEMONIC 
#-----.-----                    ----------------------------- : ----------------------------- 
RUN.                                                      ONE : RUN NUMBER 
PDAT.                                                      GL : PERMANENT DATUM 
EPD.FT                                              2996.0000 : ELEVATION OF PERM. DATUM 
LMF.                                            KELLY BUSHING : LOG MEASURED FROM 
EKB.FT                                              3021.0000 : ELEVATION OF KELLY BUSHING 
DF.FT                                               3020.0000 : ELEVATION OF DERRICK FLOOR 
GL.FT                                               2996.0000 : ELEVATION OF GROUND LEVEL 
TD.FT                                              12100.0000 : TOTAL DEPTH 
CSGD.FT                                                  3861 : CASING BOTTOM (DRILLER) 1 
CSGL.FT                                                  3855 : CASING BOTTOM (LOGGER) 1 
MUD.                                                    BRINE : DRILLING FLUID TYPE 
MUDV.CP                                               36.0000 : DRILLING FLUID VISCOSITY 
MUDD.LB/USG                                           10.1000 : DRILLING FLUID DENSITY 
PH.                                                   10.0000 : DRILLING FLUID PH 
MUDS.                                                FLOWLINE : MUD SAMPLE SOURCE 
RM.OHMM                                                0.0600 : RESISTIVITY OF MUD SAMPLE 
RMT.DEGF                                              75.0000 : MUD SAMPLE TEMPERATURE 
RMF.OHMM                                               0.0400 : MUD FILTRATE RESISTIVITY 
RMFT.DEGF                                             75.0000 : MUD FILTRATE SAMPLE TEMPERATURE 
RMC.OHMM                                               0.0600 : MUD CAKE RESISTIVITY 
RMCT.DEGF                                             75.0000 : MUD CAKE SAMPLE TEMPERATURE 
RMB.OHMM                                               0.0240 : MUD RESISTIVITY AT BHT 
TMAX.DEGF                                            200.0000 : BOTTOM HOLE TEMPERATURE
#___________________________________________________________________________________________________ 
~CURVE INFORMATION 
# MNEM.UNIT           : CURVE DESCRIPTION 
#-----.-----          : ----------------------------- 
 DEPT.FT               : MEASURED DEPTH 
 GR.API                : GAMMA RAY (GAMMA RAY) 
 DT.US/FT              : SONIC DELTA TRANSIT TIME (DELTA T) 
 RESD_LL.OHMM          : DEEP LATEROLOG (LLD - DEEP LATEROLOG) 
 DPHI.V/V              : DENSITY POROSITY (DENSITY POROSITY) 
 NPHI.V/V              : NEUTRON POROSITY (NEUTRON POROSITY) 
 #___________________________________________________________________________________________________ 
~A         DEPT             GR             DT        RESD_LL           DPHI           NPHI
# ...
         4950.0         27.777         58.092        74.8090        0.02100        0.05400
         4950.5         25.342         56.169        92.3380        0.01300        0.03900
         4951.0         27.283         55.056        84.2290        0.00600        0.03700
         4951.5         31.759         55.721        68.6170        0.00300        0.04000
         4952.0         37.724         56.620        49.3250        0.01600        0.04600
         4952.5         41.261         58.011        42.4350        0.02700        0.05100
         4953.0         42.829         59.221        38.8690        0.03500        0.05900
         4953.5         44.393         59.822        35.1600        0.04100        0.06600
         4954.0         46.206         59.961        31.5880        0.04100        0.06600
         4954.5         48.747         60.348        25.1300        0.04100        0.07000
         4955.0         51.424         62.038        15.9820        0.04100        0.07900
         4955.5         52.495         64.072        13.2010        0.05700        0.08800
         4956.0         50.427         65.794        11.8350        0.07400        0.10200
         4956.5         48.193         67.279        10.6110        0.08600        0.11600
         4957.0         45.960         68.526         9.7060        0.08700        0.12600
         4957.5         44.066         69.399         9.1730        0.08800        0.12300
         4958.0         42.168         69.998         8.6690        0.09400        0.11600
         4958.5         40.222         70.602         8.1930        0.09300        0.12400
         4959.0         40.787         71.032         7.6610        0.09800        0.13100
         4959.5         41.877         71.202         7.9070        0.10200        0.12900
         4960.0         42.976         70.962         8.2200        0.10300        0.12500
         4960.5         43.871         70.139         8.5480        0.10100        0.12100
         4961.0         43.977         69.333         8.8780        0.09700        0.11400
         4961.5         44.072         68.528         9.3540        0.09300        0.10600
         4962.0         45.504         67.715         9.8400        0.09000        0.09900
         4962.5         47.131         66.724        12.7480        0.08800        0.09200
         4963.0         47.616         65.108        17.1580        0.08600        0.08600
         4963.5         45.706         63.369        23.0940        0.06700        0.09700
         4964.0         42.566         61.531        31.0830        0.04900        0.09000
         4964.5         39.415         59.680        41.8350        0.03300        0.07300
         4965.0         36.235         57.968        51.9160        0.02700        0.06300
         4965.5         32.943         57.137        60.4110        0.02600        0.05700
         4966.0         29.659         56.359        69.7980        0.02600        0.05000
         4966.5         26.417         55.581        80.7490        0.02500        0.04300
         4967.0         24.909         54.729        90.4190        0.02400        0.04100
         4967.5         25.616         54.547        95.0670        0.02400        0.04100
         4968.0         26.709         54.345        99.7840        0.02300        0.04300
         4968.5         28.021         54.144       104.7150        0.02200        0.04100
         4969.0         29.372         53.940       109.2480        0.02300        0.03900
         4969.5         29.445         53.888       100.4950        0.02400        0.03700
         4970.0         29.149         53.971        93.3010        0.02000        0.03400
         4970.5         28.842         54.220        86.9080        0.01400        0.03400
         4971.0         28.537         54.469        82.5750        0.00800        0.03700
         4971.5         28.236         54.727        75.3210        0.00200        0.04100
         4972.0         27.912         55.328        63.9170        0.00000        0.04400
         4972.5         29.246         56.536        54.1780        0.00400        0.04600
         4973.0         31.659         57.786        47.1450        0.01000        0.05100
         4973.5         34.073         59.058        43.4210        0.01900        0.05600
         4974.0         35.420         59.058        51.0360        0.02300        0.06000
         4974.5         33.075         57.725        58.5210        0.02400        0.06300
         4975.0         29.170         56.376        67.2250        0.02300        0.05400
         4975.5         27.555         55.530        72.7330        0.02100        0.04600
         4976.0         27.406         55.631        56.1000        0.02200        0.05100
         4976.5         31.641         56.488        49.9440        0.02700        0.06100
         4977.0         34.065         57.349        49.0250        0.03200        0.06100
         4977.5         33.876         57.497        48.5060        0.03700        0.06200
         4978.0         32.462         57.117        51.2600        0.03700        0.06200
         4978.5         31.014         56.774        53.1960        0.03300        0.05100
         4979.0         29.755         57.447        43.2780        0.03200        0.05000
         4979.5         31.252         58.959        35.5020        0.03900        0.05600
         4980.0         33.211         60.203        29.4690        0.04700        0.05500
         4980.5         35.713         61.128        26.6980        0.05000        0.05300
         4981.0         38.211         62.053        25.4180        0.05400        0.06400
         4981.5         39.888         62.906        25.6040        0.05200        0.07400
         4982.0         40.826         62.792        25.7500        0.05100        0.08300
         4982.5         40.592         62.425        25.8830        0.05000        0.08800
         4983.0         38.134         61.078        36.0620        0.04300        0.08700
         4983.5         35.207         57.913        59.2590        0.03200        0.07400
         4984.0         32.253         56.427        93.6210        0.02100        0.05600
         4984.5         29.273         54.850        97.7900        0.01700        0.03800
         4985.0         28.325         55.042        84.9090        0.01600        0.03200
         4985.5         31.113         56.337        52.9690        0.02300        0.04200
         4986.0         42.264         58.261        43.2650        0.03400        0.05400
         4986.5         52.690         59.741        42.6270        0.04900        0.07100
         4987.0         56.699         59.783        45.9320        0.06200        0.08200
         4987.5         59.353         58.645        56.3980        0.04900        0.08000
         4988.0         49.390         57.521        76.8540        0.03200        0.07200
         4988.5         41.858         56.917        84.0220        0.02100        0.06000
         4989.0         37.662         56.312        85.9660        0.01800        0.05000
         4989.5         35.442         55.707       108.3010        0.01500        0.04900
         4990.0         32.995         55.102       126.7280        0.01000        0.04800
         4990.5         29.695         54.308       147.0100        0.00400        0.04700
         4991.0         26.326         53.462       163.6330       -0.00300        0.04100
         4991.5         21.693         52.615       182.1360       -0.00400        0.03500
         4992.0         18.772         52.485       199.4050        0.00200        0.02900
         4992.5         18.553         52.531       212.3650        0.00800        0.02200
         4993.0         20.227         52.740       200.2770        0.01100        0.02300
         4993.5         23.714         53.162       165.3730        0.01100        0.02400
