###############################################
##         ENVERUS                           ##
##         ESS - Open Hole                   ##
##         PERMIAN / DELAWARE                ##
##         Nov 04 2023  V4.0                 ##
##         42-389-31391-00-00                ##
###############################################
## Copyright 2017-2023  ENVERUS.  All Rights Reserved. 
## Confidential - Property of ENVERUS, use governed by terms and 
## conditions found within the existing Information Services Subscription Agreement 
## (as may be amended, the “ISSA”) between Customer and ENVERUS. 
## 
~VERSION INFORMATION
# MNEM.UNIT                               DATA : DESCRIPTION OF MNEMONIC
#-----.-----     ----------------------------- : -----------------------------
VERS.                                     2.00 : CWLS LOG ASCII STANDARD - VERSION 2.00
WRAP.                                       NO : MULTIPLE LINES PER DEPTH STEP
VEND.                                  ENVERUS : VENDOR
TYPE.                          ESS - OPEN HOLE : ENVERUS ESSENTIAL CURVES – ACCESSIBLE THROUGH ENVERUS PRISM(TM)
DOC.                                  23866972 : ENVERUS HEADER RAW DOCUMENT ID
#___________________________________________________________________________________________________ 
~WELL INFORMATION 
# fYFWm3OWRd9IdMsmH1sgiJ8+yI47SyIf11h8n9fSv2EtxvNnkQHcFoeZabdKB/2nhpfFDZXLrBDJ+4Q2ZBaHeQ== 
# MNEM.UNIT                                              DATA : DESCRIPTION OF MNEMONIC 
#-----.-----                    ----------------------------- : ----------------------------- 
CNTY.                                                  REEVES : COUNTY 
STATE.                                                  TEXAS : STATE 
CNTRY.                                                    USA : COUNTRY 
API.                                             42-389-31391 : API (10 Digit) 
API_14.                                    42-389-31391-00-00 : API (14 Digits) 
API_14_std.                                 42-389-31391-0000 : API (14 Digits Standard) 
UWI.                                           42389313910000 : UNIQUE WELL ID 
WELL.                                       DIXIELAND # 3 - 1 : WELL NAME
STRT.FT                                                4000.0 : START DEPTH
STOP.FT                                               12000.0 : STOP DEPTH
STEP.FT                                                   0.5 : STEP BETWEEN DEPTHS
NULL.                                                 -999.25 : NULL VALUE
COMP.                             R. K. PETROLEUM CORPORATION : COMPANY 
FLD.                                                  WILDCAT : FIELD 
DATE.                                              08/13/2015 : DATE 
TVD.                                                       NO : TVD FLAG 
WSTA.                                                     LOC : WELL STATUS
#___________________________________________________________________________________________________ 
~PARAMETER INFORMATION 
# MNEM.UNIT                                              DATA : DESCRIPTION OF MNEMONIC 
#-----.-----                    ----------------------------- : ----------------------------- 
RUN.                                                      ONE : RUN NUMBER 
PDAT.                                                      GL : PERMANENT DATUM 
LMF.                                            KELLY BUSHING : LOG MEASURED FROM
#___________________________________________________________________________________________________ 
~CURVE INFORMATION 
# MNEM.UNIT           : CURVE DESCRIPTION 
#-----.-----          : ----------------------------- 
 DEPT.FT               : MEASURED DEPTH 
 CALI.IN               : CALIPER (CALIPER) 
 GR.API                : GAMMA RAY (GAMMA RAY) 
 DT.US/FT              : SONIC DELTA TRANSIT TIME (DELTA-T) 
 RESD.OHMM             : DEEP INDUCTION RESISTIVITY (ILD - DEEP INDUCTION STANDARD PROCESSED RESISTIVITY) 
 RESD_LL.OHMM          : DEEP LATEROLOG (LLD - LATERO-LOG DEEP (RESISTIVITY)) 
 NPHI.V/V              : NEUTRON POROSITY (NEUTRON POROSITY) 
 #___________________________________________________________________________________________________ 
~A         DEPT           CALI             GR             DT           RESD        RESD_LL           NPHI
# ...
         4532.0         15.050         37.855         79.669       -999.250         2.1455        0.54786
         4532.5         15.050         36.565         80.407       -999.250         1.8233        0.55832
         4533.0         15.049         35.066         81.145       -999.250         1.6361        0.53776
         4533.5         15.049         34.602         81.988       -999.250         2.2477        0.50402
         4534.0         15.048         36.257         82.470       -999.250         3.5194        0.50322
         4534.5         15.048         37.395         82.443       -999.250         3.1888        0.51666
         4535.0         15.047         38.747         81.483       -999.250         2.8126        0.52603
         4535.5         15.047         37.600         81.006       -999.250         2.1252        0.52066
         4536.0         15.046         36.072         80.771       -999.250         2.0248        0.49656
         4536.5         15.046         34.470         80.655       -999.250         1.9840        0.50087
         4537.0         15.046         32.935         80.538       -999.250         1.9441        0.52589
         4537.5         15.045         31.977         80.419       -999.250         1.9357        0.53453
         4538.0         15.045         32.255         80.421       -999.250         2.3776        0.57200
         4538.5         15.044         32.625         80.464       -999.250         2.9204        0.56922
         4539.0         15.044         33.532         80.542       -999.250         3.3903        0.52334
         4539.5         15.043         35.483         80.519       -999.250         2.7693        0.51755
         4540.0         15.043         35.924         80.465       -999.250         1.9357        0.51575
         4540.5         15.042         36.368         80.410       -999.250         1.9590        0.51690
         4541.0         15.042         36.902         80.356       -999.250         1.9857        0.49775
         4541.5         15.041         35.513         80.302       -999.250         2.0248        0.46781
         4542.0         15.041         35.520         80.248       -999.250         1.9773        0.48054
         4542.5         15.040         35.522         80.194       -999.250         1.8877        0.49317
         4543.0         15.040         35.626         80.301       -999.250         1.7628        0.45896
         4543.5         15.039         35.710         80.422       -999.250         1.6803        0.42124
         4544.0         15.039         35.787         80.422       -999.250         1.6067        0.40974
         4544.5         15.038         35.770         80.663       -999.250         1.5377        0.42635
         4545.0         15.037         36.871         80.663       -999.250         1.4720        0.46753
         4545.5         15.037         39.086         80.542       -999.250         1.7791        0.46573
         4546.0         15.036         41.217         80.301       -999.250         1.8649        0.45448
         4546.5         15.035         43.588         79.699       -999.250         1.9909        0.43481
         4547.0         15.034         43.253         79.337       -999.250         2.3333        0.44125
         4547.5         15.034         40.363         78.795       -999.250         2.6100        0.43481
         4548.0         15.033         37.709         78.723       -999.250         2.4065        0.48064
         4548.5         15.032         35.082         78.849       -999.250         2.2035        0.49558
         4549.0         15.032         32.830         78.470       -999.250         2.0473        0.49839
         4549.5         15.031         33.099         78.090       -999.250         2.0950        0.47276
         4550.0         15.030         34.111         77.713       -999.250         2.2268        0.44272
         4550.5         15.030         35.111         77.332       -999.250         2.4221        0.41298
         4551.0         15.029         36.249         76.950       -999.250         2.3773        0.39749
         4551.5         15.028         38.069         76.568       -999.250         2.4221        0.39167
         4552.0         15.028         39.892         76.183       -999.250         2.5245        0.35084
         4552.5         15.027         41.411         75.799       -999.250         2.6593        0.35262
         4553.0         15.026         45.185         76.669       -999.250         2.4221        0.37906
         4553.5         15.026         47.951         78.114       -999.250         2.2901        0.41489
         4554.0         15.025         49.921         78.024       -999.250         2.5670        0.43867
         4554.5         15.024         51.864         77.892       -999.250         2.8450        0.43816
         4555.0         15.024         52.038         77.771       -999.250         3.0308        0.42478
         4555.5         15.023         50.901         77.530       -999.250         2.6593        0.38755
         4556.0         15.022         49.765         77.289       -999.250         2.5387        0.33501
         4556.5         15.022         48.839         77.169       -999.250         2.2901        0.34414
         4557.0         15.021         47.625         76.928       -999.250         2.5617        0.36187
         4557.5         15.020         47.873         76.807       -999.250         2.8731        0.39151
         4558.0         15.020         48.243         76.771       -999.250         2.8597        0.41952
         4558.5         15.019         48.699         76.645       -999.250         2.8686        0.41607
         4559.0         15.018         49.276         76.566       -999.250         2.8154        0.41308
         4559.5         15.018         49.016         76.512       -999.250         2.7238        0.35921
         4560.0         15.017         48.139         76.214       -999.250         2.9328        0.32727
         4560.5         15.016         47.451         75.729       -999.250         3.1567        0.31214
         4561.0         15.016         45.536         75.243       -999.250         3.3970        0.30684
         4561.5         15.015         43.877         74.759       -999.250         3.6565        0.29718
         4562.0         15.014         43.948         73.794       -999.250         3.9323        0.27151
         4562.5         15.014         43.974         72.402       -999.250         4.2335        0.24597
         4563.0         15.013         43.095         71.192       -999.250         4.4038        0.23645
         4563.5         15.012         42.422         70.344       -999.250         4.1638        0.23727
         4564.0         15.012         44.548         70.164       -999.250         3.9590        0.28200
         4564.5         15.011         46.569         70.649       -999.250         3.5161        0.27730
         4565.0         15.010         48.192         71.377       -999.250         3.5304        0.26228
         4565.5         15.010         49.161         72.289       -999.250         3.7925        0.24745
         4566.0         15.009         47.623         72.831       -999.250         3.6888        0.24611
         4566.5         15.008         46.400         72.831       -999.250         3.5458        0.24490
         4567.0         15.008         46.075         72.952       -999.250         3.3720        0.23245
         4567.5         15.007         48.996         73.373       -999.250         3.2055        0.22730
         4568.0         15.006         51.873         73.916       -999.250         3.7797        0.26590
         4568.5         15.006         54.656         74.277       -999.250         4.3580        0.27260
         4569.0         15.005         58.961         74.277       -999.250         5.0247        0.27042
         4569.5         15.004         61.680         73.675       -999.250         5.7934        0.27143
