###############################################
##         ENVERUS                           ##
##         ESS - Open Hole                   ##
##         PERMIAN / DELAWARE                ##
##         Nov 04 2023  V4.0                 ##
##         42-389-30297-00-00                ##
###############################################
## Copyright 2017-2023  ENVERUS.  All Rights Reserved. 
## Confidential - Property of ENVERUS, use governed by terms and 
## conditions found within the existing Information Services Subscription Agreement 
## (as may be amended, the “ISSA”) between Customer and ENVERUS. 
## 
~VERSION INFORMATION
# MNEM.UNIT                               DATA : DESCRIPTION OF MNEMONIC
#-----.-----     ----------------------------- : -----------------------------
VERS.                                     2.00 : CWLS LOG ASCII STANDARD - VERSION 2.00
WRAP.                                       NO : MULTIPLE LINES PER DEPTH STEP
VEND.                                  ENVERUS : VENDOR
TYPE.                          ESS - OPEN HOLE : ENVERUS ESSENTIAL CURVES – ACCESSIBLE THROUGH ENVERUS PRISM(TM)
DOC.                                  32306493 : ENVERUS HEADER RAW DOCUMENT ID
#___________________________________________________________________________________________________ 
~WELL INFORMATION 
# rQStLE5sYsP+YdYw4QOWpp6z6mWwFJBvCxgTqRv2Ioz+qyoYLl+79qTOna8BSHgUk5jTgp49hkgrAQ1kFKyHCg== 
# MNEM.UNIT                                              DATA : DESCRIPTION OF MNEMONIC 
#-----.-----                    ----------------------------- : ----------------------------- 
CNTY.                                                  REEVES : COUNTY 
STATE.                                                  TEXAS : STATE 
CNTRY.                                                    USA : COUNTRY 
API.                                             42-389-30297 : API (10 Digit) 
API_14.                                    42-389-30297-00-00 : API (14 Digits) 
API_14_std.                                 42-389-30297-0000 : API (14 Digits Standard) 
UWI.                                           42389302970000 : UNIQUE WELL ID 
WELL.                              R.S. BRENNAND, JR. ET AL 1 : WELL NAME
STRT.FT                                                   3.0 : START DEPTH
STOP.FT                                               13007.0 : STOP DEPTH
STEP.FT                                                   0.5 : STEP BETWEEN DEPTHS
NULL.                                                 -999.25 : NULL VALUE
#___________________________________________________________________________________________________ 
~CURVE INFORMATION 
# MNEM.UNIT           : CURVE DESCRIPTION 
#-----.-----          : ----------------------------- 
 DEPT.FT               : MEASURED DEPTH 
 CALI.IN               : CALIPER (CAL - CAL) 
 GR.API                : GAMMA RAY (GR) 
 DT.US/FT              : SONIC DELTA TRANSIT TIME (DT) 
 NPHI.V/V              : NEUTRON POROSITY (NPHI) 
 RHOB.G/CC             : BULK DENSITY (RHOB) 
 #___________________________________________________________________________________________________ 
~A         DEPT           CALI             GR             DT           NPHI           RHOB
# ...
         8583.0          9.969         99.472         59.820     -999.25000         2.5608
         8583.5          9.969        103.068         58.785     -999.25000         2.5608
         8584.0          9.968        101.101         57.751     -999.25000         2.5712
         8584.5          9.968         94.541         56.716     -999.25000         2.5817
         8585.0          9.968         87.981         59.342     -999.25000         2.5921
         8585.5          9.968         81.421         65.726     -999.25000         2.6025
         8586.0          9.968         53.559         72.110     -999.25000         2.6129
         8586.5          9.967         49.512         72.475     -999.25000         2.6192
         8587.0          9.967         45.464         70.868     -999.25000         2.6159
         8587.5          9.967         43.628         69.261     -999.25000         2.6126
         8588.0          9.967         53.105         67.653     -999.25000         2.6093
         8588.5          9.967         62.582         66.046     -999.25000         2.6060
         8589.0          9.967         72.058         64.438     -999.25000         2.6027
         8589.5          9.966         81.535         62.887     -999.25000         2.5757
         8590.0          9.966         92.011         71.179     -999.25000         2.5634
         8590.5          9.966        103.564         76.333     -999.25000         2.5690
         8591.0          9.966         98.612         75.926     -999.25000         2.5745
         8591.5          9.966         93.660         75.520     -999.25000         2.5800
         8592.0          9.965         88.709         75.114     -999.25000         2.5855
         8592.5          9.965         83.757         74.708     -999.25000         2.5910
         8593.0          9.965         78.805         74.302     -999.25000         2.5965
         8593.5          9.965         79.188         72.230     -999.25000         2.5842
         8594.0          9.965         87.083         68.587     -999.25000         2.5651
         8594.5          9.965         94.978         64.944     -999.25000         2.5459
         8595.0          9.964        120.177         61.301     -999.25000         2.5346
         8595.5          9.964        134.908         57.657     -999.25000         2.5398
         8596.0          9.964        127.477         60.658     -999.25000         2.5451
         8596.5          9.964        119.363         65.700     -999.25000         2.5503
         8597.0          9.964        107.684         70.743     -999.25000         2.5556
         8597.5          9.964         96.004         74.522     -999.25000         2.5721
         8598.0          9.963         84.325         72.992     -999.25000         2.5970
         8598.5          9.963         72.646         71.462     -999.25000         2.6219
         8599.0          9.963         60.967         69.931     -999.25000         2.6392
         8599.5          9.963         65.965         68.401     -999.25000         2.6224
         8600.0          9.963         75.106         69.609     -999.25000         2.6056
         8600.5          9.962         84.248         72.071     -999.25000         2.5888
         8601.0          9.962         93.390         74.533     -999.25000         2.5719
         8601.5          9.962        102.531         74.533     -999.25000         2.5551
         8602.0          9.962        111.673         71.527     -999.25000         2.5600
         8602.5          9.962        104.743         68.521     -999.25000         2.5722
         8603.0          9.962        106.992         65.515     -999.25000         2.5845
         8603.5          9.961        112.072         62.509     -999.25000         2.5865
         8604.0          9.961        117.153         60.088     -999.25000         2.5698
         8604.5          9.961        113.158         64.797     -999.25000         2.5530
         8605.0          9.961        104.598         69.506     -999.25000         2.5363
         8605.5          9.962         96.038         68.639     -999.25000         2.5453
         8606.0          9.962         87.479         67.524     -999.25000         2.5555
         8606.5          9.962         78.919         66.410     -999.25000         2.5657
         8607.0          9.962         70.359         65.295     -999.25000         2.5759
         8607.5          9.962         62.296         64.180     -999.25000         2.5861
         8608.0          9.963         73.939         63.065     -999.25000         2.5879
         8608.5          9.963         85.581         61.951     -999.25000         2.5820
         8609.0          9.963         97.223         60.836     -999.25000         2.5761
         8609.5          9.963        100.774         61.395     -999.25000         2.5702
         8610.0          9.963         93.235         62.010     -999.25000         2.5644
         8610.5          9.963         85.695         62.626     -999.25000         2.5603
         8611.0          9.964         78.156         62.041     -999.25000         2.5729
         8611.5          9.964         70.617         61.380     -999.25000         2.5856
         8612.0          9.964         63.077         60.718     -999.25000         2.5982
         8612.5          9.964         70.380         65.879     -999.25000         2.5959
         8613.0          9.964         67.076         72.238     -999.25000         2.5872
         8613.5          9.965         63.771         71.993     -999.25000         2.5785
         8614.0          9.965         60.467         71.748     -999.25000         2.5900
         8614.5          9.965         64.073         71.503     -999.25000         2.6017
         8615.0          9.965         73.518         71.258     -999.25000         2.6081
         8615.5          9.965         82.964         71.013     -999.25000         2.5999
         8616.0          9.966         92.409         72.037     -999.25000         2.5917
         8616.5          9.966        101.854         73.984     -999.25000         2.5836
         8617.0          9.966        102.098         75.773     -999.25000         2.5754
         8617.5          9.966        100.670         73.309     -999.25000         2.5672
         8618.0          9.966        112.001         70.845     -999.25000         2.5591
         8618.5          9.966        123.332         68.381     -999.25000         2.5509
         8619.0          9.967        129.759         65.916     -999.25000         2.5427
         8619.5          9.967        117.161         63.452     -999.25000         2.5346
         8620.0          9.967        104.562         61.017     -999.25000         2.5293
         8620.5          9.967         91.049         59.427     -999.25000         2.5535
         8621.0          9.967         70.651         57.838     -999.25000         2.5777
         8621.5          9.968         50.254         56.249     -999.25000         2.6020
         8622.0          9.968         43.640         54.987     -999.25000         2.6262
         8622.5          9.968         47.700         56.610     -999.25000         2.6504
         8623.0          9.968         51.761         58.232     -999.25000         2.6746
         8623.5          9.968         55.821         59.855     -999.25000         2.6650
         8624.0          9.969         59.881         65.821     -999.25000         2.6543
         8624.5          9.969         64.690         69.062     -999.25000         2.6437
         8625.0          9.969         70.622         68.817     -999.25000         2.6303
         8625.5          9.969         76.554         68.572     -999.25000         2.6147
         8626.0          9.969         82.486         68.327     -999.25000         2.5992
         8626.5          9.970         88.418         68.082     -999.25000         2.5850
