#   WellGreen Tech Inc.   Digitizing Services
#   www.wellgreentech.com
#   email: sales@wellgreentech.com
#
~Version Information Block
 VERS.                2.00:     CWLS LOG ASCII STANDARD - VERSION 2.000000
 WRAP.                  NO:     One Line Per Depth Step
#
~Well Information Block
#MNEM.UNIT                     Data                         Information
#----------   ------------------------------------------   ----------------
 STRT.FT                                     4000.0000:     START DEPTH
 STOP.FT                                    15710.0000:     STOP DEPTH
 STEP.FT                                        0.5000:     STEP
 NULL.                                       -999.2500:     NULL VALUE
 COMP.                        THE SUPERIOR OIL COMPANY:     COMPANY
 WELL.                                FORTUNE STATE #1:     WELL
 FLD .                                    CHAPMAN DEEP:     FIELD
 LOC .                                                :     LOCATION
 CNTY.                                          REEVES:     COUNTY
 STAT.                                              TX:     STATE
 CTRY.                                             USA:     COUNTRY
 SRVC.                                    SCHLUMBERGER:     SERVICE COMPANY
 DATE.                                      11/10/1974:     DATE
 API .               42389302950000:    API NUMBER
 UWI .               42389302950000:    UWI NUMBER
 TVD .                                              NO:     TVD flag
 MATRIX .G/CC                  :    Matrix Density
#
~Curve Information Block
#MNEM.UNIT       API CODE      Curve Description
#----------    -------------   -------------------
 DEPT.FT                   :   Depth in Feet
 CALI.IN       70 280 01 01:   Caliper
 GR  .API      35 310 01 01:   Gamma Ray
 DT  .US/F     60 520 08 01:   Sonic transit time
#
~Parameter Information Block
#MNEM.UNIT            Value               Description
#----------    --------------------    -------------------
 RUN .                         ONE:    Run Number
 PDAT.                          GL:    Permanent Datum
 EPD .FT                  000.0000:    Elevation Of Perm. Datum
 LMF .               KELLY BUSHING:    Log Measured From
 EKB .FT                  3065.0:    Elevation Of Kelly Bushing
 DF .FT                    000.0:    Elevation Of Derrick Floor
 GL .FT                   3034.0:    Elevation Of Ground Level
 TD .FT                  15710.0000:    Total Depth
 BHT .DEGF               260.00 :  Bottom Hole Temperature
 BLI .FT               15710.0000:   Bottom Log Interval
 CSGSIZE.IN              9.6250:   Casing Size
 BITSIZE.IN               8.750 :  BitSize
 CSGD.FT                  4000.0:    Casing Bottom (Driller) 1
 CSGL.FT                  400.0:    Casing Bottom (Logger) 1
 MUD . BRINE                                :    Drilling Fluid Type
 MUDV .CP                  27.0:    Drilling Fluid Viscosity
 MUDD .LB/USG              9.25:    Drilling Fluid Density
 PH.                        6.2:    Drilling Fluid Ph
 FL .ML/30MIN              11.0:    Drilling Fluid Loss
 MUDS .FLOW LINE                        :    Mud Sample Source
 RM .OHMM                   0.09:    Resistivity Of Mud Sample
 RMT .DEGF                 60.00:    Mud Sample Temperature
 RMF .OHMM                  0.09:    Mud Filtrate Resistivity
 RMFT.DEGF                 60.00:    Mud Filtrate Sample Temperature
 RMC .OHMM                  0.00:    Mud Cake Resistivity
 RMCT.DEGF                 00.00:    Mud Cake Sample Temperature
 RMB .OHMM                 0.027:    Mud Resistivity At Bht
 TMAX .DEGF               260.00:    Bottom Hole Temperature
#
~Other Information Block
<DescLogPlotStart>   NEURALOG PLOT DEFINITION
PLOTDEFVERSION: 3
LASFILE: D:\nds\projects\G\DAVE\new work\RS Energy - Texas - May 17 - Folder 2\
DEPTHSCALE: 240.000000
RESOLUTION: 400
DEPTHLABELFREQ: 100.000000
HEAVYGRIDFREQ: 100.000000
MEDIUMGRIDFREQ: 50.000000
LIGHTGRIDFREQ: 10.000000
#
#   TRACK 1
#
STARTTRACK: 
 LEFTX: 0.500000 inch
 RIGHTX: 3.000000 inch
 SCALETYPE: Linear
 NUMCHARTDIVISIONS: 10
CURVE: CALI  6.000000   16.000000  (0,0,255)      Solid             2     N    
CURVE: GR    0.000000   125.000000 (0,131,131)    Dot               2     Y    
BACKUP: 125.000000 250.000000 (0,131,131)    Dot               2    
ENDTRACK: 
#
#   TRACK 2
#
STARTTRACK: 
 LEFTX: 3.500000 inch
 RIGHTX: 8.500000 inch
 SCALETYPE: Linear
 NUMCHARTDIVISIONS: 10
CURVE: DT    100.000000 40.000000  (255,0,255)    Solid             2     Y    
BACKUP: 160.000000 100.000000 (255,0,255)    Solid             2    
ENDTRACK: 
<DescLogPlotEnd>
~A DEPTH     CALI             GR               DT              
# ...
   15625.000 6.461            131.742          51.095          
   15625.500 6.468            131.075          49.557          
   15626.000 6.474            132.010          49.842          
   15626.500 6.480            132.276          50.376          
   15627.000 6.487            130.931          50.911          
   15627.500 6.487            130.005          50.692          
   15628.000 6.482            131.196          48.993          
   15628.500 6.476            132.364          47.295          
   15629.000 6.470            132.165          47.166          
   15629.500 6.465            131.481          47.674          
   15630.000 6.459            130.797          50.131          
   15630.500 6.452            131.190          53.178          
   15631.000 6.486            132.188          56.225          
   15631.500 6.527            132.816          59.636          
   15632.000 6.557            133.090          57.626          
   15632.500 6.536            133.370          55.342          
   15633.000 6.516            132.584          53.059          
   15633.500 6.496            131.537          52.160          
   15634.000 6.475            133.121          51.472          
   15634.500 6.455            135.499          50.785          
   15635.000 6.435            138.912          50.094          
   15635.500 6.429            144.185          49.619          
   15636.000 6.460            150.773          51.816          
   15636.500 6.491            148.070          53.638          
   15637.000 6.522            144.243          56.123          
   15637.500 6.553            140.414          57.257          
   15638.000 6.601            138.408          57.782          
   15638.500 6.745            139.794          56.109          
   15639.000 6.892            141.196          56.586          
   15639.500 6.768            142.614          58.171          
   15640.000 6.860            141.242          60.055          
   15640.500 6.790            139.760          57.961          
   15641.000 6.801            139.905          59.559          
   15641.500 6.867            140.619          60.570          
   15642.000 6.884            143.213          57.752          
   15642.500 6.799            144.222          58.304          
   15643.000 6.874            143.808          59.546          
   15643.500 7.221            143.398          57.034          
   15644.000 7.033            142.986          67.742          
   15644.500 6.764            142.609          58.726          
   15645.000 6.807            143.822          57.453          
   15645.500 6.921            143.170          59.981          
   15646.000 6.588            145.601          56.155          
   15646.500 6.501            148.825          53.863          
   15647.000 6.478            152.120          54.158          
   15647.500 6.454            151.704          51.656          
   15648.000 6.430            150.754          48.772          
   15648.500 6.409            149.780          46.432          
   15649.000 6.405            146.993          45.872          
   15649.500 6.400            144.081          46.566          
   15650.000 6.395            140.886          46.956          
   15650.500 6.391            143.186          46.596          
   15651.000 6.386            148.400          46.236          
   15651.500 6.382            154.095          45.876          
   15652.000 6.377            145.771          45.516          
   15652.500 6.390            138.445          45.420          
   15653.000 6.402            136.475          45.579          
   15653.500 6.414            139.753          45.738          
   15654.000 6.427            142.663          45.897          
   15654.500 6.424            146.621          45.795          
   15655.000 6.416            151.235          45.625          
   15655.500 6.408            155.270          45.455          
   15656.000 6.399            153.452          45.285          
   15656.500 6.391            151.698          45.115          
   15657.000 6.383            149.942          44.944          
   15657.500 6.374            152.795          44.774          
   15658.000 6.366            158.594          44.604          
   15658.500 6.362            164.389          44.434          
   15659.000 6.370            168.359          44.264          
   15659.500 6.377            170.546          44.216          
   15660.000 6.384            173.306          45.145          
   15660.500 6.392            179.291          45.939          
   15661.000 6.399            186.712          46.365          
   15661.500 6.406            194.148          46.084          
   15662.000 6.413            201.613          45.547          
   15662.500 6.421            205.508          45.009          
   15663.000 6.428            190.984          45.881          
   15663.500 6.435            180.698          46.099          
   15664.000 6.443            171.708          46.317          
   15664.500 6.450            163.532          46.732          
   15665.000 6.450            155.350          47.310          
   15665.500 6.451            150.987          47.241          
   15666.000 6.451            148.956          47.292          
   15666.500 6.451            149.072          47.273          
   15667.000 6.452            149.789          46.712          
   15667.500 6.452            150.505          46.849          
   15668.000 6.452            151.224          47.115          
   15668.500 6.452            150.668          47.049          
   15669.000 6.453            148.551          47.202          
   15669.500 6.453            149.575          47.451          
   15670.000 6.453            146.779          47.700          
   15670.500 6.454            142.388          47.949          
   15671.000 6.454            137.991          47.618          
   15671.500 6.454            135.995          47.134          
   15672.000 6.454            137.820          46.650          
   15672.500 6.455            139.649          46.167          
   15673.000 6.455            141.728          45.731          
   15673.500 6.455            144.342          45.562          
   15674.000 6.456            146.970          45.392          
   15674.500 6.456            148.263          45.232          
   15675.000 6.456            148.226          45.439          
   15675.500 6.456            148.197          45.286          
   15676.000 6.457            148.169          45.006          
   15676.500 6.457            148.141          44.725          
   15677.000 6.457            148.141          44.839          
   15677.500 6.458            148.141          45.315          
   15678.000 6.458            148.141          45.790          
   15678.500 6.458            148.141          45.169          
   15679.000 6.459            148.141          45.536          
   15679.500 6.459            148.141          46.263          
   15680.000 6.459            148.141          46.939          
   15680.500 6.459            148.141          46.289          
   15681.000 6.460            148.141          45.731          
   15681.500 6.460            148.141          47.343          
   15682.000 6.441            148.141          45.736          
   15682.500 6.412            148.141          44.716          
   15683.000 6.391            148.141          44.130          
   15683.500 6.391            148.141          44.237          
   15684.000 6.392            148.141          44.556          
   15684.500 6.393            148.141          44.875          
   15685.000 6.393            148.141          44.952          
   15685.500 6.394            148.141          44.357          
   15686.000 6.395            148.141          44.555          
   15686.500 6.396            148.141          44.775          
   15687.000 6.397            148.141          44.493          
