#--------------------------------------------------#
#-------------------ENVERUS, INC.------------------#
#------------------WWW.ENVERUS.COM-----------------#
#------------------COPYRIGHT 2020------------------#
#--------------------------------------------------#
#THIS FILE MAY BE USED ONLY IN ACCORDANCE WITH A CURRENT SUBSCRIPTION AGREEMENT BETWEEN
#THE USER AND ENVERUS, INC. NO PART OF THIS FILE MAY BE REPRODUCED, USED, COPIED,
#MODIFIED, PROPAGATED, OR DISTRIBUTED EXCEPT IN ACCORDANCE WITH THE SUBSCRIPTION
#AGREEMENT. UNAUTHORIZED USE OR DISTRIBUTION OF ALL OR ANY PART OF THIS FILE MAY VIOLATE
#COPYRIGHT, TRADEMARK, AND/OR OTHER LAWS AND IS SUBJECT TO CIVIL AS WELL AS CRIMINAL
#SANCTIONS.
#--------------------------------------------------#
#THIS FILE IS PROVIDED "AS-IS" AND ALL WARRANTIES ARE EXPRESSLY DISCLAIMED, WHETHER
#EXPRESS, ORAL, IMPLIED, STATUTORY OR OTHERWISE, INCLUDING ANY IMPLIED WARRANTY OF FITNESS
#FOR A PARTICULAR PURPOSE, MERCHANTABILITY, TITLE OR NON-INFRINGEMENT, AND ANY WARRANTIES
#ARISING BY VIRTUE OF CUSTOM OF TRADE OR COURSE OF DEALING.  FURTHER, ENVERUS, INC.
#AND ITS LICENSORS DO NOT REPRESENT OR WARRANT THAT THIS FILE WILL MEET USER'S
#REQUIREMENTS OR ARE SUITABLE FOR USER'S NEEDS OR THAT THE DATA OR RESULTS PROVIDED IN
#CONJUNCTION THEREWITH ARE CORRECT, ACCURATE, TIMELY OR RELIABLE. THESE DISCLAIMERS SHALL
#APPLY REGARDLESS OF ANY FAILURE OF ESSENTIAL PURPOSE OF ANY LIMITED REMEDY.  SOME
#JURISDICTIONS DO NOT ALLOW THE EXCLUSION OF CERTAIN WARRANTIES SO SOME OF THE ABOVE
#EXCLUSIONS MAY NOT APPLY. IN NO EVENT SHALL ENVERUS, INC. OR ANY OF ITS AFFILIATES
#BE LIABLE UNDER ANY LEGAL THEORY, WHETHER IN TORT (INCLUDING WITHOUT LIMITATION
#NEGLIGENCE), CONTRACT, STRICT LIABILITY, STATUTORY OR OTHERWISE, FOR ANY SPECIAL,
#INCIDENTAL, CONSEQUENTIAL, EXEMPLARY, PUNITIVE OR INDIRECT DAMAGE OF ANY KIND, INCLUDING
#WITHOUT LIMITATION LOSS OF REVENUE, PROFITS, GOODWILL, USE, AND/OR DATA OR THE COST OF
#PROCUREMENT OF SUBSTITUTE GOODS OR SERVICES, EVEN IF APPRISED OF THE POSSIBILITY OF SUCH
#DAMAGES IN ADVANCE.
#--------------------------------------------------#

~VERSION INFORMATION
VERS. 2.0 : CWLS LOG ASCII STANDARD - VERSION 2.0
WRAP.  NO : ONE LINE PER DEPTH STEP
~WELL INFORMATION
#MNEMONIC     .UNIT              VALUE :DESCRIPTION
STRT       .FT                47 :START DEPTH
STOP       .FT                15730 :STOP DEPTH
STEP       .FT                   0.500 :STEP
NULL       .                  -999.250 :NULL
UWI        .              42389303580000 :UNIQUE WELL ID
API        .              42389303580000 :API NUMBER
COMP       .         CIMAREX ENERGY CO. OF COLORADO :COMPANY
WELL       .        REEVES  AZ  FEE  1 :WELL
DATE       .                08-JAN-2006 :LOG DATE
~CURVE INFORMATION
#MNEMONIC     .UNIT      API CODE :CURVE DESCRIPTION
DEPTH       .FT                      :MEASURED DEPTH
NEUT.API        UNKNOWN   :NEUT
GR.API        UNKNOWN   :GR
DT.US/FT        UNKNOWN   :DT
CAL.INCH        UNKNOWN   :CAL
~A    DEPTH    NEUT    GR    DT    CAL
# ...
 14322     408.637   72.76   -999.250   -999.250
 14322.5     414.002   72.705   -999.250   -999.250
 14323     419.367   69.34   -999.250   -999.250
 14323.5     424.732   66.443   -999.250   -999.250
 14324     430.097   63.547   -999.250   -999.250
 14324.5     435.462   60.651   -999.250   -999.250
 14325     440.827   59.217   -999.250   -999.250
 14325.5     450.363   59.875   -999.250   -999.250
 14326     465.199   60.533   -999.250   -999.250
 14326.5     480.036   61.192   -999.250   -999.250
 14327     494.873   61.389   -999.250   -999.250
 14327.5     509.709   59.679   -999.250   -999.250
 14328     524.546   55.363   -999.250   -999.250
 14328.5     517.769   53.89   -999.250   -999.250
 14329     492.201   52.894   -999.250   -999.250
 14329.5     466.632   51.548   -999.250   -999.250
 14330     453.699   46.359   -999.250   -999.250
 14330.5     449.32   42.357   -999.250   -999.250
 14331     444.941   42.001   -999.250   -999.250
 14331.5     440.561   41.645   -999.250   -999.250
 14332     436.182   43.279   -999.250   -999.250
 14332.5     431.803   47.408   -999.250   -999.250
 14333     427.423   51.538   -999.250   -999.250
 14333.5     423.83   54.705   -999.250   -999.250
 14334     421.229   51.157   -999.250   -999.250
 14334.5     418.627   48.474   -999.250   -999.250
 14335     416.026   48.047   -999.250   -999.250
 14335.5     416.508   48.204   -999.250   -999.250
 14336     418.627   49.204   -999.250   -999.250
 14336.5     425.329   50.204   -999.250   -999.250
 14337     432.181   51.203   -999.250   -999.250
 14337.5     439.034   52.203   -999.250   -999.250
 14338     445.886   53.648   -999.250   -999.250
 14338.5     452.739   56.435   -999.250   -999.250
 14339     452.539   59.223   -999.250   -999.250
 14339.5     445.014   62.01   -999.250   -999.250
 14340     437.488   62.615   -999.250   -999.250
 14340.5     429.962   60.797   -999.250   -999.250
 14341     422.437   58.979   -999.250   -999.250
 14341.5     415.224   57.161   -999.250   -999.250
 14342     422.766   57.734   -999.250   -999.250
 14342.5     430.308   59.078   -999.250   -999.250
 14343     437.85   60.423   -999.250   -999.250
 14343.5     443.425   61.767   -999.250   -999.250
 14344     442.359   63.111   -999.250   -999.250
 14344.5     441.292   62.908   -999.250   -999.250
 14345     438.53   61.627   -999.250   -999.250
 14345.5     435.049   60.345   -999.250   -999.250
 14346     431.568   61.161   -999.250   -999.250
 14346.5     428.087   62.513   -999.250   -999.250
 14347     424.88   62.954   -999.250   -999.250
 14347.5     425.21   62.271   -999.250   -999.250
 14348     425.541   61.765   -999.250   -999.250
 14348.5     425.872   62.611   -999.250   -999.250
 14349     426.203   61.695   -999.250   -999.250
 14349.5     426.533   60.056   -999.250   -999.250
 14350     426.864   58.417   -999.250   -999.250
 14350.5     427.195   58.511   -999.250   -999.250
 14351     427.787   58.758   -999.250   -999.250
 14351.5     431.793   59.004   -999.250   -999.250
 14352     435.799   59.25   -999.250   -999.250
 14352.5     439.805   59.497   -999.250   -999.250
 14353     442.329   58.886   -999.250   -999.250
 14353.5     441.051   56.313   -999.250   -999.250
 14354     440.896   55.222   -999.250   -999.250
 14354.5     446.047   55.941   -999.250   -999.250
 14355     451.197   56.66   -999.250   -999.250
 14355.5     454.795   57.379   -999.250   -999.250
 14356     453.064   58.098   -999.250   -999.250
 14356.5     451.333   58.171   -999.250   -999.250
 14357     449.603   58.042   -999.250   -999.250
 14357.5     447.872   57.913   -999.250   -999.250
 14358     446.141   57.784   -999.250   -999.250
 14358.5     444.411   57.806   -999.250   -999.250
 14359     443.926   59.354   -999.250   -999.250
 14359.5     444.739   61.989   -999.250   -999.250
 14360     445.551   65.139   -999.250   -999.250
 14360.5     446.363   68.288   -999.250   -999.250
 14361     447.175   71.437   -999.250   -999.250
 14361.5     448.117   64.714   -999.250   -999.250
 14362     457.306   64.789   -999.250   -999.250
 14362.5     466.495   64.97   -999.250   -999.250
 14363     475.684   65.151   -999.250   -999.250
 14363.5     485.814   64.528   -999.250   -999.250
 14364     499.239   63.579   -999.250   -999.250
 14364.5     512.665   62.63   -999.250   -999.250
 14365     526.091   61.682   -999.250   -999.250
 14365.5     539.517   59.801   -999.250   -999.250
 14366     549.233   57.055   -999.250   -999.250
 14366.5     539.659   54.893   -999.250   -999.250
 14367     530.086   55.033   -999.250   -999.250
 14367.5     522.098   55.173   -999.250   -999.250
 14368     510.189   54.976   -999.250   -999.250
 14368.5     506.711   54.265   -999.250   -999.250
 14369     511.306   55.597   -999.250   -999.250
 14369.5     515.779   56.934   -999.250   -999.250
 14370     503.651   57.161   -999.250   -999.250
 14370.5     491.524   52.259   -999.250   -999.250
 14371     479.397   50.423   -999.250   -999.250
 14371.5     467.269   53.153   -999.250   -999.250
 14372     465.841   56.457   -999.250   -999.250
 14372.5     467.05   59.761   -999.250   -999.250
 14373     468.258   62.834   -999.250   -999.250
 14373.5     444.29   63.327   -999.250   -999.250
 14374     444.71   63.82   -999.250   -999.250
 14374.5     445.13   62.924   -999.250   -999.250
 14375     445.55   58.315   -999.250   -999.250
 14375.5     445.97   53.706   -999.250   -999.250
 14376     446.39   52.639   -999.250   -999.250
 14376.5     446.81   54.931   -999.250   -999.250
 14377     445.45   57.224   -999.250   -999.250
 14377.5     443.321   59.516   -999.250   -999.250
 14378     441.192   60.396   -999.250   -999.250
 14378.5     440.667   57.45   -999.250   -999.250
 14379     443.392   54.504   -999.250   -999.250
 14379.5     446.117   51.695   -999.250   -999.250
 14380     445.132   53.067   -999.250   -999.250
 14380.5     438.143   53.938   -999.250   -999.250
 14381     431.155   52.011   -999.250   -999.250
 14381.5     426.056   51.602   -999.250   -999.250
 14382     423.395   54.819   -999.250   -999.250
 14382.5     420.735   58.036   -999.250   -999.250
 14383     418.544   60.785   -999.250   -999.250
 14383.5     422.673   62.975   -999.250   -999.250
 14384     426.802   65.015   -999.250   -999.250
 14384.5     430.932   65.692   -999.250   -999.250
 14385     435.061   66.368   -999.250   -999.250
 14385.5     439.19   66.212   -999.250   -999.250
 14386     443.32   65.785   -999.250   -999.250
 14386.5     447.449   62.293   -999.250   -999.250
 14387     451.368   62.364   -999.250   -999.250
 14387.5     452.274   62.468   -999.250   -999.250
 14388     453.179   61.543   -999.250   -999.250
 14388.5     453.718   60.618   -999.250   -999.250
 14389     451.5   58.941   -999.250   -999.250
 14389.5     449.282   55.497   -999.250   -999.250
 14390     447.064   55.143   -999.250   -999.250
 14390.5     444.846   55.08   -999.250   -999.250
 14391     442.629   55.018   -999.250   -999.250
 14391.5     440.411   52.646   -999.250   -999.250
 14392     438.193   48.984   -999.250   -999.250
 14392.5     435.975   49.473   -999.250   -999.250
 14393     433.757   51.02   -999.250   -999.250
 14393.5     431.62   52.567   -999.250   -999.250
 14394     435.154   54.115   -999.250   -999.250
 14394.5     438.687   55.385   -999.250   -999.250
 14395     442.221   56.442   -999.250   -999.250
 14395.5     444.664   58.333   -999.250   -999.250
 14396     443.307   60.606   -999.250   -999.250
 14396.5     441.951   61.572   -999.250   -999.250
 14397     440.594   59.86   -999.250   -999.250
 14397.5     439.237   58.148   -999.250   -999.250
 14398     437.134   57.819   -999.250   -999.250
 14398.5     434.514   58.665   -999.250   -999.250
 14399     431.894   58.069   -999.250   -999.250
 14399.5     429.275   57.301   -999.250   -999.250
 14400     426.655   58.568   -999.250   -999.250
 14400.5     424.565   59.836   -999.250   -999.250
