###############################################
##         ENVERUS                           ##
##         ESS - Open Hole                   ##
##         PERMIAN / DELAWARE                ##
##         Nov 04 2023  V4.0                 ##
##         42-389-30297-00-00                ##
###############################################
## Copyright 2017-2023  ENVERUS.  All Rights Reserved. 
## Confidential - Property of ENVERUS, use governed by terms and 
## conditions found within the existing Information Services Subscription Agreement 
## (as may be amended, the “ISSA”) between Customer and ENVERUS. 
## 
~VERSION INFORMATION
# MNEM.UNIT                               DATA : DESCRIPTION OF MNEMONIC
#-----.-----     ----------------------------- : -----------------------------
VERS.                                     2.00 : CWLS LOG ASCII STANDARD - VERSION 2.00
WRAP.                                       NO : MULTIPLE LINES PER DEPTH STEP
VEND.                                  ENVERUS : VENDOR
TYPE.                          ESS - OPEN HOLE : ENVERUS ESSENTIAL CURVES – ACCESSIBLE THROUGH ENVERUS PRISM(TM)
DOC.                                  32306493 : ENVERUS HEADER RAW DOCUMENT ID
#___________________________________________________________________________________________________ 
~WELL INFORMATION 
# rQStLE5sYsP+YdYw4QOWpp6z6mWwFJBvCxgTqRv2Ioz+qyoYLl+79qTOna8BSHgUk5jTgp49hkgrAQ1kFKyHCg== 
# MNEM.UNIT                                              DATA : DESCRIPTION OF MNEMONIC 
#-----.-----                    ----------------------------- : ----------------------------- 
CNTY.                                                  REEVES : COUNTY 
STATE.                                                  TEXAS : STATE 
CNTRY.                                                    USA : COUNTRY 
API.                                             42-389-30297 : API (10 Digit) 
API_14.                                    42-389-30297-00-00 : API (14 Digits) 
API_14_std.                                 42-389-30297-0000 : API (14 Digits Standard) 
UWI.                                           42389302970000 : UNIQUE WELL ID 
WELL.                              R.S. BRENNAND, JR. ET AL 1 : WELL NAME
STRT.FT                                                   3.0 : START DEPTH
STOP.FT                                               13007.0 : STOP DEPTH
STEP.FT                                                   0.5 : STEP BETWEEN DEPTHS
NULL.                                                 -999.25 : NULL VALUE
#___________________________________________________________________________________________________ 
~CURVE INFORMATION 
# MNEM.UNIT           : CURVE DESCRIPTION 
#-----.-----          : ----------------------------- 
 DEPT.FT               : MEASURED DEPTH 
 CALI.IN               : CALIPER (CAL - CAL) 
 GR.API                : GAMMA RAY (GR) 
 DT.US/FT              : SONIC DELTA TRANSIT TIME (DT) 
 NPHI.V/V              : NEUTRON POROSITY (NPHI) 
 RHOB.G/CC             : BULK DENSITY (RHOB) 
 #___________________________________________________________________________________________________ 
~A         DEPT           CALI             GR             DT           NPHI           RHOB
# ...
         4931.0         10.200        112.740         65.297     -999.25000         2.5849
         4931.5         10.200        119.859         65.623     -999.25000         2.5941
         4932.0         10.200         69.473         65.176     -999.25000         2.5914
         4932.5         10.200         55.391         64.219     -999.25000         2.5822
         4933.0         10.199         56.467         63.263     -999.25000         2.5730
         4933.5         10.199         57.543         62.314     -999.25000         2.5675
         4934.0         10.199         58.620         61.506     -999.25000         2.5764
         4934.5         10.199         59.696         62.565     -999.25000         2.5853
         4935.0         10.199         60.819         63.325     -999.25000         2.5811
         4935.5         10.198         62.960         64.085     -999.25000         2.5670
         4936.0         10.198         65.101         64.846     -999.25000         2.5529
         4936.5         10.198         67.242         65.554     -999.25000         2.5389
         4937.0         10.198         67.762         65.213     -999.25000         2.5248
         4937.5         10.198         63.961         64.873     -999.25000         2.5108
         4938.0         10.198         60.159         64.543     -999.25000         2.4967
         4938.5         10.197         59.887         64.798     -999.25000         2.4956
         4939.0         10.197         61.594         65.054     -999.25000         2.5028
         4939.5         10.197         63.301         65.309     -999.25000         2.5099
         4940.0         10.197         65.008         65.565     -999.25000         2.5171
         4940.5         10.197         66.715         64.015     -999.25000         2.5243
         4941.0         10.197         68.422         62.658     -999.25000         2.5314
         4941.5         10.196         64.552         63.580     -999.25000         2.5386
         4942.0         10.196         60.476         64.503     -999.25000         2.5457
         4942.5         10.196         63.038         65.426     -999.25000         2.5529
         4943.0         10.196         65.703         65.902     -999.25000         2.5528
         4943.5         10.196         68.368         66.367     -999.25000         2.5398
         4944.0         10.196         71.034         66.832     -999.25000         2.5267
         4944.5         10.195         73.699         65.591     -999.25000         2.5137
         4945.0         10.195         76.364         64.302     -999.25000         2.5007
         4945.5         10.195         79.029         63.014     -999.25000         2.5014
         4946.0         10.195         78.870         61.726     -999.25000         2.5163
         4946.5         10.195         75.547         60.438     -999.25000         2.5312
         4947.0         10.194         72.224         61.127     -999.25000         2.5461
         4947.5         10.194         74.810         62.226     -999.25000         2.5610
         4948.0         10.194         78.446         63.325     -999.25000         2.5759
         4948.5         10.194         75.692         64.424     -999.25000         2.5749
         4949.0         10.194         72.835         65.084     -999.25000         2.5657
         4949.5         10.194         76.047         65.084     -999.25000         2.5564
         4950.0         10.193         79.259         65.084     -999.25000         2.5471
         4950.5         10.193         79.113         65.084     -999.25000         2.5379
         4951.0         10.193         75.992         65.027     -999.25000         2.5306
         4951.5         10.193         76.391         64.878     -999.25000         2.5343
         4952.0         10.193         79.497         64.729     -999.25000         2.5380
         4952.5         10.193         82.603         64.580     -999.25000         2.5417
         4953.0         10.192         85.710         64.430     -999.25000         2.5454
         4953.5         10.192         85.614         64.281     -999.25000         2.5491
         4954.0         10.192         84.825         64.132     -999.25000         2.5528
         4954.5         10.192         84.037         63.983     -999.25000         2.5565
         4955.0         10.192         83.248         63.833     -999.25000         2.5602
         4955.5         10.192         85.564         63.684     -999.25000         2.5639
         4956.0         10.191         94.391         63.535     -999.25000         2.5676
         4956.5         10.191        103.218         64.279     -999.25000         2.5714
         4957.0         10.191        112.045         65.246     -999.25000         2.5751
         4957.5         10.191        120.872         66.214     -999.25000         2.5740
         4958.0         10.191        160.512         67.182     -999.25000         2.5680
         4958.5         10.190        153.928         68.149     -999.25000         2.5619
         4959.0         10.190        147.344         69.117     -999.25000         2.5559
         4959.5         10.190        140.760         66.939     -999.25000         2.5579
         4960.0         10.190        134.176         60.172     -999.25000         2.5729
         4960.5         10.190        127.592         59.098     -999.25000         2.5878
         4961.0         10.190         81.541         58.469     -999.25000         2.6027
         4961.5         10.189         71.530         59.785     -999.25000         2.6077
         4962.0         10.189         64.063         60.761     -999.25000         2.6028
         4962.5         10.189         60.268         60.400     -999.25000         2.5979
         4963.0         10.189         56.474         60.039     -999.25000         2.5929
         4963.5         10.189         58.148         59.678     -999.25000         2.5880
         4964.0         10.189         61.434         59.318     -999.25000         2.5884
         4964.5         10.188         60.303         59.636     -999.25000         2.5906
         4965.0         10.188         58.709         60.305     -999.25000         2.5929
         4965.5         10.188         57.115         60.973     -999.25000         2.5952
         4966.0         10.188         57.229         61.642     -999.25000         2.5975
         4966.5         10.188         58.198         61.530     -999.25000         2.5997
         4967.0         10.188         59.166         61.026     -999.25000         2.6023
         4967.5         10.187         60.134         60.646     -999.25000         2.6102
         4968.0         10.187         61.103         61.051     -999.25000         2.6182
         4968.5         10.187         62.071         61.596     -999.25000         2.6261
         4969.0         10.187         63.248         62.221     -999.25000         2.6143
         4969.5         10.187         64.858         62.847     -999.25000         2.5958
         4970.0         10.186         66.467         63.442     -999.25000         2.5772
         4970.5         10.186         68.077         63.857     -999.25000         2.5769
         4971.0         10.186         69.686         64.272     -999.25000         2.5782
         4971.5         10.186         76.521         64.687     -999.25000         2.5795
         4972.0         10.186         83.873         65.101     -999.25000         2.5808
         4972.5         10.186         91.224         65.516     -999.25000         2.5821
         4973.0         10.185         98.576         65.837     -999.25000         2.5894
         4973.5         10.185        105.119         65.575     -999.25000         2.6013
         4974.0         10.185        102.158         65.312     -999.25000         2.6015
         4974.5         10.185         99.197         65.049     -999.25000         2.5936
