#--------------------------------------------------#
#-------------------ENVERUS, INC.------------------#
#------------------WWW.ENVERUS.COM-----------------#
#------------------COPYRIGHT 2020------------------#
#--------------------------------------------------#
#THIS FILE MAY BE USED ONLY IN ACCORDANCE WITH A CURRENT SUBSCRIPTION AGREEMENT BETWEEN
#THE USER AND ENVERUS, INC. NO PART OF THIS FILE MAY BE REPRODUCED, USED, COPIED,
#MODIFIED, PROPAGATED, OR DISTRIBUTED EXCEPT IN ACCORDANCE WITH THE SUBSCRIPTION
#AGREEMENT. UNAUTHORIZED USE OR DISTRIBUTION OF ALL OR ANY PART OF THIS FILE MAY VIOLATE
#COPYRIGHT, TRADEMARK, AND/OR OTHER LAWS AND IS SUBJECT TO CIVIL AS WELL AS CRIMINAL
#SANCTIONS.
#--------------------------------------------------#
#THIS FILE IS PROVIDED "AS-IS" AND ALL WARRANTIES ARE EXPRESSLY DISCLAIMED, WHETHER
#EXPRESS, ORAL, IMPLIED, STATUTORY OR OTHERWISE, INCLUDING ANY IMPLIED WARRANTY OF FITNESS
#FOR A PARTICULAR PURPOSE, MERCHANTABILITY, TITLE OR NON-INFRINGEMENT, AND ANY WARRANTIES
#ARISING BY VIRTUE OF CUSTOM OF TRADE OR COURSE OF DEALING.  FURTHER, ENVERUS, INC.
#AND ITS LICENSORS DO NOT REPRESENT OR WARRANT THAT THIS FILE WILL MEET USER'S
#REQUIREMENTS OR ARE SUITABLE FOR USER'S NEEDS OR THAT THE DATA OR RESULTS PROVIDED IN
#CONJUNCTION THEREWITH ARE CORRECT, ACCURATE, TIMELY OR RELIABLE. THESE DISCLAIMERS SHALL
#APPLY REGARDLESS OF ANY FAILURE OF ESSENTIAL PURPOSE OF ANY LIMITED REMEDY.  SOME
#JURISDICTIONS DO NOT ALLOW THE EXCLUSION OF CERTAIN WARRANTIES SO SOME OF THE ABOVE
#EXCLUSIONS MAY NOT APPLY. IN NO EVENT SHALL ENVERUS, INC. OR ANY OF ITS AFFILIATES
#BE LIABLE UNDER ANY LEGAL THEORY, WHETHER IN TORT (INCLUDING WITHOUT LIMITATION
#NEGLIGENCE), CONTRACT, STRICT LIABILITY, STATUTORY OR OTHERWISE, FOR ANY SPECIAL,
#INCIDENTAL, CONSEQUENTIAL, EXEMPLARY, PUNITIVE OR INDIRECT DAMAGE OF ANY KIND, INCLUDING
#WITHOUT LIMITATION LOSS OF REVENUE, PROFITS, GOODWILL, USE, AND/OR DATA OR THE COST OF
#PROCUREMENT OF SUBSTITUTE GOODS OR SERVICES, EVEN IF APPRISED OF THE POSSIBILITY OF SUCH
#DAMAGES IN ADVANCE.
#--------------------------------------------------#

# EXPORTED FROM DI TRANSFORM
# DI TRANSFORM - A PRODUCT OF DRILLINGINFO, INC. - WWW.DRILLINGINFO.COM
#
~VERSION INFORMATION
 VERS.        2.0 : LAS ASCII STANDARD - VERSION 2.0
 WRAP.         NO : ONE LINE PER DEPTH STEP

~WELL INFORMATION
#MNEM.UNIT       DATA TYPE       INFORMATION
#---------       ---------       -----------
 STRT.FT                3800 : START DEPTH
 STOP.FT               10654 : STOP DEPTH
 STEP.FT                 0.5 : STEP LENGTH
 NULL.               -999.25 : NULL VALUE
 UWI.         42389340250000 : UNIQUE WELL ID
 API.         42389340250000 : WELL IDENTIFIER
 COMP.                       : COMPANY
 WELL.  42389340250000_API14 : WELL NAME
 FLD.                        : FIELD NAME
 LOC.                        : WELL LOCATION
 CNTY.                       : COUNTY
 STAT.                       : STATE OR PROVINCE
 CTRY.                       : COUNTRY
 SRVC.                       : SERVICE COMPANY
 DATE.                       : DATE

~CURVE INFORMATION
#MNEM.UNIT       API CODE       CURVE DESCRIPTION
#---------       --------       -----------------
 DEPT.FT        : <MEASURED DEPTH>
 CAL.IN         : CALIPER
 DT.US/FT       : SONIC
 GR.GAPI        : GAMMA RAY

~PARAMETER INFORMATION
#MNEM.UNIT       VALUE       DESCRIPTION
#---------       -----       -----------
 EKB.FT      3120.5 : ELEVATION ABOVE MSL

~A      DEPT         CAL          DT          GR
# ...
        4702      9.5729     70.2909    139.4257
      4702.5      9.5729     70.3227    134.8688
        4703      9.5729     70.5918    130.3119
      4703.5      9.5756     70.6921    125.7549
        4704      9.5967     70.2416     121.198
      4704.5      9.6327     69.4138    116.6411
        4705      9.6327     67.1388    112.0841
      4705.5      9.6327     65.7107    107.5272
        4706      9.6327     65.4318     98.4819
      4706.5      9.6327     64.2728     87.3847
        4707      9.6327     64.2728     81.2539
      4707.5      9.6447      64.463     75.1232
        4708      9.6858     65.0659     68.9925
      4708.5      9.7325      65.277     62.8617
        4709      9.7325     65.7843      56.731
      4709.5      9.7325     66.5925     54.4247
        4710      9.7325     67.4007     52.2657
      4710.5      9.7325      67.683     50.1067
        4711      9.7725     67.7834     54.1516
      4711.5      9.7725     67.9196     59.7533
        4712      9.7725      67.984      65.355
      4712.5       9.729     67.8837     65.5754
        4713      9.7126     67.8837     62.7144
      4713.5      9.7126      67.984     59.8533
        4714      9.6926      67.984     56.9922
      4714.5      9.6727      67.984     54.1311
        4715      9.6727      67.984       51.27
      4715.5       9.703     68.1665     49.4904
        4716      9.7325     68.3852     48.7643
      4716.5      9.7325     68.3852     39.1151
        4717      9.7325     68.3852     26.1163
      4717.5      9.7325     68.5909     17.5403
        4718      9.7325     68.7864     32.7654
      4718.5      9.7325     68.7864     47.9905
        4719      9.7325     68.7864     63.2156
      4719.5      9.7325     68.7864     78.4407
        4720      9.7325      68.351     93.2386
      4720.5      9.7325      67.984      81.724
        4721      9.7325     67.8379     73.8502
      4721.5      9.7325     67.4824     77.7306
        4722      9.7325     66.9092     81.6109
      4722.5       9.726     66.5797     85.4912
        4723      9.7126     66.3416     89.3716
      4723.5      9.7126     65.4017     93.2519
        4724      9.6826     64.3322     97.1322
      4724.5      9.6727     63.1112     87.9079
        4725      9.6727     62.3835     77.3788
      4725.5      9.6392     62.0662     66.8497
        4726      9.6128     62.0662     62.3499
      4726.5      9.5928     61.6558     69.0236
        4727      9.5928     60.9479     75.6972
      4727.5      9.5928     60.4614     82.3708
        4728      9.5536     60.4614     89.0444
      4728.5      9.5529     60.3611     95.5502
        4729      9.5529      60.299     88.2842
      4729.5      9.5556     60.3171     81.0183
        4730      9.5729     59.8098     73.7523
      4730.5      9.5729     59.4028     66.4863
        4731      9.5729     58.8955     64.6189
      4731.5      9.5729     58.5557     66.3096
        4732      9.6212     58.8292     61.0814
      4732.5      9.6327     59.0572     57.8637
        4733       9.622     59.5429      59.316
      4733.5      9.6128     59.6689     61.1274
        4734      9.6128     60.3528     55.9389
      4734.5      9.6128     60.8626     54.5163
        4735      9.6128     61.7802     53.0936
      4735.5      9.6128     62.7816      51.671
        4736      9.6128      62.988     50.2483
      4736.5      9.6128     64.0207     67.0922
        4737      9.6327     65.1059     80.1203
      4737.5      9.6327     65.4764     77.3744
        4738      9.6926      65.677     74.6285
      4738.5      9.6926     65.9299     71.8826
        4739      9.7126     66.2324     69.1366
      4739.5      9.7126       66.68     66.3907
        4740      9.7126     66.5143     63.6448
      4740.5      9.6527     66.2788     65.8708
        4741      9.6527     65.9009     73.4115
      4741.5      9.6527     65.3108     80.9523
        4742      9.6527     64.6857     73.5394
      4742.5      9.6527     64.2728     64.7012
        4743      9.6389     64.5734      55.863
      4743.5      9.6128     65.0809     59.6651
        4744      9.6128      65.677     64.1722
      4744.5      9.6327      65.677     68.6793
        4745      9.6926     65.7773     73.1864
      4745.5      9.6926     65.5767     77.6935
        4746      9.7126     65.2758     79.5367
      4746.5      9.7107      65.216     71.5543
        4747      9.6527     65.8236     63.5719
      4747.5      9.6128     66.3309     56.7224
        4748      9.6128     66.8382     71.5046
      4748.5      9.6128     67.2452     89.3434
        4749      9.6128     67.4824    107.6656
      4749.5      9.6727     67.5827    125.9878
        4750      9.6727     67.4824    126.6276
      4750.5      9.7126     67.3821    119.6864
        4751       9.681     66.9886    112.7452
      4751.5      9.6792     65.8832    105.8039
        4752      9.6327     65.4725    100.4892
      4752.5      9.6327     65.4862    104.2237
        4753      9.6128     66.0782    107.9581
      4753.5      9.5928     66.2788    111.6926
        4754      9.5928     66.3791    103.0585
      4754.5      9.5928     66.3791     103.799
        4755      9.5928     66.3017    104.5394
      4755.5      9.5928     65.8776    105.2799
        4756      9.5928     65.3258    106.0203
      4756.5      9.5928     64.8627    106.7608
        4757      9.5928     63.9249    104.7463
      4757.5      9.5729      62.668     95.1434
        4758      9.5729     62.2936     85.5405
      4758.5      9.6128     61.4691     78.1971
        4759      9.6128     60.4614     73.1289
      4759.5      9.6128     60.3611     68.0607
        4760      9.6128     60.3611     66.9721
      4760.5      9.6469     60.0602     67.3541
        4761      9.6527     59.7513      67.736
      4761.5      9.6727      59.659     68.1179
        4762      9.7102     59.4388      68.288
      4762.5      9.7126     59.3581      68.113
        4763      9.7126     59.4895     67.9379
      4763.5      9.7137     59.6959     68.6105
        4764      9.7325     60.2032     69.9286
      4764.5      9.7559     61.0114     69.7886
        4765      9.8568     61.6275     69.6485
      4765.5      9.8723     62.2266     69.5085
        4766      9.8723      62.734     68.5458
      4766.5      9.8723     62.9689     67.1765
        4767      9.8124     62.8914     65.8072
      4767.5      9.7924     62.5677      66.871
        4768      9.7924     61.7988     68.9605
      4768.5      9.7924     61.2638       71.05
        4769      9.7924     61.0628     73.1395
      4769.5      9.7924     60.7685     72.9652
        4770      9.7924     60.7623     70.9486
      4770.5      9.7924      61.052      68.932
        4771      9.7924      62.314     66.9154
      4771.5      9.8319     63.0986     64.8988
        4772      9.8323     64.1127     70.0723
      4772.5      9.8323     65.2985     66.9776
        4773      9.8323     66.6265     65.3874
      4773.5      9.8365     67.1815     64.7028
        4774      9.8775     67.2399     64.0181
      4774.5      9.9122     67.2177      70.236
        4775      9.9321      66.911     68.5568
      4775.5      9.9321     66.5797     63.6178
        4776      9.9321     66.5403     59.1483
      4776.5      9.9321     67.5136     54.6789
        4777      9.9321     68.2095     50.2095
      4777.5      9.9521     68.9561       45.74
        4778      9.9521     69.4311     41.2706
      4778.5      9.9521     69.6482     36.8012
        4779      9.9521     70.2085     32.3317
      4779.5      9.9521     70.4684     27.8623
        4780      9.9521     70.6544      36.677
      4780.5      9.9521      70.974     65.8156
        4781      9.9521     71.4796     94.9542
      4781.5      9.9521     71.7463    124.0928
        4782      9.9521     71.6926    126.9639
      4782.5      9.9731     71.5505    114.9683
        4783      9.9721     71.3172    102.9728
      4783.5      9.9792     71.1301     90.9773
