###############################################
##         ENVERUS                           ##
##         ESS - Open Hole                   ##
##         PERMIAN / DELAWARE                ##
##         Nov 04 2023  V4.0                 ##
##         42-389-32484-00-00                ##
###############################################
## Copyright 2017-2023  ENVERUS.  All Rights Reserved. 
## Confidential - Property of ENVERUS, use governed by terms and 
## conditions found within the existing Information Services Subscription Agreement 
## (as may be amended, the “ISSA”) between Customer and ENVERUS. 
## 
~VERSION INFORMATION
# MNEM.UNIT                               DATA : DESCRIPTION OF MNEMONIC
#-----.-----     ----------------------------- : -----------------------------
VERS.                                     2.00 : CWLS LOG ASCII STANDARD - VERSION 2.00
WRAP.                                       NO : MULTIPLE LINES PER DEPTH STEP
VEND.                                  ENVERUS : VENDOR
TYPE.                          ESS - OPEN HOLE : ENVERUS ESSENTIAL CURVES – ACCESSIBLE THROUGH ENVERUS PRISM(TM)
DOC.                                  31780441 : ENVERUS HEADER RAW DOCUMENT ID
#___________________________________________________________________________________________________ 
~WELL INFORMATION 
# aTsA/KVwhIqB1dg6n/zy22zTJjsJnyaNqg27ywuj9UrTfzbM7gscpQTlR+gOLN+9jERwUBAE6KvHEXpIT+cpyg== 
# MNEM.UNIT                                              DATA : DESCRIPTION OF MNEMONIC 
#-----.-----                    ----------------------------- : ----------------------------- 
CNTY.                                                  REEVES : COUNTY 
STATE.                                                  TEXAS : STATE 
CNTRY.                                                    USA : COUNTRY 
API.                                             42-389-32484 : API (10 Digit) 
API_14.                                    42-389-32484-00-00 : API (14 Digits) 
API_14_std.                                 42-389-32484-0000 : API (14 Digits Standard) 
UWI.                                           42389324840000 : UNIQUE WELL ID 
WELL.                                        BLK 59 ST 37  1H : WELL NAME
STRT.FT                                                 236.0 : START DEPTH
STOP.FT                                               12079.0 : STOP DEPTH
STEP.FT                                                   0.5 : STEP BETWEEN DEPTHS
NULL.                                                 -999.25 : NULL VALUE
COMP.                                       SHELL WESTERN E&P : COMPANY 
DATE.                                             05-SEP-2007 : LOG DATE
#___________________________________________________________________________________________________ 
~CURVE INFORMATION 
# MNEM.UNIT           : CURVE DESCRIPTION 
#-----.-----          : ----------------------------- 
 DEPT.FT               : MEASURED DEPTH 
 CALI.IN               : CALIPER (CAL - CAL) 
 GR.API                : GAMMA RAY (GR) 
 DT.US/FT              : SONIC DELTA TRANSIT TIME (DT) 
 DPHI.V/V              : DENSITY POROSITY (DPHI) 
 NPHI.V/V              : NEUTRON POROSITY (NPHI) 
 RHOB.G/CC             : BULK DENSITY (RHOB) 
 #___________________________________________________________________________________________________ 
~A         DEPT           CALI             GR             DT           DPHI           NPHI           RHOB
# ...
         7836.0         12.446         59.087       -999.250        0.04835        0.07677         2.6260
         7836.5         12.435         73.419       -999.250        0.05113        0.09296         2.5910
         7837.0         12.425         85.223       -999.250        0.07083        0.10916         2.5560
         7837.5         12.414         94.403       -999.250        0.09147        0.12535         2.5440
         7838.0         12.403         91.036       -999.250        0.10346        0.13256         2.5610
         7838.5         12.392         81.057       -999.250        0.09231        0.12504         2.5770
         7839.0         12.391         71.078       -999.250        0.07796        0.10664         2.5940
         7839.5         12.393         65.923       -999.250        0.06343        0.08686         2.6110
         7840.0         12.396         66.265       -999.250        0.05764        0.08568         2.5970
         7840.5         12.398         67.537       -999.250        0.05965        0.08919         2.5690
         7841.0         12.400         67.100       -999.250        0.07707        0.09270         2.5410
         7841.5         12.403         67.448       -999.250        0.09172        0.10158         2.5320
         7842.0         12.405         70.957       -999.250        0.10106        0.12075         2.5270
         7842.5         12.407         77.326       -999.250        0.10567        0.13875         2.5210
         7843.0         12.410         94.819       -999.250        0.10777        0.15456         2.5160
         7843.5         12.412        101.001       -999.250        0.10687        0.16122         2.5100
         7844.0         12.415        101.907       -999.250        0.11139        0.16134         2.5120
         7844.5         12.417        100.238       -999.250        0.11758        0.15844         2.5450
         7845.0         12.419         96.837       -999.250        0.11632        0.14497         2.5790
         7845.5         12.422         91.297       -999.250        0.09909        0.12707         2.6120
         7846.0         12.424         85.720       -999.250        0.06945        0.10917         2.6460
         7846.5         12.426         66.134       -999.250        0.04947        0.09127         2.6340
         7847.0         12.429         49.766       -999.250        0.03918        0.07217         2.6170
         7847.5         12.431         45.463       -999.250        0.03683        0.05955         2.6010
         7848.0         12.433         43.229       -999.250        0.04849        0.06305         2.5840
         7848.5         12.436         61.289       -999.250        0.06774        0.08261         2.5680
         7849.0         12.438         79.349       -999.250        0.08700        0.10216         2.5510
         7849.5         12.440         87.124       -999.250        0.09994        0.11764         2.5430
         7850.0         12.443         91.305       -999.250        0.10117        0.12242         2.5550
         7850.5         12.445         90.481       -999.250        0.09328        0.12720         2.5680
         7851.0         12.447         87.767       -999.250        0.07648        0.13113         2.5800
         7851.5         12.449         83.581       -999.250        0.07477        0.12909         2.5780
         7852.0         12.452         79.217       -999.250        0.07468        0.12354         2.5750
         7852.5         12.454         74.854       -999.250        0.07669        0.11367         2.5720
         7853.0         12.456         79.225       -999.250        0.08218        0.10550         2.5690
         7853.5         12.458         84.390       -999.250        0.08180        0.11579         2.5720
         7854.0         12.460         89.555       -999.250        0.08202        0.12609         2.5770
         7854.5         12.463         92.432       -999.250        0.08004        0.13312         2.5820
         7855.0         12.465         83.718       -999.250        0.07555        0.13327         2.5790
         7855.5         12.467         75.004       -999.250        0.07552        0.12548         2.5660
         7856.0         12.469         74.587       -999.250        0.08124        0.11768         2.5530
         7856.5         12.472         81.282       -999.250        0.10103        0.12548         2.5390
         7857.0         12.474         87.976       -999.250        0.10322        0.13496         2.5400
         7857.5         12.476         91.379       -999.250        0.10638        0.14116         2.5500
         7858.0         12.478         90.103       -999.250        0.10330        0.14736         2.5600
         7858.5         12.481         86.967       -999.250        0.09828        0.14644         2.5700
         7859.0         12.483         75.543       -999.250        0.08669        0.14489         2.5650
         7859.5         12.485         67.918       -999.250        0.07780        0.13391         2.5310
         7860.0         12.488         71.821       -999.250        0.07852        0.12293         2.4960
         7860.5         12.516         82.660       -999.250        0.11006        0.11910         2.4620
         7861.0         12.543         94.337       -999.250        0.13597        0.15130         2.4680
         7861.5         12.485        104.983       -999.250        0.15387        0.18839         2.5060
         7862.0         12.426        104.919       -999.250        0.14715        0.19842         2.5440
         7862.5         12.437         93.810       -999.250        0.11019        0.19228         2.5730
         7863.0         12.449         83.040       -999.250        0.08434        0.14292         2.5710
         7863.5         12.460         74.214       -999.250        0.08263        0.12326         2.5690
         7864.0         12.466         65.389       -999.250        0.08480        0.10961         2.5670
         7864.5         12.466         57.054       -999.250        0.08697        0.10348         2.5650
         7865.0         12.467         53.044       -999.250        0.08617        0.09734         2.5630
         7865.5         12.459         52.790       -999.250        0.08455        0.09240         2.5610
         7866.0         12.447         58.096       -999.250        0.08471        0.09782         2.5590
         7866.5         12.435         65.678       -999.250        0.08895        0.10850         2.5620
         7867.0         12.423         70.999       -999.250        0.08551        0.11638         2.5850
         7867.5         12.411         72.904       -999.250        0.07190        0.11231         2.5980
         7868.0         12.398         77.218       -999.250        0.06241        0.10874         2.5850
         7868.5         12.386         83.349       -999.250        0.07096        0.11781         2.5710
         7869.0         12.386         90.177       -999.250        0.08469        0.13553         2.5580
         7869.5         12.412         91.246       -999.250        0.09173        0.14778         2.5460
         7870.0         12.437         85.769       -999.250        0.09500        0.14663         2.5530
         7870.5         12.432         78.363       -999.250        0.09340        0.13720         2.5600
         7871.0         12.411         70.956       -999.250        0.08846        0.12253         2.5680
         7871.5         12.390         64.749       -999.250        0.08319        0.10785         2.5750
         7872.0         12.368         64.407       -999.250        0.08050        0.11504         2.5660
         7872.5         12.368         78.418       -999.250        0.08214        0.12649         2.5520
         7873.0         12.394         98.050       -999.250        0.09576        0.13795         2.5380
         7873.5         12.420        104.342       -999.250        0.10992        0.13973         2.5240
