###############################################
##         ENVERUS                           ##
##         ESS - Open Hole                   ##
##         PERMIAN / DELAWARE                ##
##         Nov 04 2023  V4.0                 ##
##         42-389-31270-00-00                ##
###############################################
## Copyright 2017-2023  ENVERUS.  All Rights Reserved. 
## Confidential - Property of ENVERUS, use governed by terms and 
## conditions found within the existing Information Services Subscription Agreement 
## (as may be amended, the “ISSA”) between Customer and ENVERUS. 
## 
~VERSION INFORMATION
# MNEM.UNIT                               DATA : DESCRIPTION OF MNEMONIC
#-----.-----     ----------------------------- : -----------------------------
VERS.                                     2.00 : CWLS LOG ASCII STANDARD - VERSION 2.00
WRAP.                                       NO : MULTIPLE LINES PER DEPTH STEP
VEND.                                  ENVERUS : VENDOR
TYPE.                          ESS - OPEN HOLE : ENVERUS ESSENTIAL CURVES – ACCESSIBLE THROUGH ENVERUS PRISM(TM)
DOC.                                  31950282 : ENVERUS HEADER RAW DOCUMENT ID
#___________________________________________________________________________________________________ 
~WELL INFORMATION 
# 0CODbT4LMl4UGLa7W4QP9cEC157HhgZEtdKI2U+cm8ET/zLKkJfEe4mvdgudHboWMGmWziBYTrzgVEWtCsCjWg== 
# MNEM.UNIT                                              DATA : DESCRIPTION OF MNEMONIC 
#-----.-----                    ----------------------------- : ----------------------------- 
CNTY.                                                  REEVES : COUNTY 
STATE.                                                  TEXAS : STATE 
CNTRY.                                                    USA : COUNTRY 
API.                                             42-389-31270 : API (10 Digit) 
API_14.                                    42-389-31270-00-00 : API (14 Digits) 
API_14_std.                                 42-389-31270-0000 : API (14 Digits Standard) 
UWI.                                           42389312700000 : UNIQUE WELL ID 
WELL.                                        FORTUNE UNIT  2R : WELL NAME
STRT.FT                                                3825.0 : START DEPTH
STOP.FT                                               13654.0 : STOP DEPTH
STEP.FT                                                   0.5 : STEP BETWEEN DEPTHS
NULL.                                                 -999.25 : NULL VALUE
COMP.                          SANDRIDGE EXPL. AND PROD.  LLC : COMPANY 
DATE.                                             19-AUG-2004 : LOG DATE
#___________________________________________________________________________________________________ 
~CURVE INFORMATION 
# MNEM.UNIT           : CURVE DESCRIPTION 
#-----.-----          : ----------------------------- 
 DEPT.FT               : MEASURED DEPTH 
 CALI__B.IN            : CALIPER (CAL - CAL) 
 GR__B.API             : GAMMA RAY (GR) 
 DT__B.US/FT           : SONIC DELTA TRANSIT TIME (DT) 
 #___________________________________________________________________________________________________ 
~A         DEPT        CALI__B          GR__B          DT__B
# ...
        10359.0         10.589         81.746         87.117
        10359.5         10.600         82.530         88.058
        10360.0         10.508         81.423         88.432
        10360.5         10.415         79.307         88.290
        10361.0         10.354         83.196         88.149
        10361.5         10.350         86.644         88.007
        10362.0         10.347         85.648         87.865
        10362.5         10.344         84.653         87.724
        10363.0         10.341         83.657         87.288
        10363.5         10.338         82.661         86.591
        10364.0         10.335         81.800         85.894
        10364.5         10.331         81.404         85.197
        10365.0         10.328         81.009         84.501
        10365.5         10.325         80.613         83.804
        10366.0         10.322         80.218         84.749
        10366.5         10.319         78.531         85.412
        10367.0         10.315         76.682         84.881
        10367.5         10.312         74.834         84.350
        10368.0         10.304         72.985         83.819
        10368.5         10.295         71.137         83.288
        10369.0         10.286         71.143         82.757
        10369.5         10.276         73.056         82.226
        10370.0         10.267         74.969         81.805
        10370.5         10.257         76.624         83.138
        10371.0         10.248         77.365         84.471
        10371.5         10.239         78.106         85.804
        10372.0         10.229         78.847         87.138
        10372.5         10.220         79.589         88.859
        10373.0         10.210         80.330         91.032
        10373.5         10.161         81.071         90.045
        10374.0         10.083         79.595         88.930
        10374.5         10.005         77.148         87.814
        10375.0          9.986         74.701         88.201
        10375.5          9.998         72.253         89.290
        10376.0         10.010         71.443         90.378
        10376.5         10.022         73.233         89.152
        10377.0         10.034         75.022         86.342
        10377.5         10.046         76.812         83.533
        10378.0         10.058         70.074         80.723
        10378.5         10.021         56.867         77.914
        10379.0          9.975         51.973         75.104
        10379.5          9.929         56.227         72.295
        10380.0          9.883         60.481         73.719
        10380.5          9.837         64.734         76.980
        10381.0          9.791         68.988         80.241
        10381.5          9.748         73.242         79.215
        10382.0          9.748         70.342         77.030
        10382.5          9.748         67.340         74.845
        10383.0          9.748         64.338         72.661
        10383.5          9.748         61.336         70.476
        10384.0          9.747         59.295         68.291
        10384.5          9.747         62.984         69.560
        10385.0          9.747         66.674         71.392
        10385.5          9.747         70.364         73.225
        10386.0          9.747         74.053         75.057
        10386.5          9.747         77.743         76.890
        10387.0          9.746         75.504         76.867
        10387.5          9.746         70.242         75.463
        10388.0          9.746         64.981         74.058
        10388.5          9.746         59.719         73.530
        10389.0          9.746         57.469         75.429
        10389.5          9.747         60.076         77.328
        10390.0          9.749         62.683         78.723
        10390.5          9.750         65.289         78.574
        10391.0          9.752         67.777         78.426
        10391.5          9.753         60.493         78.277
        10392.0          9.754         53.209         77.684
        10392.5          9.756         47.926         75.798
        10393.0          9.757         46.342         73.912
        10393.5          9.759         44.759         72.026
        10394.0          9.760         45.255         70.140
        10394.5          9.761         46.875         68.254
        10395.0          9.763         48.495         66.368
        10395.5          9.764         50.115         64.482
        10396.0          9.764         51.735         66.427
        10396.5          9.764         56.104         69.956
        10397.0          9.764         70.282         73.485
        10397.5          9.764         68.327         77.014
        10398.0          9.764         66.372         79.036
        10398.5          9.763         64.416         78.442
        10399.0          9.763         62.461         77.847
        10399.5          9.763         60.506         77.252
        10400.0          9.763         60.835         76.658
        10400.5          9.763         62.288         76.063
        10401.0          9.763         63.740         74.468
        10401.5          9.768         65.193         72.469
        10402.0          9.772         66.645         70.471
        10402.5          9.776         58.889         68.472
        10403.0          9.780         63.388         66.474
        10403.5          9.784         67.886         67.478
        10404.0          9.788         72.384         69.982
        10404.5          9.792         76.883         72.486
        10405.0          9.796        100.590         74.990
        10405.5          9.800         97.301         77.246
        10406.0          9.804         93.833         77.021
        10406.5          9.809         88.734         76.796
        10407.0          9.813         83.636         76.571
        10407.5          9.817         78.538         76.346
        10408.0          9.821         78.543         76.122
        10408.5          9.821         87.938         75.897
        10409.0          9.818         91.843         75.672
        10409.5          9.816         93.204         75.596
        10410.0          9.813         94.564         76.049
        10410.5          9.811         93.096         76.502
        10411.0          9.808         91.512         76.955
        10411.5          9.806         89.927         77.220
        10412.0          9.803         88.343         77.029
        10412.5          9.801         85.780         76.837
        10413.0          9.798         74.237         76.646
        10413.5          9.796         63.364         76.455
        10414.0          9.793         53.118         76.263
        10414.5          9.791         47.804         76.072
        10415.0          9.788         49.829         75.881
        10415.5          9.785         51.854         75.689
        10416.0          9.783         53.879         76.398
        10416.5          9.780         56.423         77.984
        10417.0          9.778         71.734         79.570
        10417.5          9.779         81.372         79.859
        10418.0          9.780         80.211         78.576
        10418.5          9.780         79.050         77.294
        10419.0          9.781         78.497         78.838
        10419.5          9.782         78.285         80.422
        10420.0          9.783         78.073         82.007
        10420.5          9.783         77.154         81.663
        10421.0          9.784         76.181         81.172
        10421.5          9.785         75.207         80.680
        10422.0          9.786         74.233         80.189
        10422.5          9.786         73.259         80.115
        10423.0          9.787         72.285         82.177
        10423.5          9.788         71.311         81.535
        10424.0          9.789         74.146         80.892
        10424.5          9.789         76.359         80.605
