#--------------------------------------------------#
#-------------------ENVERUS, INC.------------------#
#------------------WWW.ENVERUS.COM-----------------#
#------------------COPYRIGHT 2020------------------#
#--------------------------------------------------#
#THIS FILE MAY BE USED ONLY IN ACCORDANCE WITH A CURRENT SUBSCRIPTION AGREEMENT BETWEEN
#THE USER AND ENVERUS, INC. NO PART OF THIS FILE MAY BE REPRODUCED, USED, COPIED,
#MODIFIED, PROPAGATED, OR DISTRIBUTED EXCEPT IN ACCORDANCE WITH THE SUBSCRIPTION
#AGREEMENT. UNAUTHORIZED USE OR DISTRIBUTION OF ALL OR ANY PART OF THIS FILE MAY VIOLATE
#COPYRIGHT, TRADEMARK, AND/OR OTHER LAWS AND IS SUBJECT TO CIVIL AS WELL AS CRIMINAL
#SANCTIONS.
#--------------------------------------------------#
#THIS FILE IS PROVIDED "AS-IS" AND ALL WARRANTIES ARE EXPRESSLY DISCLAIMED, WHETHER
#EXPRESS, ORAL, IMPLIED, STATUTORY OR OTHERWISE, INCLUDING ANY IMPLIED WARRANTY OF FITNESS
#FOR A PARTICULAR PURPOSE, MERCHANTABILITY, TITLE OR NON-INFRINGEMENT, AND ANY WARRANTIES
#ARISING BY VIRTUE OF CUSTOM OF TRADE OR COURSE OF DEALING.  FURTHER, ENVERUS, INC.
#AND ITS LICENSORS DO NOT REPRESENT OR WARRANT THAT THIS FILE WILL MEET USER'S
#REQUIREMENTS OR ARE SUITABLE FOR USER'S NEEDS OR THAT THE DATA OR RESULTS PROVIDED IN
#CONJUNCTION THEREWITH ARE CORRECT, ACCURATE, TIMELY OR RELIABLE. THESE DISCLAIMERS SHALL
#APPLY REGARDLESS OF ANY FAILURE OF ESSENTIAL PURPOSE OF ANY LIMITED REMEDY.  SOME
#JURISDICTIONS DO NOT ALLOW THE EXCLUSION OF CERTAIN WARRANTIES SO SOME OF THE ABOVE
#EXCLUSIONS MAY NOT APPLY. IN NO EVENT SHALL ENVERUS, INC. OR ANY OF ITS AFFILIATES
#BE LIABLE UNDER ANY LEGAL THEORY, WHETHER IN TORT (INCLUDING WITHOUT LIMITATION
#NEGLIGENCE), CONTRACT, STRICT LIABILITY, STATUTORY OR OTHERWISE, FOR ANY SPECIAL,
#INCIDENTAL, CONSEQUENTIAL, EXEMPLARY, PUNITIVE OR INDIRECT DAMAGE OF ANY KIND, INCLUDING
#WITHOUT LIMITATION LOSS OF REVENUE, PROFITS, GOODWILL, USE, AND/OR DATA OR THE COST OF
#PROCUREMENT OF SUBSTITUTE GOODS OR SERVICES, EVEN IF APPRISED OF THE POSSIBILITY OF SUCH
#DAMAGES IN ADVANCE.
#--------------------------------------------------#

# EXPORTED FROM TRANSFORM SOFTWARE 5.2.0 ON 31-MAY-2019 BY USER BRIAN.UMLANG
# DI TRANSFORM - A PRODUCT OF DRILLINGINFO, INC. - WWW.DRILLINGINFO.COM
#
~VERSION INFORMATION
 VERS.        2.0 : LAS ASCII STANDARD - VERSION 2.0
 WRAP.         NO : ONE LINE PER DEPTH STEP

~WELL INFORMATION
#MNEM.UNIT       DATA TYPE       INFORMATION
#---------       ---------       -----------
 STRT.FT                 256 : START DEPTH
 STOP.FT                4706 : STOP DEPTH
 STEP.FT                 0.5 : STEP LENGTH
 NULL.               -999.25 : NULL VALUE
 UWI.         42301312890000 : UNIQUE WELL ID
 API.         42301312890000 : WELL IDENTIFIER
 COMP.                       : COMPANY
 WELL.  42301312890000_API14 : WELL NAME
 FLD.                        : FIELD NAME
 LOC.                        : WELL LOCATION
 CNTY.                       : COUNTY
 STAT.                       : STATE OR PROVINCE
 CTRY.                       : COUNTRY
 SRVC.                       : SERVICE COMPANY
 DATE.                       : DATE

~CURVE INFORMATION
#MNEM.UNIT       API CODE       CURVE DESCRIPTION
#---------       --------       -----------------
 DEPT.FT          : <MEASURED DEPTH>
 CAL.IN           : CALIPER
 DPHI.%           : DENSITY POROSITY
 DT.US/FT         : SONIC
 GR.GAPI          : GAMMA RAY
 ILD.OHMM         : DEEP RESISTIVITY
 ILS.OHMM         : SHALLOW RESISTIVITY
 NPHI.%           : NEUTRON POROSITY
 PE.B/ELEC        : PHOTOELECTRIC FACTOR
 RHOB.G/CM3       : DENSITY

~PARAMETER INFORMATION
#MNEM.UNIT       VALUE       DESCRIPTION
#---------       -----       -----------
 EKB.FT      2822 : ELEVATION ABOVE MSL

~A      DEPT         CAL        DPHI          DT          GR         ILD         ILS        NPHI          PE        RHOB
# ...
        3941     10.2208     22.9015     81.6312     55.3892      3.5147      2.1114      20.418      2.3307      2.3428
      3941.5     10.2427     23.0178     82.8386     55.3892      3.3542      2.0337      20.664      2.3046      2.3408
        3942     10.2646     22.9347      83.325     55.3892      3.2531      1.9408     20.9099      2.3046      2.3427
      3942.5     10.2813     22.6983     83.0256     55.6886      3.2769      1.9362      21.535      2.3046      2.3447
        3943     10.2971      22.246     82.4189     55.6886      3.3706      2.0061      22.679      2.3246      2.3508
      3943.5     10.3215     21.6805     81.8179     54.7904      3.5648      2.0827     23.4094      2.3246       2.364
        3944      10.346     20.9523     80.1105     54.7904      3.7701      2.1226     23.5728      2.3447      2.3775
      3944.5     10.3634     20.2464     78.8778     54.7904      3.8435      2.2044     22.2586      2.3447       2.383
        3945     10.4028     20.1968     78.9812     54.7904      3.9154      2.2044     22.2496      2.3447      2.3838
      3945.5     10.4595     20.4809     79.5325     55.2282      3.9154      2.2249     22.8556      2.3447      2.3822
        3946     10.5021     20.5706     80.4398     57.4332       4.033      2.2476     23.1415      2.3721      2.3873
      3946.5     10.5355     19.0989     81.0992       60.89      4.4636      2.3645     22.9581      2.3848      2.4085
        3947     10.5922      17.317     80.3049      63.408      4.9422      2.5849     21.1215      2.4449      2.4432
      3947.5     10.6489     15.9928     76.9925     66.5875      5.4774      2.8634     20.4225      2.4449      2.4498
        3948     10.6777     16.5171     76.4021     67.9641      5.7249      2.9728     20.4225      2.5378      2.4557
      3948.5     10.7054     18.4152     77.1713     66.2752       5.587      2.8755       20.86       2.511      2.4098
        3949     10.7331     19.7161     78.8092     61.5208      4.8871      2.5246     21.0664      2.4696      2.4025
      3949.5     10.7608     21.2669     80.5184     56.5868      4.4004       2.258     22.4044      2.3881      2.3595
        3950     10.7885     21.4294     81.2301     55.6888       3.883      2.0573     23.3035      2.3848      2.3555
      3950.5     10.8179     22.2939     83.6598     55.0721      3.7382      1.9908     23.4426      2.3848      2.3421
        3951     10.8794     22.7224     84.9663      54.491      3.7919      2.0382     23.3812      2.3447      2.3449
      3951.5     10.9314     22.6028     85.4509      54.491      3.9367      2.0932     23.3059      2.3447      2.3551
        3952     10.9834     21.7845     84.8124     54.1916      4.1635      2.1565     23.1948      2.3481      2.3674
      3952.5     11.0353     20.7142     83.2708     54.1916      4.4033      2.2876     22.7955      2.4048      2.3802
        3953      11.071     20.2229     82.2874     54.1916      4.4993      2.3089     21.8712      2.4048      2.3859
      3953.5     11.0899     20.2018     81.4618     55.2148      4.4993      2.2715     21.9283      2.4248      2.3853
        3954     11.1027     20.5732     81.2047     57.6141      4.3434      2.2044     22.1319      2.4248      2.3794
      3954.5     11.1027      20.959     81.4028     62.3085      4.2226      2.1469     23.2494      2.4248       2.374
        3955     11.1027     21.1156     81.4889     67.0028      4.1393      2.0659     24.2734      2.3848      2.3714
      3955.5     11.1027     21.1773     81.5631     70.0552      4.1778      2.0469     24.3911      2.3848      2.3694
        3956     11.1027     21.3407     81.6032     71.2575      4.2167       2.028     23.7047      2.3848      2.3661
      3956.5     11.1027     21.7856     81.6948     71.2575      4.2956      2.0659     22.7114      2.4048       2.359
        3957     11.1027     22.2305     82.0905     69.1106      4.2956      2.0852     23.1426      2.4048      2.3555
      3957.5     11.1027     22.3297     82.7508      64.765      4.3402      2.0659     23.9193      2.3667      2.3538
        3958     11.1027     21.8407      83.063     59.7985      4.3759      2.0852     24.2839      2.3647      2.3573
      3958.5     11.1027     21.3422     83.0248     54.6322      4.3759      2.0852     24.3265      2.3647      2.3646
        3959     11.1027     21.1814     83.3982     53.2934      4.3659      2.0612     24.7693      2.3647      2.3678
      3959.5     11.1027     21.4287     84.1091     53.2934      4.2445      2.0039     25.8364      2.3413      2.3636
        3960     11.1027     22.2167     84.6341     53.2934      4.0133      1.9481     26.1901      2.3046      2.3528
      3960.5     11.1027     22.9203     85.3289     53.2934        3.83      1.8315     24.9793      2.3046      2.3412
        3961     11.1027     23.1764     85.5693     53.6865       3.588      1.7579     24.5146      2.2846       2.338
      3961.5     11.1027     23.1526     85.0907     54.6677      3.3926      1.6316     24.3512      2.2645      2.3384
        3962       11.12      23.005     84.8181     54.6677      3.2678      1.6087     24.2052      2.2544       2.339
      3962.5        11.1     23.1132     84.8431     55.7814      3.1934      1.5791     24.1819      2.2445      2.3335
        3963        11.1     23.6314     85.1135     56.2415      3.1934      1.5646     24.0953      2.2645      2.3239
      3963.5        11.1     24.2751     85.9186     55.0386      3.1639      1.5646     24.0386      2.2645      2.3136
        3964        11.1     24.8461     86.4897      54.556      3.1639      1.5646     24.2886      2.2645       2.306
      3964.5       11.08     25.2598     86.9346      53.924      3.1934      1.5938     24.6402      2.2645      2.3045
        3965       11.08     25.0628     86.9475     52.4072      3.2531      1.6087     24.9796      2.2244      2.3068
      3965.5       11.08     25.2218     86.3219     51.6773      3.3448      1.6667     25.3959      2.2244      2.3108
        3966     11.0579      24.879     85.1944     51.1947      3.4349      1.7006     26.3144      2.2244      2.3135
      3966.5       10.98     24.6935     83.7634      50.476      3.4391      1.7006     27.5605      2.2244      2.3146
        3967       10.98     24.6131     83.1164     49.5912      3.4087      1.6856     27.9519      2.2244      2.3156
      3967.5       10.94     24.5729     83.5882     49.4214       3.253      1.6086     27.3316      2.2244      2.3156
        3968        10.9     24.5327     84.4899     49.2335      3.1045      1.5352     26.6934      2.2445      2.3136
      3968.5       10.88     24.6233      85.289      49.108      3.0772      1.5076     26.4269      2.2445      2.3116
        3969       10.86      24.827     85.5138     49.9929      3.0811      1.5378     26.6359      2.2445      2.3136
      3969.5     10.8092     24.7985     84.8917     50.8777      3.2944      1.5965     26.8612      2.2747      2.3196
        3970       10.78     24.4177     83.9148     52.9133      3.4535      1.6817     26.8612      2.2846      2.3265
      3970.5       10.76     23.1113     82.8576     54.7849      3.8628      1.8485     26.8612      2.2846      2.3473
        3971        10.7     22.2467     82.4558     55.7169      4.4015      2.1358     26.9218      2.3389      2.3535
      3971.5       10.66     22.3076     82.2846     56.9716      4.6692      2.3599     27.0624      2.3647      2.3459
        3972     10.6031     22.8329     82.5014     57.2908      4.8008      2.3961     26.4884      2.3848      2.3394
      3972.5     10.5418     23.1729     82.8708     57.7604      4.8008      2.4084     24.5393       2.403      2.3357
        3973       10.54     23.1658     83.2903     58.8647      4.5627       2.294     22.3904      2.3852      2.3367
      3973.5     10.4594      23.129     83.6779     58.8647      4.4578      2.1439     22.1357      2.3238      2.3385
        3974     10.3981     22.9648     83.9812     58.5307      4.3526      2.1325     22.4292      2.2846      2.3407
