###############################################
##         ENVERUS                           ##
##         ESS - Open Hole                   ##
##         PERMIAN / DELAWARE                ##
##         Nov 04 2023  V4.0                 ##
##         42-389-30259-00-00                ##
###############################################
## Copyright 2017-2023  ENVERUS.  All Rights Reserved. 
## Confidential - Property of ENVERUS, use governed by terms and 
## conditions found within the existing Information Services Subscription Agreement 
## (as may be amended, the “ISSA”) between Customer and ENVERUS. 
## 
~VERSION INFORMATION
# MNEM.UNIT                               DATA : DESCRIPTION OF MNEMONIC
#-----.-----     ----------------------------- : -----------------------------
VERS.                                     2.00 : CWLS LOG ASCII STANDARD - VERSION 2.00
WRAP.                                       NO : MULTIPLE LINES PER DEPTH STEP
VEND.                                  ENVERUS : VENDOR
TYPE.                          ESS - OPEN HOLE : ENVERUS ESSENTIAL CURVES – ACCESSIBLE THROUGH ENVERUS PRISM(TM)
DOC.                                  32063127 : ENVERUS HEADER RAW DOCUMENT ID
#___________________________________________________________________________________________________ 
~WELL INFORMATION 
# gPsidqVjAScFWwbHY3NvrhVb9Q0dnpAvxUas8qP1mSjKWoj7hBgJ2nw/4lW9Nf69eTG+8mlPQw3CFq6Jh/Hagw== 
# MNEM.UNIT                                              DATA : DESCRIPTION OF MNEMONIC 
#-----.-----                    ----------------------------- : ----------------------------- 
CNTY.                                                  REEVES : COUNTY 
STATE.                                                  TEXAS : STATE 
CNTRY.                                                    USA : COUNTRY 
API.                                             42-389-30259 : API (10 Digit) 
API_14.                                    42-389-30259-00-00 : API (14 Digits) 
API_14_std.                                 42-389-30259-0000 : API (14 Digits Standard) 
UWI.                                           42389302590000 : UNIQUE WELL ID 
WELL.                                         FORTUNE UNIT  1 : WELL NAME
STRT.FT                                                     0 : START DEPTH
STOP.FT                                               15675.0 : STOP DEPTH
STEP.FT                                                   0.5 : STEP BETWEEN DEPTHS
NULL.                                                 -999.25 : NULL VALUE
COMP.                          SANDRIDGE EXPL. AND PROD.  LLC : COMPANY 
DATE.                                             19-FEB-2007 : LOG DATE
#___________________________________________________________________________________________________ 
~CURVE INFORMATION 
# MNEM.UNIT           : CURVE DESCRIPTION 
#-----.-----          : ----------------------------- 
 DEPT.FT               : MEASURED DEPTH 
 CALI__B.IN            : CALIPER (CAL - CAL) 
 GR__B.API             : GAMMA RAY (GR) 
 DT__B.US/FT           : SONIC DELTA TRANSIT TIME (DT) 
 #___________________________________________________________________________________________________ 
~A         DEPT        CALI__B          GR__B          DT__B
# ...
         7788.0         13.069         47.250         66.771
         7788.5         13.086         41.692         67.313
         7789.0         13.104         45.333         67.684
         7789.5         13.122         48.974         67.464
         7790.0         13.139         52.615         68.047
         7790.5         13.157         48.887         66.810
         7791.0         13.174         43.234         67.197
         7791.5         13.192         36.835         67.285
         7792.0         13.209         32.897         67.641
         7792.5         13.215         31.820         68.759
         7793.0         13.209         30.903         68.931
         7793.5         13.203         29.987         67.568
         7794.0         13.197         29.070         65.559
         7794.5         13.191         31.476         65.462
         7795.0         13.186         35.144         66.128
         7795.5         13.180         39.549         67.057
         7796.0         13.174         43.953         68.366
         7796.5         13.168         46.920         68.387
         7797.0         13.162         44.144         67.208
         7797.5         13.157         41.368         66.353
         7798.0         13.151         42.209         66.851
         7798.5         13.145         45.319         67.147
         7799.0         13.139         46.517         67.130
         7799.5         13.133         46.803         66.226
         7800.0         13.128         47.089         64.908
         7800.5         13.122         44.542         63.591
         7801.0         13.116         40.546         62.573
         7801.5         13.110         39.817         61.857
         7802.0         13.104         42.277         61.141
         7802.5         13.099         44.737         60.427
         7803.0         13.088         44.519         59.745
         7803.5         13.072         43.186         59.094
         7804.0         13.056         38.805         59.887
         7804.5         13.041         39.254         60.679
         7805.0         13.025         41.920         61.860
         7805.5         13.009         47.525         63.309
         7806.0         12.994         55.682         64.780
         7806.5         12.978         58.982         65.817
         7807.0         12.962         61.007         65.427
         7807.5         12.947         61.577         64.635
         7808.0         12.931         63.465         63.843
         7808.5         12.915         66.307         63.370
         7809.0         12.900         69.149         64.875
         7809.5         12.884         69.766         67.223
         7810.0         12.868         66.211         67.943
         7810.5         12.857         60.296         67.721
         7811.0         13.003         50.981         65.443
         7811.5         13.114         44.763         62.403
         7812.0         13.120         45.624         60.536
         7812.5         13.125         47.924         59.982
         7813.0         13.130         52.909         62.671
         7813.5         13.082         61.127         64.732
         7814.0         13.026         69.345         64.365
         7814.5         12.970         82.983         64.502
         7815.0         12.922         93.677         65.285
         7815.5         12.922         97.676         68.577
         7816.0         12.922         95.949         72.173
         7816.5         12.922         84.335         71.193
         7817.0         12.922         73.531         69.835
         7817.5         12.922         65.681         67.978
         7818.0         13.151         64.986         64.834
         7818.5         13.100         70.316         62.169
         7819.0         13.050         75.013         63.842
         7819.5         12.999         76.679         65.974
         7820.0         12.949         76.928         66.853
         7820.5         12.931         75.448         67.436
         7821.0         12.925         76.421         67.329
         7821.5         13.028         79.750         67.369
         7822.0         13.131         80.856         70.584
         7822.5         13.234         77.921         73.160
         7823.0         13.321         73.606         75.082
         7823.5         13.321         63.839         73.919
         7824.0         13.321         49.633         72.163
         7824.5         13.321         38.141         67.457
         7825.0         13.321         29.312         61.932
         7825.5         13.222         26.203         56.552
         7826.0         13.096         24.949         53.186
         7826.5         12.971         24.668         51.692
         7827.0         12.960         30.002         50.794
         7827.5         12.964         34.477         51.830
         7828.0         12.968         37.474         53.158
         7828.5         12.972         40.470         57.398
         7829.0         12.976         43.467         60.820
         7829.5         12.980         46.075         62.139
         7830.0         12.984         42.268         63.458
         7830.5         12.988         41.701         64.793
         7831.0         12.992         43.878         65.101
         7831.5         12.996         47.978         65.262
         7832.0         13.001         52.078         65.424
         7832.5         13.005         54.728         65.585
         7833.0         13.009         52.825         65.746
         7833.5         13.013         49.581         65.402
         7834.0         13.017         46.878         65.133
         7834.5         13.021         44.714         64.883
         7835.0         13.025         42.353         64.244
         7835.5         13.032         42.648         63.945
         7836.0         13.040         42.103         63.316
         7836.5         13.048         40.904         62.234
         7837.0         13.057         42.151         61.151
         7837.5         13.065         43.038         60.250
         7838.0         13.073         44.037         60.429
         7838.5         13.081         45.369         59.561
         7839.0         13.089         50.955         61.375
         7839.5         13.098         57.752         63.301
         7840.0         13.106         63.747         64.881
         7840.5         13.114         69.374         66.207
         7841.0         13.122         70.896         65.955
         7841.5         13.130         68.957         65.477
         7842.0         13.138         64.457         65.129
         7842.5         13.147         59.257         64.006
         7843.0         13.155         56.958         62.897
         7843.5         13.163         54.693         62.897
         7844.0         13.171         53.822         62.897
         7844.5         13.179         53.228         62.375
         7845.0         13.188         56.029         61.072
         7845.5         13.196         63.972         60.098
         7846.0         13.170         72.968         63.179
         7846.5         13.122         80.952         66.271
         7847.0         13.075         81.904         66.856
         7847.5         13.091         75.696         65.861
         7848.0         13.136         67.365         62.894
         7848.5         13.181         64.771         62.595
         7849.0         13.226         66.503         66.305
         7849.5         13.233         65.096         61.830
         7850.0         13.233         59.265         61.475
         7850.5         13.233         59.413         60.722
         7851.0         13.233         62.223         61.823
         7851.5         13.233         61.585         64.844
         7852.0         13.233         55.576         65.427
         7852.5         13.183         44.580         62.779
         7853.0         13.110         43.799         60.601
         7853.5         13.036         47.984         54.445
