#--------------------------------------------------#
#-------------------ENVERUS, INC.------------------#
#------------------WWW.ENVERUS.COM-----------------#
#------------------COPYRIGHT 2020------------------#
#--------------------------------------------------#
#THIS FILE MAY BE USED ONLY IN ACCORDANCE WITH A CURRENT SUBSCRIPTION AGREEMENT BETWEEN
#THE USER AND ENVERUS, INC. NO PART OF THIS FILE MAY BE REPRODUCED, USED, COPIED,
#MODIFIED, PROPAGATED, OR DISTRIBUTED EXCEPT IN ACCORDANCE WITH THE SUBSCRIPTION
#AGREEMENT. UNAUTHORIZED USE OR DISTRIBUTION OF ALL OR ANY PART OF THIS FILE MAY VIOLATE
#COPYRIGHT, TRADEMARK, AND/OR OTHER LAWS AND IS SUBJECT TO CIVIL AS WELL AS CRIMINAL
#SANCTIONS.
#--------------------------------------------------#
#THIS FILE IS PROVIDED "AS-IS" AND ALL WARRANTIES ARE EXPRESSLY DISCLAIMED, WHETHER
#EXPRESS, ORAL, IMPLIED, STATUTORY OR OTHERWISE, INCLUDING ANY IMPLIED WARRANTY OF FITNESS
#FOR A PARTICULAR PURPOSE, MERCHANTABILITY, TITLE OR NON-INFRINGEMENT, AND ANY WARRANTIES
#ARISING BY VIRTUE OF CUSTOM OF TRADE OR COURSE OF DEALING.  FURTHER, ENVERUS, INC.
#AND ITS LICENSORS DO NOT REPRESENT OR WARRANT THAT THIS FILE WILL MEET USER'S
#REQUIREMENTS OR ARE SUITABLE FOR USER'S NEEDS OR THAT THE DATA OR RESULTS PROVIDED IN
#CONJUNCTION THEREWITH ARE CORRECT, ACCURATE, TIMELY OR RELIABLE. THESE DISCLAIMERS SHALL
#APPLY REGARDLESS OF ANY FAILURE OF ESSENTIAL PURPOSE OF ANY LIMITED REMEDY.  SOME
#JURISDICTIONS DO NOT ALLOW THE EXCLUSION OF CERTAIN WARRANTIES SO SOME OF THE ABOVE
#EXCLUSIONS MAY NOT APPLY. IN NO EVENT SHALL ENVERUS, INC. OR ANY OF ITS AFFILIATES
#BE LIABLE UNDER ANY LEGAL THEORY, WHETHER IN TORT (INCLUDING WITHOUT LIMITATION
#NEGLIGENCE), CONTRACT, STRICT LIABILITY, STATUTORY OR OTHERWISE, FOR ANY SPECIAL,
#INCIDENTAL, CONSEQUENTIAL, EXEMPLARY, PUNITIVE OR INDIRECT DAMAGE OF ANY KIND, INCLUDING
#WITHOUT LIMITATION LOSS OF REVENUE, PROFITS, GOODWILL, USE, AND/OR DATA OR THE COST OF
#PROCUREMENT OF SUBSTITUTE GOODS OR SERVICES, EVEN IF APPRISED OF THE POSSIBILITY OF SUCH
#DAMAGES IN ADVANCE.
#--------------------------------------------------#

~VERSION INFORMATION
VERS. 2.0 : CWLS LOG ASCII STANDARD - VERSION 2.0
WRAP. NO : ONE LINE PER DEPTH STEP
~WELL INFORMATION
#MNEMONIC     .UNIT              VALUE :DESCRIPTION
STRT       .FT                2834.00000 :START DEPTH
STOP       .FT                7010.00000 :STOP DEPTH
STEP       .FT                0.50000 :STEP
NULL       .                -999.25000 :NULL VALUE
UWI       .                42389304120000 :UNIQUE WELL ID
API       .                42389304120000 :API NUMBER
COMP       .                 :COMPANY
WELL       .                 :WELL
FLD       .                 :FIELD
LOC       .                 :LOCATION
CNTY       .                 :COUNTY
STAT       .                 :STATE
CTRY       .                 :COUNTRY
SRVC       .                 :SERVICE COMPANY
DATE       .                 :DATE
~CURVE INFORMATION
#MNEMONIC     .UNIT      API CODE :CURVE DESCRIPTION
DEPTH       .FT                      :MEASURED DEPTH
CAL       .IN        UNKNOWN   :CAL
DT       .US/FT        UNKNOWN   :DT
GR       .GAPI        UNKNOWN   :GR
~A    DEPTH    CAL    DT    GR
# ...
6707.50000    12.92692    71.03564    68.23761
6708.00000    12.92980    72.34191    66.13356
6708.50000    12.93269    67.77921    64.73871
6709.00000    12.93557    52.72579    63.34385
6709.50000    12.93845    37.67236    61.94900
6710.00000    12.94134    37.67076    54.69663
6710.50000    12.94422    45.00314    46.50108
6711.00000    12.94711    45.91006    38.30553
6711.50000    12.94759    40.31202    30.10997
6712.00000    12.94119    34.71399    29.16422
6712.50000    12.93479    35.73073    31.59014
6713.00000    12.92840    39.14075    34.01606
6713.50000    12.92200    42.55077    36.44198
6714.00000    12.91560    45.96079    37.24924
6714.50000    12.90920    49.37081    35.28491
6715.00000    12.90280    52.78083    33.32058
6715.50000    12.89640    56.19085    31.35625
6716.00000    12.89000    59.60087    29.39192
6716.50000    12.88360    52.95459    30.76815
6717.00000    12.87721    45.64058    33.44472
6717.50000    12.87081    38.32656    36.12129
6718.00000    12.86441    31.01255    38.79786
6718.50000    12.85801    38.99583    41.47443
6719.00000    12.85161    48.14509    44.15100
6719.50000    12.84521    56.38109    46.82758
6720.00000    12.83881    53.59481    49.50415
6720.50000    12.84132    50.80854    52.18072
6721.00000    12.85130    48.02226    52.18526
6721.50000    12.86128    45.23598    50.99969
6722.00000    12.87126    42.44970    49.81411
6722.50000    12.88124    39.66343    48.30987
6723.00000    12.89121    38.24031    46.46381
6723.50000    12.90119    42.35834    44.61774
6724.00000    12.91117    46.47636    42.77168
6724.50000    12.92115    50.59439    40.92562
6725.00000    12.93113    54.71241    39.07955
6725.50000    12.94111    58.83044    37.23349
6726.00000    12.95109    62.94846    39.51788
6726.50000    12.96106    67.06649    41.84309
6727.00000    12.97104    71.18452    44.16830
6727.50000    12.98102    74.57904    48.13797
6728.00000    12.99100    74.17407    52.17143
6728.50000    13.00098    73.76911    56.20490
6729.00000    13.01096    73.36414    60.23837
6729.50000    13.01611    58.66073    64.27184
6730.00000    13.01354    44.98685    68.30530
6730.50000    13.01097    46.80584    67.24320
6731.00000    13.00840    48.62483    63.34290
6731.50000    13.00584    50.44382    59.44261
6732.00000    13.00327    52.26281    55.54231
6732.50000    13.00070    53.72581    51.64201
6733.00000    12.99814    52.51942    47.74172
6733.50000    12.99557    51.31302    46.26303
6734.00000    12.99300    50.10663    48.43167
6734.50000    12.99043    48.90024    50.60031
6735.00000    12.98787    48.97018    52.76895
6735.50000    12.98530    49.96492    54.93759
6736.00000    12.98273    50.95966    57.10623
6736.50000    12.98017    51.95441    59.27487
6737.00000    12.97760    52.94915    61.44351
6737.50000    12.97503    53.94389    62.69136
6738.00000    12.97247    54.93863    58.83131
6738.50000    12.96990    55.93337    54.97127
6739.00000    12.96733    56.92811    51.11122
6739.50000    12.96476    54.13263    47.25118
6740.00000    12.96220    50.56990    43.39113
6740.50000    12.95963    47.00718    39.53108
6741.00000    12.95706    45.73290    35.67104
6741.50000    12.95450    49.65461    37.98923
6742.00000    12.95193    53.57632    40.58219
6742.50000    12.94936    57.49802    43.17515
6743.00000    12.94680    61.41973    45.22105
6743.50000    12.94423    65.34144    46.73927
6744.00000    12.94166    69.26315    48.25749
6744.50000    12.93910    73.18486    49.08785
6745.00000    12.93653    70.66973    49.82222
6745.50000    12.93396    67.83884    50.55659
6746.00000    12.93139    65.00794    53.47969
6746.50000    12.92883    62.17704    57.06091
6747.00000    12.92626    59.34615    60.64213
6747.50000    12.92369    56.51525    64.22335
6748.00000    12.92112    54.40412    66.72491
6748.50000    12.91856    61.85039    68.22703
6749.00000    12.91599    69.29666    69.72915
6749.50000    12.91342    76.74292    71.23127
6750.00000    12.91086    74.38272    72.73339
6750.50000    12.90829    70.53994    74.23551
6751.00000    12.90572    66.69717    75.73763
6751.50000    12.90316    62.85439    72.85233
6752.00000    12.90059    59.01161    69.65742
6752.50000    12.89802    55.16883    66.46251
6753.00000    12.89546    51.32605    63.26760
6753.50000    12.89289    47.48328    60.07268
6754.00000    12.89032    43.64050    56.87777
6754.50000    12.88775    45.12866    53.68286
6755.00000    12.88519    48.55661    50.48794
6755.50000    12.88262    51.98456    47.29303
6756.00000    12.87947    55.41252    44.09812
6756.50000    12.87497    58.84047    44.56934
6757.00000    12.87047    62.26842    48.49435
6757.50000    12.86597    65.69637    52.41936
6758.00000    12.86148    69.12433    56.34438
6758.50000    12.85698    72.55228    60.26939
6759.00000    12.85248    75.98023    56.68028
6759.50000    12.84798    45.17115    51.89143
6760.00000    12.84349    39.23196    47.10259
6760.50000    12.83899    35.00101    42.31374
6761.00000    12.83449    38.15047    37.52490
6761.50000    12.83000    41.29994    32.73605
6762.00000    12.82550    44.44940    27.94721
6762.50000    12.82100    47.59887    23.70816
6763.00000    12.81650    50.74834    26.05679
6763.50000    12.81201    53.89780    28.40543
6764.00000    12.80751    57.04727    30.75407
6764.50000    12.80301    60.19674    33.10271
6765.00000    12.79852    61.63542    35.45135
6765.50000    12.79402    58.87888    37.79998
6766.00000    12.78952    56.12235    40.14862
6766.50000    12.78502    53.36582    42.49726
6767.00000    12.78053    50.60929    44.84590
6767.50000    12.77603    47.85275    46.74410
6768.00000    12.77153    51.27599    45.16826
6768.50000    12.76813    56.85973    43.59241
6769.00000    12.77620    62.44346    42.01656
6769.50000    12.78427    65.56791    40.44071
6770.00000    12.79233    63.86948    39.11027
6770.50000    12.80040    62.17104    42.94400
6771.00000    12.80846    60.47260    46.77773
6771.50000    12.81653    58.77417    50.61146
6772.00000    12.82460    57.07573    54.44519
6772.50000    12.83266    55.37729    55.83983
6773.00000    12.84073    53.67886    53.28002
6773.50000    12.84879    51.98042    50.72021
6774.00000    12.85686    50.28198    48.16040
6774.50000    12.86233    48.58355    45.60059
6775.00000    12.86740    49.01241    43.04077
6775.50000    12.87247    51.30623    40.48096
6776.00000    12.87754    53.60005    37.92115
6776.50000    12.88262    55.89387    35.36134
6777.00000    12.88769    58.18769    32.87715
6777.50000    12.89276    60.48151    34.23154
6778.00000    12.89783    62.77533    35.58592
6778.50000    12.90290    60.38703    36.94030
6779.00000    12.90798    53.53317    38.29468
6779.50000    12.91305    46.67931    39.64906
6780.00000    12.91812    39.82545    41.00344
6780.50000    12.92319    32.97159    40.08787
6781.00000    12.92761    28.38418    36.01629
6781.50000    12.93136    32.69376    31.94471
6782.00000    12.93511    37.00335    27.87313
6782.50000    12.93886    41.31293    23.80155
6783.00000    12.94261    45.62251    20.78122
6783.50000    12.94637    49.93209    24.23672
6784.00000    12.95012    54.24167    27.69222
6784.50000    12.95387    58.55125    31.14772
6785.00000    12.95762    62.86083    34.60322
6785.50000    12.96137    67.17041    38.05872
6786.00000    12.96513    68.64713    41.51422
6786.50000    12.96888    66.67336    44.96972
6787.00000    12.97263    64.69959    48.42522
6787.50000    12.97638    62.72582    51.88072
6788.00000    12.98013    60.75205    55.33622
6788.50000    12.98389    58.77829    53.94783
6789.00000    12.98764    56.80452    52.03082
6789.50000    12.99139    54.83075    50.11382
6790.00000    12.99514    55.46092    48.19682
6790.50000    12.99889    57.18825    46.27981
6791.00000    13.00264    58.91559    45.45663
6791.50000    13.00640    60.64292    46.70243
6792.00000    13.01015    62.37025    47.94823
6792.50000    13.01390    63.49872    49.19403
