###############################################
##         ENVERUS                           ##
##         ESS - Open Hole                   ##
##         PERMIAN / DELAWARE                ##
##         Nov 04 2023  V4.0                 ##
##         42-389-32398-00-00                ##
###############################################
## Copyright 2017-2023  ENVERUS.  All Rights Reserved. 
## Confidential - Property of ENVERUS, use governed by terms and 
## conditions found within the existing Information Services Subscription Agreement 
## (as may be amended, the “ISSA”) between Customer and ENVERUS. 
## 
~VERSION INFORMATION
# MNEM.UNIT                               DATA : DESCRIPTION OF MNEMONIC
#-----.-----     ----------------------------- : -----------------------------
VERS.                                     2.00 : CWLS LOG ASCII STANDARD - VERSION 2.00
WRAP.                                       NO : MULTIPLE LINES PER DEPTH STEP
VEND.                                  ENVERUS : VENDOR
TYPE.                          ESS - OPEN HOLE : ENVERUS ESSENTIAL CURVES – ACCESSIBLE THROUGH ENVERUS PRISM(TM)
DOC.                                  31812117 : ENVERUS HEADER RAW DOCUMENT ID
#___________________________________________________________________________________________________ 
~WELL INFORMATION 
# uAwnbjLw6pKN5CeTb7gwROLhNOHLu74gercCwdGpUdKCBCGOTLsJuzWIBCYkU6KzQxtC+uHRBloynRtd0Ulspg== 
# MNEM.UNIT                                              DATA : DESCRIPTION OF MNEMONIC 
#-----.-----                    ----------------------------- : ----------------------------- 
CNTY.                                                  REEVES : COUNTY 
STATE.                                                  TEXAS : STATE 
CNTRY.                                                    USA : COUNTRY 
API.                                             42-389-32398 : API (10 Digit) 
API_14.                                    42-389-32398-00-00 : API (14 Digits) 
API_14_std.                                 42-389-32398-0000 : API (14 Digits Standard) 
UWI.                                           42389323980000 : UNIQUE WELL ID 
WELL.                                    BLOCK 58 STATE 32  1 : WELL NAME
STRT.FT                                                8311.0 : START DEPTH
STOP.FT                                               12834.0 : STOP DEPTH
STEP.FT                                                   0.5 : STEP BETWEEN DEPTHS
NULL.                                                 -999.25 : NULL VALUE
COMP.                                       SHELL WESTERN E&P : COMPANY 
DATE.                                             08-FEB-2006 : LOG DATE
#___________________________________________________________________________________________________ 
~CURVE INFORMATION 
# MNEM.UNIT           : CURVE DESCRIPTION 
#-----.-----          : ----------------------------- 
 DEPT.FT               : MEASURED DEPTH 
 CALI__B.IN            : CALIPER (CAL - CAL) 
 GR__B.API             : GAMMA RAY (GR) 
 DT__B.US/FT           : SONIC DELTA TRANSIT TIME (DT) 
 RESS__B.OHMM          : SHALLOW INDUCTION RESISTIVITY (ILS - ILS) 
 RESD__B.OHMM          : DEEP INDUCTION RESISTIVITY (ILD - ILD) 
 #___________________________________________________________________________________________________ 
~A         DEPT        CALI__B          GR__B          DT__B        RESS__B        RESD__B
# ...
        12535.0          8.204        276.446         74.670         73.234        120.505
        12535.5          8.199        272.689         74.456         71.522        107.161
        12536.0          8.194        268.931         74.132         69.811         96.940
        12536.5          8.190        266.176         73.501         68.829         90.711
        12537.0          8.191        263.807         73.401         68.096         97.527
        12537.5          8.197        257.293         73.438         67.880        111.000
        12538.0          8.203        249.187         73.491         65.234        107.452
        12538.5          8.209        241.081         73.736         58.046         87.833
        12539.0          8.215        232.974         74.159         65.764         87.575
        12539.5          8.221        227.650         74.582         65.723         90.942
        12540.0          8.227        224.602         75.005         69.723        100.858
        12540.5          8.233        231.748         75.257         68.122        101.337
        12541.0          8.239        238.927         75.307         65.855         93.311
        12541.5          8.246        246.106         75.822         64.859         86.389
        12542.0          8.260        248.419         76.426         66.813         85.330
        12542.5          8.274        242.402         76.658         66.713         84.271
        12543.0          8.288        236.386         76.571         65.101         83.212
        12543.5          8.301        235.336         76.597         65.171         85.311
        12544.0          8.315        239.218         76.684         66.908         87.913
        12544.5          8.329        243.100         76.458         66.909         90.514
        12545.0          8.343        233.924         76.133         69.490         93.116
        12545.5          8.357        221.491         76.012         70.370         95.717
        12546.0          8.335        213.872         75.891         70.875        104.109
        12546.5          8.313        213.282         75.773         73.462        113.972
        12547.0          8.306        212.693         75.656         74.956        115.006
        12547.5          8.318        212.103         75.684         74.340        113.466
        12548.0          8.330        208.361         75.863         74.204        111.926
        12548.5          8.342        199.729         76.052         76.021        109.291
        12549.0          8.354        193.822         76.241         75.713        106.254
        12549.5          8.366        198.975         76.163         75.406        103.218
        12550.0          8.378        204.127         75.805         74.415        100.182
        12550.5          8.390        209.279         75.448         72.145         97.146
        12551.0          8.385        211.852         75.193         70.916         94.330
        12551.5          8.371        209.380         75.034         70.193         92.728
        12552.0          8.357        196.953         74.875         70.578         91.125
        12552.5          8.342        184.526         75.036         67.651         88.908
        12553.0          8.328        172.098         75.840         64.893         81.743
        12553.5          8.314        166.529         76.645         62.653         74.579
        12554.0          8.299        166.719         77.344         62.111         67.414
        12554.5          8.284        170.239         77.963         58.363         60.250
        12555.0          8.269        174.835         78.582         53.954         54.942
        12555.5          8.254        179.430         79.077         50.869         52.313
        12556.0          8.239        183.389         79.552         48.535         49.685
        12556.5          8.224        183.726         79.290         47.004         47.056
        12557.0          8.208        184.545         77.993         45.722         46.966
        12557.5          8.193        188.387         76.655         45.618         49.570
        12558.0          8.190        190.546         75.375         52.581         60.758
        12558.5          8.190        179.587         74.971         55.529         71.945
        12559.0          8.190        177.877         74.909         60.122         83.132
        12559.5          8.190        179.117         75.099         64.871         94.320
        12560.0          8.190        189.648         75.492         69.520        105.507
        12560.5          8.190        200.179         76.014         73.196        116.695
        12561.0          8.191        210.711         76.182         76.872        127.839
        12561.5          8.201        219.246         76.440         80.549        135.871
        12562.0          8.212        214.440         77.285         82.480        131.592
        12562.5          8.222        209.633         78.015         79.069        123.176
        12563.0          8.233        204.644         78.540         75.510        118.221
        12563.5          8.243        194.562         78.943         74.698        115.668
        12564.0          8.248        184.480         79.130         73.949        111.831
        12564.5          8.250        174.398         79.312         73.329        106.324
        12565.0          8.252        164.316         79.207         70.311        100.663
        12565.5          8.254        154.234         78.575         62.206         88.629
        12566.0          8.256        147.580         77.595         52.244         76.595
        12566.5          8.257        143.545         76.802         46.897         70.543
        12567.0          8.259        139.509         76.439         43.022         85.184
        12567.5          8.261        140.344         76.085         39.448         99.825
        12568.0          8.263        146.753         75.972         39.245        108.877
        12568.5          8.265        173.550         76.340         39.467         95.157
        12569.0          8.267        203.045         76.707         38.638         77.866
        12569.5          8.269        232.539         77.159         27.598         55.558
        12570.0          8.271        262.033         77.905         19.875         33.250
        12570.5          8.273        289.056         78.650         13.971         12.264
        12571.0          8.275        296.653         79.366          8.068          9.884
        12571.5          8.277        296.665         79.771          7.783         15.253
        12572.0          8.279        296.677         79.771         17.571         31.892
        12572.5          8.281        296.689         79.894         38.530         51.389
        12573.0          8.283        296.701         79.906         48.946         84.354
        12573.5          8.285        296.713         78.301         43.032        111.038
        12574.0          8.287        296.725         76.783         42.317        107.797
        12574.5          8.289        296.736         75.357         41.927         96.526
        12575.0          8.291        296.748         74.495         40.351         73.099
        12575.5          8.293        296.760         74.464         38.002         49.672
        12576.0          8.295        296.772         75.222         33.745         39.381
        12576.5          8.297        296.784         76.356         31.519         36.669
        12577.0          8.299        296.796         77.490         36.198         40.477
        12577.5          8.301        296.808         78.560         38.470         44.286
        12578.0          8.303        296.820         79.204         41.647         48.094
        12578.5          8.304        296.832         79.269         45.956         51.471
