#--------------------------------------------------#
#-------------------ENVERUS, INC.------------------#
#------------------WWW.ENVERUS.COM-----------------#
#------------------COPYRIGHT 2020------------------#
#--------------------------------------------------#
#THIS FILE MAY BE USED ONLY IN ACCORDANCE WITH A CURRENT SUBSCRIPTION AGREEMENT BETWEEN
#THE USER AND ENVERUS, INC. NO PART OF THIS FILE MAY BE REPRODUCED, USED, COPIED,
#MODIFIED, PROPAGATED, OR DISTRIBUTED EXCEPT IN ACCORDANCE WITH THE SUBSCRIPTION
#AGREEMENT. UNAUTHORIZED USE OR DISTRIBUTION OF ALL OR ANY PART OF THIS FILE MAY VIOLATE
#COPYRIGHT, TRADEMARK, AND/OR OTHER LAWS AND IS SUBJECT TO CIVIL AS WELL AS CRIMINAL
#SANCTIONS.
#--------------------------------------------------#
#THIS FILE IS PROVIDED "AS-IS" AND ALL WARRANTIES ARE EXPRESSLY DISCLAIMED, WHETHER
#EXPRESS, ORAL, IMPLIED, STATUTORY OR OTHERWISE, INCLUDING ANY IMPLIED WARRANTY OF FITNESS
#FOR A PARTICULAR PURPOSE, MERCHANTABILITY, TITLE OR NON-INFRINGEMENT, AND ANY WARRANTIES
#ARISING BY VIRTUE OF CUSTOM OF TRADE OR COURSE OF DEALING.  FURTHER, ENVERUS, INC.
#AND ITS LICENSORS DO NOT REPRESENT OR WARRANT THAT THIS FILE WILL MEET USER'S
#REQUIREMENTS OR ARE SUITABLE FOR USER'S NEEDS OR THAT THE DATA OR RESULTS PROVIDED IN
#CONJUNCTION THEREWITH ARE CORRECT, ACCURATE, TIMELY OR RELIABLE. THESE DISCLAIMERS SHALL
#APPLY REGARDLESS OF ANY FAILURE OF ESSENTIAL PURPOSE OF ANY LIMITED REMEDY.  SOME
#JURISDICTIONS DO NOT ALLOW THE EXCLUSION OF CERTAIN WARRANTIES SO SOME OF THE ABOVE
#EXCLUSIONS MAY NOT APPLY. IN NO EVENT SHALL ENVERUS, INC. OR ANY OF ITS AFFILIATES
#BE LIABLE UNDER ANY LEGAL THEORY, WHETHER IN TORT (INCLUDING WITHOUT LIMITATION
#NEGLIGENCE), CONTRACT, STRICT LIABILITY, STATUTORY OR OTHERWISE, FOR ANY SPECIAL,
#INCIDENTAL, CONSEQUENTIAL, EXEMPLARY, PUNITIVE OR INDIRECT DAMAGE OF ANY KIND, INCLUDING
#WITHOUT LIMITATION LOSS OF REVENUE, PROFITS, GOODWILL, USE, AND/OR DATA OR THE COST OF
#PROCUREMENT OF SUBSTITUTE GOODS OR SERVICES, EVEN IF APPRISED OF THE POSSIBILITY OF SUCH
#DAMAGES IN ADVANCE.
#--------------------------------------------------#

~VERSION INFORMATION
VERS. 2.0 : CWLS LOG ASCII STANDARD - VERSION 2.0
WRAP.  NO : ONE LINE PER DEPTH STEP
~WELL INFORMATION
#MNEMONIC     .UNIT              VALUE :DESCRIPTION
STRT       .FT                47 :START DEPTH
STOP       .FT                15730 :STOP DEPTH
STEP       .FT                   0.500 :STEP
NULL       .                  -999.250 :NULL
UWI        .              42389303580000 :UNIQUE WELL ID
API        .              42389303580000 :API NUMBER
COMP       .         CIMAREX ENERGY CO. OF COLORADO :COMPANY
WELL       .        REEVES  AZ  FEE  1 :WELL
DATE       .                08-JAN-2006 :LOG DATE
~CURVE INFORMATION
#MNEMONIC     .UNIT      API CODE :CURVE DESCRIPTION
DEPTH       .FT                      :MEASURED DEPTH
NEUT.API        UNKNOWN   :NEUT
GR.API        UNKNOWN   :GR
DT.US/FT        UNKNOWN   :DT
CAL.INCH        UNKNOWN   :CAL
~A    DEPTH    NEUT    GR    DT    CAL
# ...
 5053     -999.250   86.549   65.857   12.781
 5053.5     -999.250   77.553   64.747   12.789
 5054     -999.250   68.557   61.895   12.796
 5054.5     -999.250   59.561   58.166   12.804
 5055     -999.250   50.565   57.306   12.811
 5055.5     -999.250   48.537   56.446   12.819
 5056     -999.250   50.777   55.586   12.826
 5056.5     -999.250   52.717   56.204   12.834
 5057     -999.250   54.657   57.237   12.841
 5057.5     -999.250   56.597   58.443   12.849
 5058     -999.250   57.26   59.649   12.856
 5058.5     -999.250   56.739   60.855   12.864
 5059     -999.250   56.218   62.035   12.871
 5059.5     -999.250   55.692   60.208   12.879
 5060     -999.250   55.141   58.381   12.886
 5060.5     -999.250   54.589   59.267   12.894
 5061     -999.250   54.038   60.569   12.901
 5061.5     -999.250   53.486   61.871   12.909
 5062     -999.250   52.935   63.173   12.917
 5062.5     -999.250   52.383   64.476   12.924
 5063     -999.250   51.919   63.241   12.932
 5063.5     -999.250   54.519   61.985   12.939
 5064     -999.250   57.12   64.489   12.947
 5064.5     -999.250   59.721   65.292   12.954
 5065     -999.250   62.321   64.898   12.962
 5065.5     -999.250   64.922   64.504   12.969
 5066     -999.250   70.159   64.11   12.977
 5066.5     -999.250   78.054   66.153   12.984
 5067     -999.250   85.948   65.671   12.992
 5067.5     -999.250   93.835   65.189   12.999
 5068     -999.250   101.291   64.707   13.007
 5068.5     -999.250   108.747   64.225   13.014
 5069     -999.250   116.204   63.742   13.003
 5069.5     -999.250   111.45   64.473   12.974
 5070     -999.250   106.42   65.507   12.945
 5070.5     -999.250   101.391   66.541   12.916
 5071     -999.250   96.071   66.153   12.886
 5071.5     -999.250   90.615   64.474   12.857
 5072     -999.250   85.159   62.795   12.828
 5072.5     -999.250   79.539   61.117   12.799
 5073     -999.250   77.047   61.871   12.77
 5073.5     -999.250   76.937   62.546   12.741
 5074     -999.250   76.826   60.313   12.764
 5074.5     -999.250   76.715   58.081   12.788
 5075     -999.250   76.605   57.925   12.811
 5075.5     -999.250   76.494   59.58   12.834
 5076     -999.250   76.384   58.778   12.858
 5076.5     -999.250   76.273   57.975   12.881
 5077     -999.250   75.464   59.537   12.904
 5077.5     -999.250   74.15   64.228   12.927
 5078     -999.250   72.837   65.774   12.951
 5078.5     -999.250   71.523   65.619   12.974
 5079     -999.250   70.209   65.463   12.997
 5079.5     -999.250   68.896   65.308   13.014
 5080     -999.250   67.582   65.119   13.011
 5080.5     -999.250   66.268   64.906   13.007
 5081     -999.250   64.955   64.694   13.004
 5081.5     -999.250   63.641   64.481   13
 5082     -999.250   62.327   64.268   12.997
 5082.5     -999.250   60.975   64.056   12.993
 5083     -999.250   59.526   63.783   12.989
 5083.5     -999.250   58.076   63.093   12.986
 5084     -999.250   56.626   62.403   12.982
 5084.5     -999.250   55.177   61.713   12.979
 5085     -999.250   53.727   61.023   12.975
 5085.5     -999.250   52.278   61.677   12.972
 5086     -999.250   50.828   62.345   12.968
 5086.5     -999.250   50.826   63.013   12.965
 5087     -999.250   51.295   63.465   12.961
 5087.5     -999.250   51.764   63.511   12.958
 5088     -999.250   52.233   63.556   12.954
 5088.5     -999.250   53.184   63.506   12.951
 5089     -999.250   57.761   63.454   12.947
 5089.5     -999.250   61.866   63.228   12.944
 5090     -999.250   65.271   62.996   12.94
 5090.5     -999.250   68.677   62.763   12.936
 5091     -999.250   72.251   62.53   12.933
 5091.5     -999.250   79.073   63.424   12.929
 5092     -999.250   81.958   64.473   12.926
 5092.5     -999.250   84.843   65.501   12.922
 5093     -999.250   87.728   66.467   12.917
 5093.5     -999.250   90.613   67.433   12.905
 5094     -999.250   89.296   67.598   12.893
 5094.5     -999.250   87.309   67.288   12.882
 5095     -999.250   85.322   66.978   12.87
 5095.5     -999.250   83.334   66.668   12.858
 5096     -999.250   84.204   66.759   12.846
 5096.5     -999.250   86.361   67.192   12.834
 5097     -999.250   88.517   67.624   12.822
 5097.5     -999.250   90.673   68.057   12.811
 5098     -999.250   92.557   67.427   12.799
 5098.5     -999.250   101.652   66.64   12.787
 5099     -999.250   115.861   66.333   12.775
 5099.5     -999.250   130.069   66.604   12.763
 5100     -999.250   144.277   66.858   12.751
 5100.5     -999.250   152.077   66.977   12.74
 5101     -999.250   155.147   67.095   12.728
 5101.5     -999.250   158.218   66.038   12.716
 5102     -999.250   161.289   63.327   12.704
 5102.5     -999.250   164.359   60.615   12.692
 5103     -999.250   167.43   59.951   12.68
 5103.5     -999.250   170.501   61.42   12.669
 5104     -999.250   165.129   64.554   12.657
 5104.5     -999.250   157.074   68.827   12.645
 5105     -999.250   149.019   68.151   12.633
 5105.5     -999.250   140.965   67.227   12.621
 5106     -999.250   132.91   65.791   12.609
 5106.5     -999.250   124.855   64.355   12.598
 5107     -999.250   116.801   63.897   12.614
 5107.5     -999.250   108.746   68.574   12.641
 5108     -999.250   100.691   68.807   12.669
 5108.5     -999.250   94.407   66.821   12.696
 5109     -999.250   90.901   65.01   12.723
 5109.5     -999.250   87.396   64.094   12.75
 5110     -999.250   83.89   65.48   12.778
 5110.5     -999.250   82.971   67.523   12.805
 5111     -999.250   83.413   67.363   12.832
 5111.5     -999.250   83.855   66.849   12.86
 5112     -999.250   84.297   66.335   12.887
 5112.5     -999.250   84.739   65.82   12.914
 5113     -999.250   85.181   65.251   12.941
 5113.5     -999.250   84.309   64.663   12.969
 5114     -999.250   83.006   64.076   12.996
 5114.5     -999.250   81.702   63.488   12.993
 5115     -999.250   80.399   64.877   12.973
 5115.5     -999.250   79.096   66.321   12.953
 5116     -999.250   77.792   66.593   12.932
 5116.5     -999.250   76.636   66.367   12.912
 5117     -999.250   77.987   66.141   12.892
 5117.5     -999.250   79.339   65.915   12.871
 5118     -999.250   80.69   65.183   12.851
 5118.5     -999.250   82.042   64.43   12.831
 5119     -999.250   83.393   63.678   12.811
 5119.5     -999.250   84.745   63.387   12.79
 5120     -999.250   86.489   65.217   12.77
 5120.5     -999.250   89.221   66.464   12.75
 5121     -999.250   91.954   67.71   12.729
 5121.5     -999.250   91.387   68.957   12.709
 5122     -999.250   89.611   70.203   12.689
 5122.5     -999.250   87.836   69.809   12.685
 5123     -999.250   86.06   69.355   12.69
 5123.5     -999.250   88.804   68.9   12.694
 5124     -999.250   95.196   68.446   12.698
 5124.5     -999.250   101.588   67.991   12.703
 5125     -999.250   110.264   67.751   12.707
 5125.5     -999.250   119.034   68.632   12.711
 5126     -999.250   127.804   69.084   12.716
 5126.5     -999.250   136.574   69.535   12.72
 5127     -999.250   145.344   69.987   12.724
 5127.5     -999.250   150.887   70.438   12.729
 5128     -999.250   148.574   70.89   12.733
 5128.5     -999.250   146.26   71.342   12.737
 5129     -999.250   143.947   71.793   12.742
 5129.5     -999.250   141.633   72.245   12.746
 5130     -999.250   139.32   71.598   12.75
 5130.5     -999.250   137.007   69.811   12.755
 5131     -999.250   134.693   69.488   12.759
 5131.5     -999.250   130.12   69.748   12.763
 5132     -999.250   121.666   70.008   12.768
 5132.5     -999.250   113.213   70.268   12.772
 5133     -999.250   104.759   70.528   12.781
 5133.5     -999.250   91.445   70.751   12.79
 5134     -999.250   76.741   68.361   12.8
 5134.5     -999.250   70.768   65.971   12.809
 5135     -999.250   68.226   64.537   12.818
 5135.5     -999.250   65.684   63.276   12.827
 5136     -999.250   64.929   63.435   12.836
 5136.5     -999.250   64.623   64.073   12.845
 5137     -999.250   64.317   64.71   12.854
 5137.5     -999.250   64.01   65.348   12.863
 5138     -999.250   63.704   65.847   12.872
