#--------------------------------------------------#
#-------------------ENVERUS, INC.------------------#
#------------------WWW.ENVERUS.COM-----------------#
#------------------COPYRIGHT 2020------------------#
#--------------------------------------------------#
#THIS FILE MAY BE USED ONLY IN ACCORDANCE WITH A CURRENT SUBSCRIPTION AGREEMENT BETWEEN
#THE USER AND ENVERUS, INC. NO PART OF THIS FILE MAY BE REPRODUCED, USED, COPIED,
#MODIFIED, PROPAGATED, OR DISTRIBUTED EXCEPT IN ACCORDANCE WITH THE SUBSCRIPTION
#AGREEMENT. UNAUTHORIZED USE OR DISTRIBUTION OF ALL OR ANY PART OF THIS FILE MAY VIOLATE
#COPYRIGHT, TRADEMARK, AND/OR OTHER LAWS AND IS SUBJECT TO CIVIL AS WELL AS CRIMINAL
#SANCTIONS.
#--------------------------------------------------#
#THIS FILE IS PROVIDED "AS-IS" AND ALL WARRANTIES ARE EXPRESSLY DISCLAIMED, WHETHER
#EXPRESS, ORAL, IMPLIED, STATUTORY OR OTHERWISE, INCLUDING ANY IMPLIED WARRANTY OF FITNESS
#FOR A PARTICULAR PURPOSE, MERCHANTABILITY, TITLE OR NON-INFRINGEMENT, AND ANY WARRANTIES
#ARISING BY VIRTUE OF CUSTOM OF TRADE OR COURSE OF DEALING.  FURTHER, ENVERUS, INC.
#AND ITS LICENSORS DO NOT REPRESENT OR WARRANT THAT THIS FILE WILL MEET USER'S
#REQUIREMENTS OR ARE SUITABLE FOR USER'S NEEDS OR THAT THE DATA OR RESULTS PROVIDED IN
#CONJUNCTION THEREWITH ARE CORRECT, ACCURATE, TIMELY OR RELIABLE. THESE DISCLAIMERS SHALL
#APPLY REGARDLESS OF ANY FAILURE OF ESSENTIAL PURPOSE OF ANY LIMITED REMEDY.  SOME
#JURISDICTIONS DO NOT ALLOW THE EXCLUSION OF CERTAIN WARRANTIES SO SOME OF THE ABOVE
#EXCLUSIONS MAY NOT APPLY. IN NO EVENT SHALL ENVERUS, INC. OR ANY OF ITS AFFILIATES
#BE LIABLE UNDER ANY LEGAL THEORY, WHETHER IN TORT (INCLUDING WITHOUT LIMITATION
#NEGLIGENCE), CONTRACT, STRICT LIABILITY, STATUTORY OR OTHERWISE, FOR ANY SPECIAL,
#INCIDENTAL, CONSEQUENTIAL, EXEMPLARY, PUNITIVE OR INDIRECT DAMAGE OF ANY KIND, INCLUDING
#WITHOUT LIMITATION LOSS OF REVENUE, PROFITS, GOODWILL, USE, AND/OR DATA OR THE COST OF
#PROCUREMENT OF SUBSTITUTE GOODS OR SERVICES, EVEN IF APPRISED OF THE POSSIBILITY OF SUCH
#DAMAGES IN ADVANCE.
#--------------------------------------------------#

~VERSION INFORMATION
VERS. 2.0 : CWLS LOG ASCII STANDARD - VERSION 2.0
WRAP.  NO : ONE LINE PER DEPTH STEP
~WELL INFORMATION
#MNEMONIC     .UNIT              VALUE :DESCRIPTION
STRT       .FT                0 :START DEPTH
STOP       .FT                13134 :STOP DEPTH
STEP       .FT                   0.500 :STEP
NULL       .                  -999.250 :NULL
UWI        .              42389303540000 :UNIQUE WELL ID
API        .              42389303540000 :API NUMBER
COMP       .         SMC OIL & GAS  INC. :COMPANY
WELL       .        TIFFANY STATE  1 :WELL
DATE       .                18-OCT-1995 :LOG DATE
~CURVE INFORMATION
#MNEMONIC     .UNIT      API CODE :CURVE DESCRIPTION
DEPTH       .FT                      :MEASURED DEPTH
DT.US/FT        UNKNOWN   :DT
CAL.INCH        UNKNOWN   :CAL
GR.API        UNKNOWN   :GR
~A    DEPTH    DT    CAL    GR
# ...
 4210.5     70.009   10.232   114.295
 4211     67.732   10.247   106.321
 4211.5     66.659   10.261   98.346
 4212     65.587   10.276   90.371
 4212.5     65.215   10.29   82.397
 4213     65.005   10.305   84.828
 4213.5     68.356   10.319   92.734
 4214     70.322   10.333   100.64
 4214.5     70.049   10.348   108.545
 4215     69.776   10.362   111.754
 4215.5     69.5   10.377   105.679
 4216     68.716   10.391   99.604
 4216.5     67.931   10.406   93.529
 4217     67.146   10.42   87.193
 4217.5     66.125   10.434   80.754
 4218     64.153   10.386   74.314
 4218.5     62.953   10.328   67.875
 4219     62.5   10.27   61.436
 4219.5     62.047   10.275   54.996
 4220     62.419   10.294   53.126
 4220.5     63.47   10.313   54.206
 4221     64.034   10.332   55.286
 4221.5     64.232   10.351   56.366
 4222     64.429   10.37   57.446
 4222.5     64.608   10.389   58.526
 4223     64.488   10.408   58.639
 4223.5     65.997   10.427   57.579
 4224     65.835   10.446   56.519
 4224.5     65.672   10.458   55.459
 4225     65.51   10.465   54.398
 4225.5     65.348   10.472   53.338
 4226     65.185   10.479   53.77
 4226.5     65.511   10.486   54.318
 4227     65.854   10.493   54.865
 4227.5     66.229   10.501   55.413
 4228     66.745   10.508   55.96
 4228.5     67.261   10.515   56.507
 4229     67.777   10.522   57.055
 4229.5     68.357   10.503   57.191
 4230     69.785   10.483   55.76
 4230.5     71.213   10.463   54.33
 4231     70.692   10.443   52.899
 4231.5     69.763   10.422   49.886
 4232     68.833   10.402   46.131
 4232.5     67.903   10.382   42.377
 4233     67.052   10.391   38.622
 4233.5     68.691   10.402   39.954
 4234     72.752   10.413   41.732
 4234.5     73.29   10.423   43.509
 4235     73.248   10.434   45.286
 4235.5     73.037   10.445   47.063
 4236     72.825   10.456   46.177
 4236.5     72.614   10.467   45.089
 4237     72.402   10.478   44.001
 4237.5     72.191   10.489   42.913
 4238     71.979   10.5   41.826
 4238.5     71.768   10.511   40.738
 4239     71.556   10.515   40.993
 4239.5     71.345   10.475   42.073
 4240     71.134   10.434   43.153
 4240.5     71.201   10.394   44.233
 4241     71.525   10.353   45.313
 4241.5     70.498   10.312   46.394
 4242     69.095   10.274   46.395
 4242.5     67.294   10.326   45.155
 4243     65.379   10.379   43.914
 4243.5     63.465   10.432   42.674
 4244     64.507   10.485   41.433
 4244.5     66.128   10.537   47.703
 4245     67.748   10.536   56.537
 4245.5     69.369   10.509   65.372
 4246     70.989   10.482   76.015
 4246.5     72.61   10.455   89.485
 4247     71.845   10.428   97.361
 4247.5     70.566   10.411   89.671
 4248     69.286   10.407   81.98
 4248.5     68.006   10.403   74.29
 4249     68.17   10.399   66.6
 4249.5     70.045   10.395   72.588
 4250     71.921   10.391   85.182
 4250.5     73.797   10.386   97.776
 4251     74.479   10.382   114.417
 4251.5     73.486   10.378   127.005
 4252     72.494   10.343   131.526
 4252.5     71.581   10.289   135.591
 4253     70.839   10.234   137.435
 4253.5     72.638   10.18   141.639
 4254     75.066   10.126   168.51
 4254.5     77.179   10.103   175.326
 4255     76.684   10.126   167.971
 4255.5     76.188   10.149   160.617
 4256     75.553   10.172   153.263
 4256.5     74.031   10.195   145.908
 4257     72.509   10.218   136.705
 4257.5     70.987   10.241   126.244
 4258     70.209   10.264   118.975
 4258.5     69.384   10.287   110.52
 4259     68.338   10.307   102.065
 4259.5     67.292   10.327   93.61
 4260     66.246   10.346   85.155
 4260.5     65.2   10.366   76.699
 4261     64.346   10.386   68.189
 4261.5     64.899   10.406   59.675
 4262     65.492   10.426   55.318
 4262.5     66.085   10.446   55.166
 4263     66.678   10.466   55.014
 4263.5     67.025   10.486   54.862
 4264     67.337   10.505   54.661
 4264.5     67.603   10.525   54.408
 4265     67.378   10.545   54.155
 4265.5     67.153   10.565   53.902
 4266     66.928   10.585   53.8
 4266.5     67.199   10.568   53.862
 4267     67.584   10.55   53.924
 4267.5     67.968   10.531   54.16
 4268     68.352   10.513   54.888
 4268.5     68.736   10.494   55.616
 4269     68.62   10.469   56.344
 4269.5     68.485   10.444   57.073
 4270     68.376   10.419   57.801
 4270.5     68.576   10.395   58.529
 4271     68.775   10.37   59.257
 4271.5     68.975   10.345   59.181
 4272     69.174   10.32   58.366
 4272.5     69.503   10.313   57.551
 4273     69.956   10.358   56.735
 4273.5     70.089   10.403   55.92
 4274     70.136   10.448   55.105
 4274.5     70.184   10.493   55.657
 4275     70.232   10.538   57.215
 4275.5     70.279   10.583   57.777
 4276     70.327   10.601   57.372
 4276.5     70.341   10.601   56.967
 4277     70.304   10.601   56.561
 4277.5     70.267   10.601   56.156
 4278     70.23   10.601   55.751
 4278.5     70.193   10.601   54.935
 4279     69.588   10.601   53.739
 4279.5     68.783   10.601   52.542
 4280     67.978   10.601   51.346
 4280.5     67.174   10.6   50.15
 4281     66.369   10.6   49.983
 4281.5     66.256   10.6   50.081
 4282     67.126   10.6   53.923
 4282.5     67.997   10.6   58.821
 4283     68.867   10.6   63.719
 4283.5     69.737   10.6   68.617
 4284     70.437   10.6   71.229
 4284.5     70.279   10.596   70.043
 4285     70.122   10.587   68.858
 4285.5     69.964   10.577   67.673
 4286     69.807   10.568   66.487
 4286.5     69.649   10.559   65.302
 4287     69.491   10.55   64.293
 4287.5     69.402   10.541   65.438
 4288     69.598   10.531   66.583
 4288.5     69.793   10.522   67.729
 4289     69.988   10.513   68.379
 4289.5     70.184   10.505   68.23
 4290     67.292   10.497   68.081
 4290.5     65.865   10.49   67.932
 4291     65.511   10.482   67.783
 4291.5     65.695   10.475   67.634
 4292     66.725   10.467   67.484
 4292.5     67.755   10.46   67.975
 4293     68.784   10.452   68.96
 4293.5     69.814   10.444   73.758
 4294     71.745   10.437   82.105
 4294.5     73.958   10.429   125.097
 4295     76.087   10.422   142.074
 4295.5     74.247   10.369   130.367
 4296     72.408   10.31   119.534
 4296.5     70.306   10.252   109.472
 4297     67.965   10.193   99.41
 4297.5     65.625   10.134   89.348
 4298     62.794   10.075   79.286
 4298.5     65.615   10.016   80.437
 4299     68.881   9.96   98.379
 4299.5     72.146   9.948   116.322
 4300     74.407   9.936   133.558
 4300.5     74.166   9.924   150.026
 4301     72.744   9.912   146.318
 4301.5     71.263   9.91   137.608
 4302     69.52   9.914   128.898
 4302.5     67.777   9.918   122.062
 4303     66.407   9.921   116.222
 4303.5     65.911   9.925   111.708
 4304     70.216   9.929   119.613
 4304.5     73.474   9.932   128.728
 4305     73.937   9.936   141.798
 4305.5     73.676   9.94   151.42
 4306     73.414   9.949   143.893
 4306.5     73.153   9.967   136.366
 4307     70.543   9.984   128.839
 4307.5     68.075   10.001   106.703
 4308     66.965   10.019   87.944
 4308.5     67.348   10.036   77.689
 4309     67.755   10.054   73.566
 4309.5     67.987   10.061   70.119
 4310     67.582   10.049   68.038
 4310.5     67.176   10.037   65.957
 4311     66.771   10.026   63.83
 4311.5     60.825   10.014   61.674
 4312     60.244   10.002   59.518
 4312.5     59.663   9.99   46.275
 4313     60.092   9.979   43.608
 4313.5     61.561   9.967   41.707
 4314     63.031   9.955   40.832
 4314.5     59.884   9.944   40.629
 4315     60.447   9.932   42.565
 4315.5     61.009   9.92   45.915
 4316     59.982   9.908   49.265
 4316.5     60.901   9.897   52.616
 4317     62.565   9.885   57.438
 4317.5     65.402   9.873   65.244
 4318     68.466   9.869   73.05
 4318.5     71.531   9.869   81.52
 4319     73.165   9.869   98.041
 4319.5     74.051   9.869   117.574
 4320     74.577   9.869   129.19
 4320.5     74.909   9.869   144.703
 4321     74.812   9.868   160.217
 4321.5     74.171   9.868   160.559
 4322     73.47   9.868   150.43
