#--------------------------------------------------#
#-------------------ENVERUS, INC.------------------#
#------------------WWW.ENVERUS.COM-----------------#
#------------------COPYRIGHT 2020------------------#
#--------------------------------------------------#
#THIS FILE MAY BE USED ONLY IN ACCORDANCE WITH A CURRENT SUBSCRIPTION AGREEMENT BETWEEN
#THE USER AND ENVERUS, INC. NO PART OF THIS FILE MAY BE REPRODUCED, USED, COPIED,
#MODIFIED, PROPAGATED, OR DISTRIBUTED EXCEPT IN ACCORDANCE WITH THE SUBSCRIPTION
#AGREEMENT. UNAUTHORIZED USE OR DISTRIBUTION OF ALL OR ANY PART OF THIS FILE MAY VIOLATE
#COPYRIGHT, TRADEMARK, AND/OR OTHER LAWS AND IS SUBJECT TO CIVIL AS WELL AS CRIMINAL
#SANCTIONS.
#--------------------------------------------------#
#THIS FILE IS PROVIDED "AS-IS" AND ALL WARRANTIES ARE EXPRESSLY DISCLAIMED, WHETHER
#EXPRESS, ORAL, IMPLIED, STATUTORY OR OTHERWISE, INCLUDING ANY IMPLIED WARRANTY OF FITNESS
#FOR A PARTICULAR PURPOSE, MERCHANTABILITY, TITLE OR NON-INFRINGEMENT, AND ANY WARRANTIES
#ARISING BY VIRTUE OF CUSTOM OF TRADE OR COURSE OF DEALING.  FURTHER, ENVERUS, INC.
#AND ITS LICENSORS DO NOT REPRESENT OR WARRANT THAT THIS FILE WILL MEET USER'S
#REQUIREMENTS OR ARE SUITABLE FOR USER'S NEEDS OR THAT THE DATA OR RESULTS PROVIDED IN
#CONJUNCTION THEREWITH ARE CORRECT, ACCURATE, TIMELY OR RELIABLE. THESE DISCLAIMERS SHALL
#APPLY REGARDLESS OF ANY FAILURE OF ESSENTIAL PURPOSE OF ANY LIMITED REMEDY.  SOME
#JURISDICTIONS DO NOT ALLOW THE EXCLUSION OF CERTAIN WARRANTIES SO SOME OF THE ABOVE
#EXCLUSIONS MAY NOT APPLY. IN NO EVENT SHALL ENVERUS, INC. OR ANY OF ITS AFFILIATES
#BE LIABLE UNDER ANY LEGAL THEORY, WHETHER IN TORT (INCLUDING WITHOUT LIMITATION
#NEGLIGENCE), CONTRACT, STRICT LIABILITY, STATUTORY OR OTHERWISE, FOR ANY SPECIAL,
#INCIDENTAL, CONSEQUENTIAL, EXEMPLARY, PUNITIVE OR INDIRECT DAMAGE OF ANY KIND, INCLUDING
#WITHOUT LIMITATION LOSS OF REVENUE, PROFITS, GOODWILL, USE, AND/OR DATA OR THE COST OF
#PROCUREMENT OF SUBSTITUTE GOODS OR SERVICES, EVEN IF APPRISED OF THE POSSIBILITY OF SUCH
#DAMAGES IN ADVANCE.
#--------------------------------------------------#

~VERSION INFORMATION
VERS. 2.0 : CWLS LOG ASCII STANDARD - VERSION 2.0
WRAP.  NO : ONE LINE PER DEPTH STEP
~WELL INFORMATION
#MNEMONIC     .UNIT              VALUE :DESCRIPTION
STRT       .FT                47 :START DEPTH
STOP       .FT                15730 :STOP DEPTH
STEP       .FT                   0.500 :STEP
NULL       .                  -999.250 :NULL
UWI        .              42389303580000 :UNIQUE WELL ID
API        .              42389303580000 :API NUMBER
COMP       .         CIMAREX ENERGY CO. OF COLORADO :COMPANY
WELL       .        REEVES  AZ  FEE  1 :WELL
DATE       .                08-JAN-2006 :LOG DATE
~CURVE INFORMATION
#MNEMONIC     .UNIT      API CODE :CURVE DESCRIPTION
DEPTH       .FT                      :MEASURED DEPTH
NEUT.API        UNKNOWN   :NEUT
GR.API        UNKNOWN   :GR
DT.US/FT        UNKNOWN   :DT
CAL.INCH        UNKNOWN   :CAL
~A    DEPTH    NEUT    GR    DT    CAL
# ...
 4366     -999.250   47.81   69.635   13.186
 4366.5     -999.250   48.12   69.813   13.183
 4367     -999.250   48.431   69.148   13.179
 4367.5     -999.250   48.742   68.483   13.176
 4368     -999.250   49.052   69.264   13.173
 4368.5     -999.250   49.363   70.468   13.17
 4369     -999.250   49.674   71.232   13.166
 4369.5     -999.250   49.84   69.233   13.163
 4370     -999.250   49.399   68.43   13.16
 4370.5     -999.250   48.958   69.482   13.156
 4371     -999.250   48.517   70.505   13.153
 4371.5     -999.250   48.077   71.177   13.15
 4372     -999.250   47.636   71.849   13.155
 4372.5     -999.250   47.195   72.436   13.17
 4373     -999.250   46.754   72.124   13.185
 4373.5     -999.250   46.791   71.812   13.201
 4374     -999.250   48.348   71.5   13.216
 4374.5     -999.250   49.904   71.188   13.231
 4375     -999.250   51.461   70.618   13.247
 4375.5     -999.250   53.042   69.562   13.262
 4376     -999.250   55.289   68.506   13.278
 4376.5     -999.250   57.535   69.117   13.293
 4377     -999.250   58.94   69.825   13.308
 4377.5     -999.250   59.546   70.533   13.324
 4378     -999.250   60.151   70.159   13.339
 4378.5     -999.250   60.757   69.735   13.354
 4379     -999.250   61.362   69.31   13.37
 4379.5     -999.250   61.486   68.954   13.361
 4380     -999.250   61.087   68.834   13.337
 4380.5     -999.250   60.688   68.714   13.314
 4381     -999.250   60.289   68.594   13.291
 4381.5     -999.250   59.89   68.474   13.268
 4382     -999.250   59.491   69.011   13.245
 4382.5     -999.250   59.091   69.677   13.222
 4383     -999.250   58.692   70.343   13.199
 4383.5     -999.250   58.293   70.746   13.176
 4384     -999.250   59.774   69.95   13.153
 4384.5     -999.250   62.125   69.155   13.13
 4385     -999.250   67.92   68.359   13.107
 4385.5     -999.250   73.715   67.564   13.083
 4386     -999.250   79.511   67.314   13.06
 4386.5     -999.250   85.306   67.892   13.037
 4387     -999.250   91.101   68.47   13.014
 4387.5     -999.250   96.896   69.048   12.991
 4388     -999.250   100.13   70.001   12.968
 4388.5     -999.250   94.691   71.092   12.945
 4389     -999.250   89.252   72.182   12.922
 4389.5     -999.250   87.214   72.433   12.914
 4390     -999.250   86.377   71.591   12.917
 4390.5     -999.250   85.54   70.748   12.921
 4391     -999.250   84.703   69.905   12.925
 4391.5     -999.250   84.678   69.959   12.928
 4392     -999.250   85.3   70.45   12.932
 4392.5     -999.250   85.923   70.94   12.936
 4393     -999.250   86.545   71.427   12.939
 4393.5     -999.250   87.557   70.862   12.943
 4394     -999.250   89.261   70.297   12.946
 4394.5     -999.250   90.965   69.733   12.95
 4395     -999.250   92.669   69.207   12.954
 4395.5     -999.250   94.373   68.792   12.957
 4396     -999.250   96.077   68.377   12.961
 4396.5     -999.250   96.688   68.491   12.965
 4397     -999.250   96.091   70.615   12.968
 4397.5     -999.250   95.493   72.74   12.972
 4398     -999.250   86.279   73.877   12.976
 4398.5     -999.250   69.891   74.407   12.979
 4399     -999.250   63.656   74.162   12.983
 4399.5     -999.250   58.297   73.439   12.986
 4400     -999.250   52.938   72.557   12.99
 4400.5     -999.250   47.578   71.586   12.994
 4401     -999.250   44.029   70.736   12.997
 4401.5     -999.250   43.729   69.886   13.026
 4402     -999.250   43.43   69.037   13.081
 4402.5     -999.250   43.278   68.187   13.136
 4403     -999.250   43.325   67.338   13.191
 4403.5     -999.250   43.373   68.483   13.246
 4404     -999.250   43.421   71.354   13.301
 4404.5     -999.250   43.469   74.226   13.356
 4405     -999.250   43.516   76.243   13.411
 4405.5     -999.250   43.564   75.216   13.466
 4406     -999.250   43.612   74.525   13.521
 4406.5     -999.250   43.659   73.833   13.575
 4407     -999.250   44.227   73.142   13.616
 4407.5     -999.250   45.106   72.591   13.609
 4408     -999.250   45.984   73.738   13.602
 4408.5     -999.250   46.863   74.885   13.595
 4409     -999.250   47.741   74.466   13.587
 4409.5     -999.250   48.591   73.578   13.58
 4410     -999.250   49.304   72.766   13.573
 4410.5     -999.250   50.018   74.274   13.565
 4411     -999.250   50.731   75.526   13.558
 4411.5     -999.250   51.444   73.258   13.551
 4412     -999.250   52.158   74.038   13.543
 4412.5     -999.250   52.871   74.818   13.536
 4413     -999.250   53.028   75.56   13.529
 4413.5     -999.250   52.526   74.888   13.522
 4414     -999.250   52.023   74.216   13.514
 4414.5     -999.250   51.521   73.847   13.507
 4415     -999.250   51.018   73.484   13.5
 4415.5     -999.250   50.516   73.12   13.492
 4416     -999.250   50.013   72.757   13.485
 4416.5     -999.250   49.511   73.103   13.478
 4417     -999.250   49.008   73.515   13.483
 4417.5     -999.250   48.506   73.927   13.491
 4418     -999.250   48.003   74.613   13.499
 4418.5     -999.250   47.86   75.502   13.507
 4419     -999.250   47.72   76.39   13.515
 4419.5     -999.250   47.579   76.198   13.523
 4420     -999.250   47.438   75.273   13.532
 4420.5     -999.250   47.297   74.347   13.54
 4421     -999.250   47.156   75.232   13.548
 4421.5     -999.250   47.016   76.426   13.556
 4422     -999.250   46.875   77.118   13.564
 4422.5     -999.250   46.734   77.4   13.572
 4423     -999.250   46.593   77.681   13.58
 4423.5     -999.250   46.452   77.49   13.588
 4424     -999.250   46.311   76.894   13.596
 4424.5     -999.250   45.972   76.297   13.604
 4425     -999.250   45.367   75.7   13.613
 4425.5     -999.250   44.761   75.186   13.621
 4426     -999.250   44.155   75.326   13.629
 4426.5     -999.250   43.549   75.467   13.637
 4427     -999.250   42.943   75.71   13.645
 4427.5     -999.250   42.337   76.999   13.653
 4428     -999.250   41.731   77.189   13.661
 4428.5     -999.250   41.412   76.022   13.669
 4429     -999.250   43.436   73.859   13.677
 4429.5     -999.250   44.732   71.319   13.686
 4430     -999.250   46.029   68.78   13.694
 4430.5     -999.250   47.326   69.283   13.702
 4431     -999.250   48.622   70.143   13.71
 4431.5     -999.250   49.919   71.004   13.718
 4432     -999.250   51.216   71.864   13.726
 4432.5     -999.250   53.403   71.955   13.734
 4433     -999.250   56.507   71.511   13.742
 4433.5     -999.250   59.61   71.115   13.75
 4434     -999.250   62.713   70.896   13.759
 4434.5     -999.250   65.817   70.678   13.767
 4435     -999.250   68.92   70.46   13.712
 4435.5     -999.250   72.024   70.241   13.642
 4436     -999.250   75.127   70.023   13.572
 4436.5     -999.250   78.23   69.804   13.503
 4437     -999.250   81.17   69.9   13.433
 4437.5     -999.250   84.015   70.376   13.363
 4438     -999.250   86.861   70.297   13.293
 4438.5     -999.250   89.707   69.541   13.265
 4439     -999.250   92.553   68.785   13.274
 4439.5     -999.250   95.399   68.815   13.283
 4440     -999.250   98.244   70.151   13.291
 4440.5     -999.250   96.612   71.355   13.3
 4441     -999.250   94.448   71.017   13.309
 4441.5     -999.250   92.284   70.68   13.317
 4442     -999.250   90.12   70.342   13.326
 4442.5     -999.250   87.956   69.998   13.335
 4443     -999.250   85.792   69.1   13.343
 4443.5     -999.250   82.332   68.203   13.352
 4444     -999.250   78.126   67.305   13.361
 4444.5     -999.250   73.92   66.849   13.369
 4445     -999.250   69.714   67.755   13.378
 4445.5     -999.250   65.508   68.328   13.387
 4446     -999.250   61.302   67.948   13.395
 4446.5     -999.250   56.418   67.567   13.404
 4447     -999.250   51.386   67.705   13.413
 4447.5     -999.250   46.355   69.16   13.421
 4448     -999.250   41.847   70.084   13.43
 4448.5     -999.250   42.69   71.009   13.439
 4449     -999.250   43.533   68.265   13.418
 4449.5     -999.250   44.376   63.414   13.389
 4450     -999.250   45.219   64.148   13.36
 4450.5     -999.250   46.062   64.881   13.331
 4451     -999.250   46.905   65.615   13.302
 4451.5     -999.250   47.847   66.622   13.273
