#--------------------------------------------------#
#-------------------ENVERUS, INC.------------------#
#------------------WWW.ENVERUS.COM-----------------#
#------------------COPYRIGHT 2020------------------#
#--------------------------------------------------#
#THIS FILE MAY BE USED ONLY IN ACCORDANCE WITH A CURRENT SUBSCRIPTION AGREEMENT BETWEEN
#THE USER AND ENVERUS, INC. NO PART OF THIS FILE MAY BE REPRODUCED, USED, COPIED,
#MODIFIED, PROPAGATED, OR DISTRIBUTED EXCEPT IN ACCORDANCE WITH THE SUBSCRIPTION
#AGREEMENT. UNAUTHORIZED USE OR DISTRIBUTION OF ALL OR ANY PART OF THIS FILE MAY VIOLATE
#COPYRIGHT, TRADEMARK, AND/OR OTHER LAWS AND IS SUBJECT TO CIVIL AS WELL AS CRIMINAL
#SANCTIONS.
#--------------------------------------------------#
#THIS FILE IS PROVIDED "AS-IS" AND ALL WARRANTIES ARE EXPRESSLY DISCLAIMED, WHETHER
#EXPRESS, ORAL, IMPLIED, STATUTORY OR OTHERWISE, INCLUDING ANY IMPLIED WARRANTY OF FITNESS
#FOR A PARTICULAR PURPOSE, MERCHANTABILITY, TITLE OR NON-INFRINGEMENT, AND ANY WARRANTIES
#ARISING BY VIRTUE OF CUSTOM OF TRADE OR COURSE OF DEALING.  FURTHER, ENVERUS, INC.
#AND ITS LICENSORS DO NOT REPRESENT OR WARRANT THAT THIS FILE WILL MEET USER'S
#REQUIREMENTS OR ARE SUITABLE FOR USER'S NEEDS OR THAT THE DATA OR RESULTS PROVIDED IN
#CONJUNCTION THEREWITH ARE CORRECT, ACCURATE, TIMELY OR RELIABLE. THESE DISCLAIMERS SHALL
#APPLY REGARDLESS OF ANY FAILURE OF ESSENTIAL PURPOSE OF ANY LIMITED REMEDY.  SOME
#JURISDICTIONS DO NOT ALLOW THE EXCLUSION OF CERTAIN WARRANTIES SO SOME OF THE ABOVE
#EXCLUSIONS MAY NOT APPLY. IN NO EVENT SHALL ENVERUS, INC. OR ANY OF ITS AFFILIATES
#BE LIABLE UNDER ANY LEGAL THEORY, WHETHER IN TORT (INCLUDING WITHOUT LIMITATION
#NEGLIGENCE), CONTRACT, STRICT LIABILITY, STATUTORY OR OTHERWISE, FOR ANY SPECIAL,
#INCIDENTAL, CONSEQUENTIAL, EXEMPLARY, PUNITIVE OR INDIRECT DAMAGE OF ANY KIND, INCLUDING
#WITHOUT LIMITATION LOSS OF REVENUE, PROFITS, GOODWILL, USE, AND/OR DATA OR THE COST OF
#PROCUREMENT OF SUBSTITUTE GOODS OR SERVICES, EVEN IF APPRISED OF THE POSSIBILITY OF SUCH
#DAMAGES IN ADVANCE.
#--------------------------------------------------#

~VERSION INFORMATION
VERS. 2.0 : CWLS LOG ASCII STANDARD - VERSION 2.0
WRAP.  NO : ONE LINE PER DEPTH STEP
~WELL INFORMATION
#MNEMONIC     .UNIT              VALUE :DESCRIPTION
STRT       .FT                51 :START DEPTH
STOP       .FT                4494 :STOP DEPTH
STEP       .FT                   0.500 :STEP
NULL       .                  -999.990 :NULL
UWI        .              42389102200000 :UNIQUE WELL ID
API        .              42389102200000 :API NUMBER
COMP       .         GRUY PETROLEUM MANAGEMENT CO. :COMPANY
WELL       .        REEVES -AQ- FEE  2 :WELL
DATE       .                30-NOV-1992 :LOG DATE
~CURVE INFORMATION
#MNEMONIC     .UNIT      API CODE :CURVE DESCRIPTION
DEPTH       .FT                      :MEASURED DEPTH
CAL.INCH        UNKNOWN   :CAL
GR.API        UNKNOWN   :GR
DT.US/FT        UNKNOWN   :DT
~A    DEPTH    CAL    GR    DT
# ...
 4163.5     7.613   48.261   65.55
 4164     7.646   46.701   65.585
 4164.5     7.678   45.865   65.619
 4165     7.71   45.028   65.654
 4165.5     7.742   44.192   66.407
 4166     7.774   47.757   67.646
 4166.5     7.806   53.424   68.885
 4167     7.838   61.971   69.414
 4167.5     7.871   70.518   69.308
 4168     7.93   79.065   69.203
 4168.5     7.999   87.612   69.098
 4169     8.068   96.16   68.992
 4169.5     8.137   83.173   69.503
 4170     8.183   65.797   70.449
 4170.5     8.198   49.415   71.395
 4171     8.213   51.933   71.681
 4171.5     8.228   54.451   71.339
 4172     8.243   56.969   70.998
 4172.5     8.268   59.487   70.657
 4173     8.304   62.005   70.541
 4173.5     8.339   59.663   70.481
 4174     8.375   54.243   70.42
 4174.5     8.41   48.823   70.143
 4175     8.446   46.371   67.832
 4175.5     8.481   44.366   65.521
 4176     8.517   42.361   63.21
 4176.5     8.552   42.113   64.891
 4177     8.587   45.035   66.702
 4177.5     8.623   46.562   68.514
 4178     8.625   46.122   70.326
 4178.5     8.627   45.683   71.39
 4179     8.628   45.599   71.901
 4179.5     8.63   46.352   72.158
 4180     8.632   47.106   72.415
 4180.5     8.634   47.86   72.672
 4181     8.635   48.87   72.929
 4181.5     8.637   50.252   72.888
 4182     8.639   48.897   72.578
 4182.5     8.641   47.059   72.269
 4183     8.642   46.594   71.959
 4183.5     8.644   47.455   71.794
 4184     8.646   48.317   72.217
 4184.5     8.648   49.178   72.641
 4185     8.642   50.04   72.401
 4185.5     8.634   48.524   71.92
 4186     8.625   48.915   71.438
 4186.5     8.617   49.305   71.36
 4187     8.609   49.696   71.511
 4187.5     8.601   47.379   71.662
 4188     8.593   44.475   71.813
 4188.5     8.585   44.173   71.965
 4189     8.577   43.872   70.941
 4189.5     8.569   43.57   69.415
 4190     8.561   45.042   68.457
 4190.5     8.553   47.375   69.642
 4191     8.545   47.525   70.828
 4191.5     8.537   47.676   72.013
 4192     8.529   47.826   73.199
 4192.5     8.51   49.875   73.731
 4193     8.47   54.497   72.772
 4193.5     8.429   59.119   71.812
 4194     8.389   63.741   70.852
 4194.5     8.349   68.363   70.951
 4195     8.309   64.649   71.825
 4195.5     8.269   58.433   72.699
 4196     8.229   52.216   73.069
 4196.5     8.188   47.856   72.948
 4197     8.148   49.227   72.855
 4197.5     8.108   50.598   73.513
 4198     8.068   51.969   74.171
 4198.5     8.043   53.34   74.829
 4199     8.029   52.322   75.487
 4199.5     8.015   51.185   74.143
 4200     8.001   47.964   72.057
 4200.5     7.987   44.743   69.971
 4201     7.973   42.489   67.886
 4201.5     7.959   42.689   69.178
 4202     7.945   42.571   70.547
 4202.5     7.931   41.818   71.394
 4203     7.917   41.065   71.772
 4203.5     7.903   41.563   72.15
 4204     7.889   42.046   72.528
 4204.5     7.876   42.172   72.907
 4205     7.862   41.741   72.316
 4205.5     7.848   40.738   71.079
 4206     7.837   42.065   71.834
 4206.5     7.825   45.357   73.317
 4207     7.813   48.648   74.799
 4207.5     7.801   51.939   76.088
 4208     7.789   55.23   74.455
 4208.5     7.777   55.651   73.209
 4209     7.766   53.099   73.602
 4209.5     7.754   50.547   73.996
 4210     7.742   47.994   73.492
 4210.5     7.73   45.9   72.651
 4211     7.728   45.649   71.811
 4211.5     7.727   45.397   70.976
 4212     7.726   46.661   72.213
 4212.5     7.725   48.169   73.45
 4213     7.724   49.677   74.687
 4213.5     7.723   48.956   75.207
 4214     7.722   47.483   74.247
 4214.5     7.721   46.011   73.288
 4215     7.719   44.539   72.224
 4215.5     7.718   43.066   70.788
 4216     7.717   41.594   69.352
 4216.5     7.716   43.3   69.758
 4217     7.715   45.356   70.852
 4217.5     7.714   47.412   71.946
 4218     7.713   49.468   72.18
 4218.5     7.712   49.068   71.973
 4219     7.711   47.16   71.767
 4219.5     7.71   47.072   71.56
 4220     7.709   47.876   71.979
 4220.5     7.708   48.679   73.647
 4221     7.707   49.482   73.207
 4221.5     7.706   50.526   70.666
 4222     7.705   51.638   68.124
 4222.5     7.704   52.75   66.884
 4223     7.687   53.863   67.933
 4223.5     7.667   54.975   68.981
 4224     7.647   54.419   70.03
 4224.5     7.627   50.405   71.078
 4225     7.607   46.391   71.101
 4225.5     7.587   46.929   69.904
 4226     7.578   47.448   68.707
 4226.5     7.576   45.858   67.51
 4227     7.574   44.269   66.533
 4227.5     7.572   44.806   67.567
 4228     7.57   46.258   68.6
 4228.5     7.568   47.709   69.633
 4229     7.566   48.975   70.666
 4229.5     7.564   49.477   71.178
 4230     7.562   49.979   69.507
 4230.5     7.56   50.48   67.835
 4231     7.558   50.511   66.473
 4231.5     7.556   49.444   69.131
 4232     7.556   48.377   71.788
 4232.5     7.561   47.44   74.445
 4233     7.566   47.081   77.102
 4233.5     7.572   46.722   78.924
 4234     7.577   47.137   77.757
 4234.5     7.582   48.476   76.589
 4235     7.588   49.646   75.422
 4235.5     7.593   49.562   74.255
 4236     7.598   49.478   73.332
 4236.5     7.604   48.724   73.192
 4237     7.617   47.782   73.051
 4237.5     7.631   46.841   72.911
 4238     7.644   46.525   70.514
 4238.5     7.657   46.525   67.537
 4239     7.671   46.524   68.632
 4239.5     7.684   46.524   69.727
 4240     7.698   47.877   70.524
 4240.5     7.711   49.199   70.083
 4241     7.724   48.897   69.642
 4241.5     7.738   49.125   69.201
 4242     7.751   50.82   69.395
 4242.5     7.753   52.515   70.286
 4243     7.753   53.759   71.177
 4243.5     7.752   52.441   72.068
 4244     7.752   51.123   70.788
 4244.5     7.752   49.898   68.949
 4245     7.752   51.549   67.111
 4245.5     7.752   53.199   65.272
 4246     7.752   54.009   64.627
 4246.5     7.752   52.904   65.645
 4247     7.752   52.72   66.663
 4247.5     7.752   54.19   67.682
 4248     7.752   55.661   68.7
 4248.5     7.752   57.131   69.616
 4249     7.76   58.602   70.436
 4249.5     7.769   60.072   71.255
 4250     7.777   55.946   72.074
 4250.5     7.786   51.227   72.894
 4251     7.795   51.937   72.807
 4251.5     7.803   52.899   72.117
 4252     7.812   53.861   71.426
 4252.5     7.82   54.824   70.735
 4253     7.817   54.835   70.045
 4253.5     7.781   52.406   70.522
 4254     7.744   49.977   71.667
 4254.5     7.708   51.975   72.811
 4255     7.672   54.233   72.935
 4255.5     7.636   56.491   72.304
 4256     7.603   55.681   71.742
 4256.5     7.603   54.224   71.846
 4257     7.603   52.767   71.95
 4257.5     7.603   51.31   72.053
 4258     7.603   51.253   72.157
 4258.5     7.603   51.298   71.437
 4259     7.603   51.344   70.478
 4259.5     7.603   51.389   69.519
 4260     7.603   51.981   69.5
 4260.5     7.603   52.874   69.95
 4261     7.603   53.766   70.399
 4261.5     7.603   54.634   70.849
 4262     7.603   55.351   70.457
 4262.5     7.603   56.068   68.552
 4263     7.603   55.869   66.648
 4263.5     7.603   54.362   64.743
 4264     7.603   52.855   62.838
 4264.5     7.603   55.217   61.865
 4265     7.603   59.355   62.626
 4265.5     7.603   63.493   63.388
 4266     7.603   67.631   64.149
 4266.5     7.603   71.745   64.91
 4267     7.603   71.608   65.672
 4267.5     7.603   71.471   66.433
 4268     7.603   71.334   66.719
 4268.5     7.603   71.196   66.679
 4269     7.603   72.645   66.252
 4269.5     7.603   74.707   65.692
 4270     7.602   76.77   65.131
 4270.5     7.602   78.028   64.577
 4271     7.602   76.298   64.336
 4271.5     7.602   74.568   64.095
 4272     7.602   72.838   63.855
 4272.5     7.602   71.23   63.929
 4273     7.602   69.672   64.028
 4273.5     7.602   68.114   64.127
 4274     7.602   66.556   64.226
 4274.5     7.602   70.173   64.325
 4275     7.602   74.983   64.424
 4275.5     7.602   75.51   64.499
 4276     7.602   75.342   64.427
 4276.5     7.602   75.175   64.355
 4277     7.602   80.925   64.354
 4277.5     7.602   97.452   65.678
 4278     7.602   113.979   67.002
 4278.5     7.602   135.837   68.325
