~VERSION INFORMATION
VERS. 2.0 : CWLS Log ASCII Standard - Version 2.0
WRAP. NO : One line per depth step
#--------------------------------------------------#
#----------------DRILLING INFO, INC.---------------#
#---------------WWW.DRILLINGINFO.COM---------------#
#------------------COPYRIGHT 2015------------------#
#--------------------------------------------------#
#THIS FILE MAY BE USED ONLY IN ACCORDANCE WITH A CURRENT SUBSCRIPTION AGREEMENT BETWEEN
#THE USER AND DRILLING INFO, INC. NO PART OF THIS FILE MAY BE REPRODUCED, USED, COPIED,
#MODIFIED, PROPAGATED, OR DISTRIBUTED EXCEPT IN ACCORDANCE WITH THE SUBSCRIPTION
#AGREEMENT. UNAUTHORIZED USE OR DISTRIBUTION OF ALL OR ANY PART OF THIS FILE MAY VIOLATE
#COPYRIGHT, TRADEMARK, AND/OR OTHER LAWS AND IS SUBJECT TO CIVIL AS WELL AS CRIMINAL
#SANCTIONS.
#--------------------------------------------------#
#THIS FILE IS PROVIDED "AS-IS" AND ALL WARRANTIES ARE EXPRESSLY DISCLAIMED, WHETHER
#EXPRESS, ORAL, IMPLIED, STATUTORY OR OTHERWISE, INCLUDING ANY IMPLIED WARRANTY OF FITNESS
#FOR A PARTICULAR PURPOSE, MERCHANTABILITY, TITLE OR NON-INFRINGEMENT, AND ANY WARRANTIES
#ARISING BY VIRTUE OF CUSTOM OF TRADE OR COURSE OF DEALING.  FURTHER, DRILLING INFO,
#INC. AND ITS LICENSORS DO NOT REPRESENT OR WARRANT THAT THIS FILE WILL MEET USER'S
#REQUIREMENTS OR ARE SUITABLE FOR USER'S NEEDS OR THAT THE DATA OR RESULTS PROVIDED IN
#CONJUNCTION THEREWITH ARE CORRECT, ACCURATE, TIMELY OR RELIABLE. THESE DISCLAIMERS SHALL
#APPLY REGARDLESS OF ANY FAILURE OF ESSENTIAL PURPOSE OF ANY LIMITED REMEDY.  SOME
#JURISDICTIONS DO NOT ALLOW THE EXCLUSION OF CERTAIN WARRANTIES SO SOME OF THE ABOVE
#EXCLUSIONS MAY NOT APPLY. IN NO EVENT SHALL DRILLING INFO, INC. OR ANY OF ITS AFFILIATES
#BE LIABLE UNDER ANY LEGAL THEORY, WHETHER IN TORT (INCLUDING WITHOUT LIMITATION
#NEGLIGENCE), CONTRACT, STRICT LIABILITY, STATUTORY OR OTHERWISE, FOR ANY SPECIAL,
#INCIDENTAL, CONSEQUENTIAL, EXEMPLARY, PUNITIVE OR INDIRECT DAMAGE OF ANY KIND, INCLUDING
#WITHOUT LIMITATION LOSS OF REVENUE, PROFITS, GOODWILL, USE, AND/OR DATA OR THE COST OF
#PROCUREMENT OF SUBSTITUTE GOODS OR SERVICES, EVEN IF APPRISED OF THE POSSIBILITY OF SUCH
#DAMAGES IN ADVANCE.
#--------------------------------------------------#
~WELL INFORMATION
#MNEMONIC     .UNIT              VALUE :DESCRIPTION
#--------------------------------------------------#
STRT       .ft                97.00000 :START DEPTH
STOP       .ft                8647.00000 :STOP DEPTH
STEP       .ft                0.50000 :STEP
NULL       .                -999.25000 :NULL VALUE
COMP       .                 :COMPANY
WELL       .                 :WELL
FLD       .                 :FIELD
LOC       .                 :LOCATION
CNTY       .                 :COUNTY
STAT       .                 :STATE
CTRY       .                 :COUNTRY
SRVC       .                 :SERVICE COMPANY
DATE       .                 :DATE
API       .                42109002030000 :API NUMBER
~CURVE INFORMATION
#MNEMONIC     .UNIT      API CODE :CURVE DESCRIPTION
#--------------------------------------------------#
DEPTH       .ft                      :Measured Depth
DT       .us/ft        UNKNOWN   :DT
GR       .gAPI        UNKNOWN   :GR
ILD       .ohmm        UNKNOWN   :ILD
ILS       .ohmm        UNKNOWN   :ILS
SP       .mV        UNKNOWN   :SP
~A    DEPTH    DT    GR    ILD    ILS    SP
# ...
4754.00000    53.17924    10.88869    487.16398    266.01505    -86.61318
4754.50000    53.87702    10.76939    479.12511    268.49621    -86.48273
4755.00000    54.57479    10.43589    471.08623    270.97736    -86.35228
4755.50000    55.27257    10.10238    463.04736    271.00811    -86.22183
4756.00000    55.85414    9.76888    473.67085    269.71622    -86.09138
4756.50000    55.27874    9.43538    487.92442    268.42433    -85.96093
4757.00000    54.70334    11.64809    491.26987    267.13243    -85.83048
4757.50000    54.28905    14.33388    458.50361    265.84054    -85.70003
4758.00000    54.44879    17.01966    425.73734    264.54864    -85.56958
4758.50000    54.60852    19.70545    392.97108    263.25675    -85.43913
4759.00000    57.32599    22.39124    363.31130    261.96486    -85.55721
4759.50000    60.25236    25.07702    348.15158    260.67296    -85.89652
4760.00000    63.17873    27.76281    332.99185    259.38107    -86.23584
4760.50000    61.77410    30.44860    317.83212    258.08917    -86.57515
4761.00000    59.79591    32.14907    314.95546    256.79728    -86.91446
4761.50000    57.81772    32.14953    314.36053    255.50538    -87.25377
4762.00000    55.83953    32.14999    313.76560    254.21349    -87.10513
4762.50000    55.06933    32.15044    313.17068    254.17713    -86.70622
4763.00000    56.24683    32.50874    316.26632    254.38155    -86.30730
4763.50000    57.42432    33.18797    331.55612    254.58598    -85.90838
4764.00000    58.60181    33.86720    346.84592    254.79040    -85.50947
4764.50000    59.34367    32.36781    362.13572    254.99483    -85.11055
4765.00000    58.03695    30.49613    377.42552    255.19925    -84.71163
4765.50000    56.73023    28.62446    391.91212    255.40367    -84.31271
4766.00000    55.42350    26.75279    379.00078    255.60810    -83.91380
4766.50000    54.11678    24.88112    366.08945    255.81252    -83.51488
4767.00000    52.81006    23.00944    353.17812    256.01695    -83.11596
4767.50000    54.26171    23.84125    340.26678    256.22137    -82.71704
4768.00000    56.55240    24.81141    327.35545    256.42579    -82.31813
4768.50000    58.84310    25.78157    314.44411    256.63022    -81.91921
4769.00000    61.13379    26.75173    301.53278    257.99715    -82.16855
4769.50000    63.24153    26.48439    288.62144    259.70795    -82.44065
4770.00000    60.97582    20.90166    287.02301    261.41876    -82.71275
4770.50000    58.71011    15.24160    304.18439    263.12956    -82.98485
4771.00000    56.44440    11.53984    321.34576    264.84037    -83.25694
4771.50000    54.17869    10.72400    342.67774    266.55117    -83.50273
4772.00000    51.91298    9.90817    391.88621    268.26198    -83.50643
4772.50000    49.64727    9.09234    441.09468    269.97278    -83.51012
4773.00000    50.36814    8.27650    490.30315    271.68359    -83.51382
4773.50000    50.31207    7.46067    539.51162    273.39439    -83.51751
4774.00000    50.01178    8.14919    544.55150    273.92072    -83.52120
4774.50000    49.71148    9.33974    531.23715    273.72580    -83.52490
4775.00000    49.41118    10.53029    517.92280    273.53089    -83.52859
4775.50000    49.11089    11.72085    504.60845    273.33597    -83.48981
4776.00000    48.81059    12.91140    479.78036    273.14106    -83.33864
4776.50000    48.51029    14.10195    450.27101    272.94614    -83.18747
4777.00000    49.40769    15.29250    420.76165    272.75123    -83.03630
4777.50000    51.35027    16.48305    391.25230    272.55631    -82.88513
4778.00000    53.29286    17.67360    361.74294    272.36140    -82.73396
4778.50000    53.54472    18.86416    344.88161    272.16648    -82.58279
4779.00000    53.35880    18.50721    356.50367    271.97157    -82.43161
4779.50000    53.17288    17.69150    368.12573    271.77665    -82.28044
4780.00000    52.98696    16.87580    379.74779    271.58174    -82.12927
4780.50000    48.20993    16.06010    391.36984    271.38683    -81.97810
4781.00000    50.10276    15.24440    411.48588    271.19191    -81.82693
4781.50000    51.99560    14.66466    434.50635    270.99700    -81.67576
4782.00000    53.88843    15.92475    457.52681    270.80208    -81.55970
4782.50000    55.17104    17.18484    461.82122    269.12165    -81.47126
4783.00000    55.44776    18.44494    448.69785    267.31333    -81.38282
4783.50000    55.65339    18.09775    435.57449    265.50502    -81.29438
4784.00000    54.70986    17.70331    422.45112    263.69670    -81.20595
4784.50000    53.76633    17.30887    409.32775    261.88839    -81.11751
4785.00000    52.82281    15.65304    419.54421    260.08007    -81.02907
4785.50000    51.87928    13.25941    433.66413    258.27176    -80.94063
4786.00000    51.25811    11.46915    447.78405    256.46344    -80.85219
4786.50000    51.97867    11.81779    461.90397    254.65513    -80.76376
4787.00000    52.69923    12.16642    476.02389    252.84682    -80.67532
4787.50000    52.51787    12.51506    490.14381    251.03850    -80.58688
4788.00000    52.07439    12.42990    504.26373    249.23019    -80.49844
4788.50000    51.63090    11.77052    518.38365    247.42187    -80.41001
4789.00000    51.18741    11.11114    516.66442    243.20369    -80.32157
4789.50000    51.43230    10.45175    491.68166    238.50120    -80.23313
4790.00000    52.60263    9.79237    438.17684    233.79871    -80.14469
4790.50000    53.77295    15.22974    338.90409    229.09622    -80.12421
4791.00000    54.94328    21.11323    292.81054    224.39373    -80.18860
4791.50000    56.11360    26.99673    250.16008    219.69125    -80.25298
4792.00000    57.28393    31.07012    236.60960    214.98876    -80.31737
4792.50000    58.45426    31.68639    226.88442    210.28627    -80.38175
4793.00000    59.62458    32.30266    217.15923    205.96932    -80.44614
4793.50000    60.79491    32.91892    207.43404    205.95052    -80.51052
4794.00000    61.96523    33.53519    201.18377    205.93173    -80.57491
4794.50000    62.78723    34.15146    206.31965    205.91294    -80.63929
4795.00000    62.84757    34.76773    211.45553    205.89414    -80.70368
4795.50000    63.65636    35.38400    216.59141    205.87535    -80.76807
4796.00000    64.65413    36.00027    221.72729    205.85655    -80.83245
4796.50000    65.17576    38.00587    226.86317    205.83776    -80.89684
4797.00000    64.66672    40.41769    231.99905    205.81897    -80.96122
4797.50000    64.15767    42.82951    236.77093    205.80017    -81.02561
4798.00000    63.64863    42.08480    226.10513    205.78138    -81.08999
4798.50000    63.13959    40.36870    215.43933    205.76259    -81.15438
4799.00000    62.63055    38.65260    204.77353    205.74379    -81.21876
4799.50000    63.54662    36.93650    194.64673    205.72500    -81.28315
4800.00000    65.65554    35.22041    200.02978    205.70620    -81.34753
4800.50000    67.76445    33.50431    205.41283    205.68741    -81.41192
4801.00000    66.69859    31.78821    210.79587    205.66862    -81.47631
4801.50000    64.63009    30.07211    216.17892    205.64982    -81.54069
4802.00000    62.56160    28.35601    221.56197    205.63103    -81.60508
4802.50000    60.49310    26.63991    225.22687    205.61224    -81.66946
4803.00000    58.42460    25.68193    218.00160    205.59344    -81.73385
4803.50000    56.50550    27.81245    210.77632    205.57465    -81.74672
4804.00000    58.53800    29.94298    203.55105    201.96217    -81.71362
4804.50000    60.57049    32.07350    196.32578    189.98636    -81.68053
4805.00000    62.60299    34.20402    189.10051    179.57423    -81.64743
4805.50000    64.63549    36.33454    181.87524    183.60094    -81.61433
4806.00000    66.66798    35.33386    179.88155    187.62765    -81.58123
4806.50000    68.70048    32.43726    183.00717    191.65436    -81.54814
4807.00000    68.25150    29.54066    186.13278    195.68107    -81.51504
4807.50000    66.01382    26.64406    189.25840    199.46414    -81.48194
4808.00000    61.90600    23.74745    192.38402    196.43181    -81.44884
