~Version Information Block
 VERS.                2.00:     CWLS LOG ASCII STANDARD - VERSION 2.000000
 WRAP.                  NO:     One Line Per Depth Step
#
~Well Information Block
#MNEM.UNIT                     Data                         Information
#----------   ------------------------------------------   ----------------
 STRT.FT                                        4.0000:     START DEPTH
 STOP.FT                                    10300.0000:     STOP DEPTH
 STEP.FT                                        0.5000:     STEP
 NULL.                                       -999.2500:     NULL VALUE
 COMP.                            MONSANTO OIL COMPANY:     COMPANY
 WELL.                               UNIVERSITY_6-46-1:     WELL
 FLD .                                         WILDCAT:     FIELD
 LOC .                                                :     LOCATION
 CNTY.                                       CULBERSON:     COUNTY
 STAT.                                           TEXAS:     STATE
 CTRY.                                             USA:     COUNTRY
 SRVC.                                                :     SERVICE COMPANY
 DATE.                                      10/31/2016:     DATE
 API .                                  42109315500000:     API NUMBER
 UWI .                                  42109315500000:     UWI NUMBER
 TVD .                                              NO:     TVD flag
 WSTA.                                             LOC:     Well status
#
~Curve Information Block
#MNEM.UNIT       API CODE      Curve Description
#----------    -------------   -------------------
 DEPT.FT                   :   Depth in Feet
 CALI.IN                   :   Caliper
 GR  .GAPI                 :   Gamma Ray
 DPHI.V/V                  :   Density Porosity
 NPHI.V/V                  :   Neutron Porosity
 DRHO.G/C3                 :   Delta Rho
 RHOB.G/C3                 :   Bulk Density
#
~Parameter Information Block
#MNEM.UNIT            Value               Description
#----------    --------------------    -------------------
 RUN .                         ONE:    Run Number
 PDAT.                          GL:    Permanent Datum
 EPD .FT                          :    Elevation Of Perm. Datum
 LMF .               KELLY BUSHING:    Log Measured From
 EKB .FT                          :    Elevation Of Kelly Bushing
 DF .FT                           :    Elevation Of Derrick Floor
 GL .FT                           :    Elevation Of Ground Level
 TD  .FT                          :    Total Depth
 CSGD.FT                          :    Casing Bottom (Driller) 1
 CSGL.FT                          :    Casing Bottom (Logger) 1
 MUD .                            :    Drilling Fluid Type
 MUDV .CP                         :    Drilling Fluid Viscosity
 MUDD .LB/USG                     :    Drilling Fluid Density
 FL .ML/30MIN                     :    Drilling Fluid Loss
 PH.                              :    Drilling Fluid Ph
 MUDS .                           :    Mud Sample Source
 RM .OHMM                         :    Resistivity Of Mud Sample
 RMT .DEGF                        :    Mud Sample Temperature
 RMF .OHMM                        :    Mud Filtrate Resistivity
 RMFT.DEGF                        :    Mud Filtrate Sample Temperature
 RMC .OHMM                        :    Mud Cake Resistivity
 RMCT.DEGF                        :    Mud Cake Sample Temperature
 RMB .OHMM                        :    Mud Resistivity At Bht
 TMAX .DEGF                       :    Bottom Hole Temperature   
#
~Other Information Block
<DescLogPlotStart>   NEURALOG PLOT DEFINITION
PLOTDEFVERSION: 3
LASFILE: E:\nds\projects\Texas Standard Oil LLC\pdf\Pradeep+Ekta\42109315500000
DEPTHSCALE: 240.000000
RESOLUTION: 200
DEPTHLABELFREQ: 100.000000
HEAVYGRIDFREQ: 100.000000
MEDIUMGRIDFREQ: 50.000000
LIGHTGRIDFREQ: 10.000000
#
#   TRACK 1
#
STARTTRACK: 
 LEFTX: 0.500000 inch
 RIGHTX: 3.000000 inch
 SCALETYPE: Linear
 NUMCHARTDIVISIONS: 10
CURVE: CALI  6.000000   16.000000  (0,0,255)      Solid             2     N    
CURVE: GR    0.000000   100.000000 (0,131,131)    Dot               2     Y    
BACKUP: 100.000000 200.000000 (0,131,131)    Dot               2    
ENDTRACK: 
#
#   TRACK 2
#
STARTTRACK: 
 LEFTX: 3.500000 inch
 RIGHTX: 8.500000 inch
 SCALETYPE: Linear
 NUMCHARTDIVISIONS: 10
CURVE: DPHI  0.300000   -0.100000  (255,0,255)    Solid             2     Y    
BACKUP: 0.700000   0.300000   (255,0,255)    Solid             2    
CURVE: NPHI  0.300000   -0.100000  (255,0,0)      Dot               2     Y    
BACKUP: 0.700000   0.300000   (255,0,0)      Dot               2    
CURVE: DRHO  -0.050000  0.950000   (255,131,0)    Short_Dash        2     N    
ENDTRACK: 
#
#   TRACK 3
#
STARTTRACK: 
 LEFTX: 8.500000 inch
 RIGHTX: 13.500000 inch
 SCALETYPE: Linear
 NUMCHARTDIVISIONS: 10
CURVE: RHOB  2.000000   3.000000   (255,255,0)    Solid             2     Y    
BACKUP: 1.000000   2.000000   (255,255,0)    Solid             2    
ENDTRACK: 
<DescLogPlotEnd>
~A DEPTH     CALI             GR               DPHI             NPHI             DRHO             RHOB            
# ...
    6164.000 8.53911647       79.85666485      0.04260381       0.10538742       0.04916319       2.63912435      
    6164.500 8.54722527       89.49005025      0.06100100       0.13582072       0.04966377       2.62001120      
    6165.000 8.55434850       93.27303039      0.08154463       0.16610260       0.05268389       2.60932776      
    6165.500 8.53506140       93.56879863      0.08996991       0.17883911       0.05580708       2.57738959      
    6166.000 8.53516115       100.63808945     0.09117352       0.17823585       0.05421539       2.56533669      
    6166.500 8.53504776       100.61335258     0.09243129       0.17826232       0.05198713       2.54993652      
    6167.000 8.53507014       103.31087702     0.09754262       0.18053737       0.04975110       2.53852377      
    6167.500 8.53507014       104.09616619     0.10692083       0.18353327       0.04753150       2.53001521      
    6168.000 8.53507014       103.24836897     0.11117222       0.19035117       0.04532766       2.52588829      
    6168.500 8.53515943       101.41051465     0.10280843       0.20110331       0.04297431       2.53246920      
    6169.000 8.53550709       96.34484484      0.08876630       0.20431294       0.03703098       2.54902803      
    6169.500 8.53016815       84.32259180      0.06960682       0.17823470       0.03071323       2.54944569      
    6170.000 8.51554459       69.14600674      0.04712136       0.13334002       0.01964101       2.64830600      
    6170.500 8.51547643       51.97366620      0.02463591       0.08568618       0.00841976       2.65425717      
    6171.000 8.49422481       39.23196235      0.00170512       0.03803235       0.00525249       2.70496067      
    6171.500 8.49519691       34.20882972      0.00491474       0.01815446       0.01916962       2.70757704      
    6172.000 8.50707116       31.13517144      0.00130391       0.01654965       0.01891240       2.70909101      
    6172.500 8.53404212       29.58411369      0.01494483       0.01494483       0.01894219       2.71251086      
    6173.000 8.59367002       26.83146481      0.01534604       0.01293882       0.01708424       2.71527062      
    6173.500 8.67471372       26.82753109      0.00932798       0.01213641       0.01927941       2.71897916      
    6174.000 8.67287455       32.35009786      0.00188164       0.01300301       0.02133328       2.72178224      
    6174.500 8.66930574       43.58717435      0.00371113       0.02657974       0.02325295       2.72223021      
    6175.000 8.66633226       62.82565130      0.02296891       0.05225677       0.03577743       2.71872394      
    6175.500 8.66340568       90.08016032      0.05105316       0.09959880       0.03852562       2.71492219      
    6176.000 8.66043321       108.28553684     0.07156001       0.15281454       0.03590415       2.63987534      
    6176.500 8.65758035       124.43500828     0.07713139       0.17257042       0.03285335       2.61697163      
    6177.000 8.66019423       122.35387515     0.07071214       0.18388079       0.03719537       2.58079643      
    6177.500 8.67756582       121.06538023     0.06589769       0.19247342       0.04699723       2.58895610      
    6178.000 8.68249754       100.95863338     0.06674824       0.18857773       0.03988106       2.59688911      
    6178.500 8.68750172       93.64380402      0.06549649       0.17120261       0.02863956       2.60157945      
    6179.000 8.69246786       70.73842846      0.04939875       0.12847944       0.01482639       2.60915602      
    6179.500 8.69744856       68.01357504      0.02915521       0.07430993       0.00800267       2.61789084      
    6180.000 8.70241387       96.84636520      0.03134391       0.05867603       0.02122322       2.66879903      
    6180.500 8.70738986       99.90766999      0.03781344       0.07167780       0.02721650       2.66842599      
    6181.000 8.71248474       106.28960909     0.06429288       0.09611004       0.02297373       2.60576024      
    6181.500 8.72535752       108.90438636     0.08475426       0.12054229       0.01887480       2.59977232      
    6182.000 8.74144689       109.80545968     0.10016048       0.14497454       0.01725838       2.59498207      
    6182.500 8.75184751       109.46516346     0.10762287       0.15817452       0.01808211       2.59454089      
    6183.000 8.73708005       109.77831801     0.10962889       0.16499498       0.02287289       2.53002679      
    6183.500 8.75917163       110.36045685     0.10240722       0.16364493       0.02765285       2.52990544      
    6184.000 8.76794130       107.51380972     0.09393812       0.15477232       0.03348548       2.52732361      
    6184.500 8.77591441       105.04145170     0.08969262       0.14734203       0.05186792       2.52406046      
    6185.000 8.78591821       104.84786353     0.08544711       0.14533601       0.07034424       2.56494512      
    6185.500 8.79580584       109.18453806     0.08120160       0.14979639       0.05661448       2.58641383      
    6186.000 8.79562109       111.40404539     0.07695610       0.15249348       0.04575593       2.59709917      
    6186.500 8.79890655       112.12024695     0.06910732       0.15366232       0.03161062       2.59793114      
    6187.000 8.81670882       110.73667878     0.04784353       0.15209635       0.05520055       2.58500910      
    6187.500 8.83550584       110.55370435     0.00972919       0.15058459       0.06162092       2.61132782      
    6188.000 8.85675444       112.86249470     0.01274356       0.15016387       0.16227052       2.64210908      
    6188.500 8.87605910       115.35290477     0.02417252       0.15095286       0.15446920       2.68815342      
    6189.000 8.87610820       117.45893945     0.04824473       0.15496489       0.14671467       2.70513422      
    6189.500 8.88307811       118.11361357     0.06710130       0.18506319       0.14645470       2.66073181      
    6190.000 8.88993313       100.48594710     0.07608826       0.19325204       0.06649753       2.62427514      
    6190.500 8.89597287       101.78191915     0.08475426       0.20044322       0.05268790       2.58520876      
    6191.000 8.89585597       96.83332201      0.09839519       0.20226537       0.04261166       2.53014946      
    6191.500 8.89618446       94.78931504      0.10886543       0.19714443       0.04098096       2.52294150      
    6192.000 8.87979777       94.48666696      0.10828711       0.18590171       0.04281623       2.52401726      
    6192.500 8.85913646       95.46052658      0.10243281       0.17465898       0.08336833       2.52501015      
    6193.000 8.85568107       98.51875801      0.09638917       0.16619860       0.08558811       2.52741609      
    6193.500 8.85565928       99.58218122      0.08996991       0.16098295       0.08536439       2.53882769      
    6194.000 8.85570574       97.24058267      0.08596108       0.16555896       0.06230459       2.54732405      
    6194.500 8.85571142       96.79896482      0.08194584       0.17061184       0.03945101       2.55693147      
    6195.000 8.85571142       89.43633074      0.07392177       0.15706319       0.03532409       2.56527917      
    6195.500 8.85571142       85.27499329      0.06750251       0.15016349       0.03093920       2.57616861      
    6196.000 8.85571142       94.56148921      0.06765176       0.14814443       0.03553470       2.58418813      
    6196.500 8.85571142       99.93678524      0.06268806       0.16817471       0.04110883       2.59266447      
    6197.000 8.85571142       101.44092096     0.04383149       0.17808442       0.06292336       2.59731701      
    6197.500 8.85571142       102.51358018     0.02417252       0.18844541       0.09942924       2.62265820      
    6198.000 8.85574868       103.50038922     0.01935807       0.19226078       0.12617248       2.68121648      
    6198.500 8.85577496       104.36010410     0.03340020       0.19401290       0.12616278       2.67361602      
