~Version Information Block
 VERS.                2.00:     CWLS LOG ASCII STANDARD - VERSION 2.000000
 WRAP.                  NO:     One Line Per Depth Step
#
~Well Information Block
#MNEM.UNIT                     Data                         Information
#----------   ------------------------------------------   ----------------
 STRT.FT                                      250.0000:     START DEPTH
 STOP.FT                                    10290.0000:     STOP DEPTH
 STEP.FT                                        0.5000:     STEP
 NULL.                                       -999.2500:     NULL VALUE
 COMP.                                                :     COMPANY
 WELL.                                                :     WELL
 FLD .                                                :     FIELD
 LOC .                                                :     LOCATION
 CNTY.                                                :     COUNTY
 STAT.                                                :     STATE
 CTRY.                                                :     COUNTRY
 SRVC.                                                :     SERVICE COMPANY
 DATE.                                                :     DATE
 API .                                                4210931550:     API NUMBER
 UWI .                                                :     UWI NUMBER
 TVD .                                              NO:     TVD flag
 WSTA.                                             LOC:     Well status
#
~Curve Information Block
#MNEM.UNIT       API CODE      Curve Description
#----------    -------------   -------------------
 DEPT.FT                   :   Depth in Feet
 LLS .OHMM                 :   Latero-Log Shallow (Resistivity)
 LLD .OHMM                 :   Latero-Log Deep (Resistivity)
 SFLU.OHMM                 :   SFL Resistivity (Unaveraged)
 ILD .OHMM                 :   Deep Induction Standard Processed Resistivity
 ILM .OHMM                 :   Medium Induction Standard Processed Resistivity
#
~Parameter Information Block
#MNEM.UNIT            Value               Description
#----------    --------------------    -------------------
 RUN .                         ONE:    Run Number
 PDAT.                          GL:    Permanent Datum
 EPD .FT                          :    Elevation Of Perm. Datum
 LMF .               KELLY BUSHING:    Log Measured From
 EKB .FT                          :    Elevation Of Kelly Bushing
 DF .FT                           :    Elevation Of Derrick Floor
 GL .FT                           :    Elevation Of Ground Level
 TD  .FT                          :    Total Depth
 CSGD.FT                          :    Casing Bottom (Driller) 1
 CSGL.FT                          :    Casing Bottom (Logger) 1
 MUD .                            :    Drilling Fluid Type
 MUDV .CP                         :    Drilling Fluid Viscosity
 MUDD .LB/USG                     :    Drilling Fluid Density
 FL .ML/30MIN                     :    Drilling Fluid Loss
 PH.                              :    Drilling Fluid Ph
 MUDS .                           :    Mud Sample Source
 RM .OHMM                         :    Resistivity Of Mud Sample
 RMT .DEGF                        :    Mud Sample Temperature
 RMF .OHMM                        :    Mud Filtrate Resistivity
 RMFT.DEGF                        :    Mud Filtrate Sample Temperature
 RMC .OHMM                        :    Mud Cake Resistivity
 RMCT.DEGF                        :    Mud Cake Sample Temperature
 RMB .OHMM                        :    Mud Resistivity At Bht
 TMAX .DEGF                       :    Bottom Hole Temperature
#
~Other Information Block
<DescLogPlotStart>   NEURALOG PLOT DEFINITION
PLOTDEFVERSION: 3
LASFILE: E:\nds\projects\Texas Standard Oil LLC\pdf\Pradeep+Ekta\42109315500000
DEPTHSCALE: 240.000000
RESOLUTION: 200
DEPTHLABELFREQ: 100.000000
HEAVYGRIDFREQ: 100.000000
MEDIUMGRIDFREQ: 50.000000
LIGHTGRIDFREQ: 10.000000
#
#   TRACK 1
#
STARTTRACK: 
 LEFTX: 1.000000 inch
 RIGHTX: 6.000000 inch
 SCALETYPE: Log
 NUMCYCLES: 4
 STARTCYCLE: 2
CURVE: SFLU  0.200000   2000.000000 (0,0,255)      Solid             2     N   
CURVE: ILD   0.200000   2000.000000 (0,131,131)    Dot               2     N   
CURVE: ILM   0.200000   2000.000000 (255,0,255)    Short_Dash        2     N   
ENDTRACK: 
#
#   TRACK 2
#
STARTTRACK: 
 LEFTX: 1.000000 inch
 RIGHTX: 6.000000 inch
 SCALETYPE: Log
 NUMCYCLES: 4
 STARTCYCLE: 2
CURVE: LLS   0.200000   2000.000000 (255,0,0)      Solid             2     Y   
BACKUP: 2000.000000 20000000.000000 (255,0,0)      Solid             2    
CURVE: LLD   0.200000   2000.000000 (255,131,0)    Dot               2     Y   
BACKUP: 2000.000000 20000000.000000 (255,131,0)    Dot               2    
ENDTRACK: 
<DescLogPlotEnd>
~A DEPTH     LLS              LLD              SFLU             ILD              ILM             
# ...
    3489.000 -999.25000000    -999.25000000    1781.88447636    1781.88447636    1242.82544465   
    3489.500 -999.25000000    -999.25000000    1815.11278800    1815.11278800    1266.00146518   
    3490.000 -999.25000000    -999.25000000    1900.91981201    1899.99088666    1401.55284376   
    3490.500 -999.25000000    -999.25000000    2009.25942284    2011.20431646    2007.82002711   
    3491.000 -999.25000000    -999.25000000    2009.25942284    2010.63950518    1976.74530693   
    3491.500 -999.25000000    -999.25000000    1970.57551423    2009.42520766    1953.63755014   
    3492.000 -999.25000000    -999.25000000    1974.42322214    2009.25942284    1866.12067648   
    3492.500 -999.25000000    -999.25000000    1953.28259324    2009.25942284    1495.03327286   
    3493.000 -999.25000000    -999.25000000    1954.63049206    2009.25942284    949.55309435    
    3493.500 -999.25000000    -999.25000000    1954.33903004    2009.25942284    955.86503342    
    3494.000 -999.25000000    -999.25000000    1954.33903004    2009.25942284    1053.56392823   
    3494.500 -999.25000000    -999.25000000    1815.11278800    2009.25942284    941.99598739    
    3495.000 -999.25000000    -999.25000000    1781.88447636    2009.25942284    835.39636925    
    3495.500 -999.25000000    -999.25000000    1765.49913127    2009.25942284    1112.41209650   
    3496.000 -999.25000000    -999.25000000    1918.56197708    2009.25942284    1506.14365571   
    3496.500 -999.25000000    -999.25000000    2027.90707234    2009.25942284    1682.19244118   
    3497.000 -999.25000000    -999.25000000    2022.98181295    2009.25942284    1779.63971059   
    3497.500 -999.25000000    -999.25000000    2016.87811879    2009.25942284    1862.67788654   
    3498.000 -999.25000000    -999.25000000    2010.79284055    2009.25942284    1765.49913127   
    3498.500 -999.25000000    -999.25000000    2004.72592267    2009.25942284    1701.45067632   
    3499.000 -999.25000000    -999.25000000    1998.80620638    2009.25942284    1702.73336134   
    3499.500 -999.25000000    -999.25000000    1990.90860387    2009.25942284    1851.57169336   
    3500.000 -999.25000000    -999.25000000    1992.29951151    2009.25942284    1886.35067353   
    3500.500 -999.25000000    -999.25000000    1854.32747465    1972.47697123    1890.43148129   
    3501.000 -999.25000000    -999.25000000    1737.69470538    1972.47697123    1083.39227624   
    3501.500 -999.25000000    -999.25000000    1685.80496144    1954.33903004    984.25513747    
    3502.000 -999.25000000    -999.25000000    1866.12067648    1954.55133559    1056.20889274   
    3502.500 -999.25000000    -999.25000000    1990.78324807    1954.20830780    1567.06726099   
    3503.000 -999.25000000    -999.25000000    1983.94562587    1954.33903004    1842.98507335   
    3503.500 -999.25000000    -999.25000000    1978.93411232    1954.33903004    1533.07363057   
    3504.000 -999.25000000    -999.25000000    1973.93525802    1954.33903004    1338.15501167   
    3504.500 -999.25000000    -999.25000000    1968.94856389    1954.33903004    1133.15618867   
    3505.000 -999.25000000    -999.25000000    1964.03190814    1954.33903004    1186.72462857   
    3505.500 -999.25000000    -999.25000000    1959.06762096    1954.33903004    1537.04635929   
    3506.000 -999.25000000    -999.25000000    1955.53551633    1954.33903004    1537.04635929   
    3506.500 -999.25000000    -999.25000000    1955.68138939    1954.33903004    1338.15501167   
    3507.000 -999.25000000    -999.25000000    1917.91210978    1954.30997479    1197.73845022   
    3507.500 -999.25000000    -999.25000000    1953.30985830    1954.52526787    1112.41209650   
    3508.000 -999.25000000    -999.25000000    1991.29764022    1954.93920345    1062.19810489   
    3508.500 -999.25000000    -999.25000000    1990.78324807    1953.20047262    1164.99988724   
    3509.000 -999.25000000    -999.25000000    1972.47697123    1972.47697123    1112.41209650   
    3509.500 -999.25000000    -999.25000000    1883.43987574    1954.33903004    968.46774528    
    3510.000 -999.25000000    -999.25000000    1848.96073617    1918.56197708    959.56218579    
    3510.500 -999.25000000    -999.25000000    1900.91981201    1972.47697123    1082.00581416   
    3511.000 -999.25000000    -999.25000000    1918.56197708    1918.56197708    1242.82544465   
    3511.500 -999.25000000    -999.25000000    1972.47697123    1918.56197708    1451.50479508   
    3512.000 -999.25000000    -999.25000000    1990.78324807    1936.36787656    1220.97770351   
    3512.500 -999.25000000    -999.25000000    1900.91981201    1954.33903004    1033.05504653   
    3513.000 -999.25000000    -999.25000000    1866.12067648    1972.47697123    950.73851750    
    3513.500 -999.25000000    -999.25000000    1866.12067648    1990.78324807    950.73851750    
    3514.000 -999.25000000    -999.25000000    1883.43987574    1990.78324807    1242.82544465   
    3514.500 -999.25000000    -999.25000000    1972.47697123    1972.53077221    1540.33757023   
    3515.000 -999.25000000    -999.25000000    1866.12067648    1991.05552172    1488.72506791   
    3515.500 -999.25000000    -999.25000000    1831.95859034    1991.01523885    1233.93499146   
    3516.000 -999.25000000    -999.25000000    1831.95859034    1990.77936724    970.16709897    
    3516.500 -999.25000000    -999.25000000    1831.95859034    1990.78324807    747.73575848    
    3517.000 -999.25000000    -999.25000000    1733.17907065    1990.84206047    720.60953724    
    3517.500 -999.25000000    -999.25000000    1685.80496144    1990.44668971    761.67942158    
    3518.000 -999.25000000    -999.25000000    1670.30311695    1990.78324807    526.36957451    
    3518.500 -999.25000000    -999.25000000    1654.94381991    2027.90707234    235.63708230    
    3519.000 -999.25000000    -999.25000000    1624.64763702    2027.90707234    249.06680702    
    3519.500 -999.25000000    -999.25000000    1683.88470653    2027.90707234    282.69477765    
    3520.000 -999.25000000    -999.25000000    1763.59557334    2009.25942284    564.37842392    
    3520.500 -999.25000000    -999.25000000    1505.22036870    1990.78324807    734.14170333    
    3521.000 -999.25000000    -999.25000000    1350.57423706    1990.78324807    739.90873919    
    3521.500 -999.25000000    -999.25000000    1289.60966862    1990.78324807    539.14967481    
    3522.000 -999.25000000    -999.25000000    1301.57835162    1990.78324807    408.28765342    
    3522.500 -999.25000000    -999.25000000    1522.91242674    1989.93087890    296.85511692    
    3523.000 -999.25000000    -999.25000000    1508.90846297    1992.62963862    273.17202013    
    3523.500 -999.25000000    -999.25000000    1685.80496144    1973.32186417    273.17202013    
    3524.000 -999.25000000    -999.25000000    1613.38518039    1972.31023242    273.17894020    
    3524.500 -999.25000000    -999.25000000    1493.76631232    1972.47697123    272.98084006    
    3525.000 -999.25000000    -999.25000000    1521.33966234    1972.47697123    307.92061609    
    3525.500 -999.25000000    -999.25000000    1639.88889769    1972.47697123    357.09622692    
    3526.000 -999.25000000    -999.25000000    1639.67939559    1972.47697123    437.57253592    
    3526.500 -999.25000000    -999.25000000    1702.35653291    1972.47697123    466.80372031    
    3527.000 -999.25000000    -999.25000000    1685.80496144    1972.44764633    231.32339862    
    3527.500 -999.25000000    -999.25000000    1654.94381991    1972.66493751    199.53863025    
    3528.000 -999.25000000    -999.25000000    1666.60393495    1973.09343548    151.23973349    
    3528.500 -999.25000000    -999.25000000    1717.24159685    1971.20783183    282.69414032    
    3529.000 -999.25000000    -999.25000000    1765.49913127    1989.93087890    282.00048293    
    3529.500 -999.25000000    -999.25000000    1765.49913127    1991.31994288    388.14207452    
