~Version Information Block
 VERS.                2.00:     CWLS LOG ASCII STANDARD - VERSION 2.000000
 WRAP.                  NO:     One Line Per Depth Step
#
~Well Information Block
#MNEM.UNIT                     Data                         Information
#----------   ------------------------------------------   ----------------
 STRT.FT                                        4.0000:     START DEPTH
 STOP.FT                                    10300.0000:     STOP DEPTH
 STEP.FT                                        0.5000:     STEP
 NULL.                                       -999.2500:     NULL VALUE
 COMP.                            MONSANTO OIL COMPANY:     COMPANY
 WELL.                               UNIVERSITY_6-46-1:     WELL
 FLD .                                         WILDCAT:     FIELD
 LOC .                                                :     LOCATION
 CNTY.                                       CULBERSON:     COUNTY
 STAT.                                           TEXAS:     STATE
 CTRY.                                             USA:     COUNTRY
 SRVC.                                                :     SERVICE COMPANY
 DATE.                                      10/31/2016:     DATE
 API .                                  42109315500000:     API NUMBER
 UWI .                                  42109315500000:     UWI NUMBER
 TVD .                                              NO:     TVD flag
 WSTA.                                             LOC:     Well status
#
~Curve Information Block
#MNEM.UNIT       API CODE      Curve Description
#----------    -------------   -------------------
 DEPT.FT                   :   Depth in Feet
 CALI.IN                   :   Caliper
 GR  .GAPI                 :   Gamma Ray
 DPHI.V/V                  :   Density Porosity
 NPHI.V/V                  :   Neutron Porosity
 DRHO.G/C3                 :   Delta Rho
 RHOB.G/C3                 :   Bulk Density
#
~Parameter Information Block
#MNEM.UNIT            Value               Description
#----------    --------------------    -------------------
 RUN .                         ONE:    Run Number
 PDAT.                          GL:    Permanent Datum
 EPD .FT                          :    Elevation Of Perm. Datum
 LMF .               KELLY BUSHING:    Log Measured From
 EKB .FT                          :    Elevation Of Kelly Bushing
 DF .FT                           :    Elevation Of Derrick Floor
 GL .FT                           :    Elevation Of Ground Level
 TD  .FT                          :    Total Depth
 CSGD.FT                          :    Casing Bottom (Driller) 1
 CSGL.FT                          :    Casing Bottom (Logger) 1
 MUD .                            :    Drilling Fluid Type
 MUDV .CP                         :    Drilling Fluid Viscosity
 MUDD .LB/USG                     :    Drilling Fluid Density
 FL .ML/30MIN                     :    Drilling Fluid Loss
 PH.                              :    Drilling Fluid Ph
 MUDS .                           :    Mud Sample Source
 RM .OHMM                         :    Resistivity Of Mud Sample
 RMT .DEGF                        :    Mud Sample Temperature
 RMF .OHMM                        :    Mud Filtrate Resistivity
 RMFT.DEGF                        :    Mud Filtrate Sample Temperature
 RMC .OHMM                        :    Mud Cake Resistivity
 RMCT.DEGF                        :    Mud Cake Sample Temperature
 RMB .OHMM                        :    Mud Resistivity At Bht
 TMAX .DEGF                       :    Bottom Hole Temperature   
#
~Other Information Block
<DescLogPlotStart>   NEURALOG PLOT DEFINITION
PLOTDEFVERSION: 3
LASFILE: E:\nds\projects\Texas Standard Oil LLC\pdf\Pradeep+Ekta\42109315500000
DEPTHSCALE: 240.000000
RESOLUTION: 200
DEPTHLABELFREQ: 100.000000
HEAVYGRIDFREQ: 100.000000
MEDIUMGRIDFREQ: 50.000000
LIGHTGRIDFREQ: 10.000000
#
#   TRACK 1
#
STARTTRACK: 
 LEFTX: 0.500000 inch
 RIGHTX: 3.000000 inch
 SCALETYPE: Linear
 NUMCHARTDIVISIONS: 10
CURVE: CALI  6.000000   16.000000  (0,0,255)      Solid             2     N    
CURVE: GR    0.000000   100.000000 (0,131,131)    Dot               2     Y    
BACKUP: 100.000000 200.000000 (0,131,131)    Dot               2    
ENDTRACK: 
#
#   TRACK 2
#
STARTTRACK: 
 LEFTX: 3.500000 inch
 RIGHTX: 8.500000 inch
 SCALETYPE: Linear
 NUMCHARTDIVISIONS: 10
CURVE: DPHI  0.300000   -0.100000  (255,0,255)    Solid             2     Y    
BACKUP: 0.700000   0.300000   (255,0,255)    Solid             2    
CURVE: NPHI  0.300000   -0.100000  (255,0,0)      Dot               2     Y    
BACKUP: 0.700000   0.300000   (255,0,0)      Dot               2    
CURVE: DRHO  -0.050000  0.950000   (255,131,0)    Short_Dash        2     N    
ENDTRACK: 
#
#   TRACK 3
#
STARTTRACK: 
 LEFTX: 8.500000 inch
 RIGHTX: 13.500000 inch
 SCALETYPE: Linear
 NUMCHARTDIVISIONS: 10
CURVE: RHOB  2.000000   3.000000   (255,255,0)    Solid             2     Y    
BACKUP: 1.000000   2.000000   (255,255,0)    Solid             2    
ENDTRACK: 
<DescLogPlotEnd>
~A DEPTH     CALI             GR               DPHI             NPHI             DRHO             RHOB            
# ...
    5464.000 9.33667335       97.27221218      0.05824754       0.14090376       0.03995147       2.61508257      
    5464.500 9.33667335       96.32782535      0.06068205       0.14164468       0.03857646       2.61004242      
    5465.000 9.33667335       91.69946217      0.05947844       0.13606375       0.02726625       2.60732648      
    5465.500 9.33667335       86.44127047      0.05225677       0.11339574       0.01920888       2.61212726      
    5466.000 9.33667335       83.23217399      0.04713970       0.09757209       0.02076707       2.61830742      
    5466.500 9.33667335       84.54042695      0.04744233       0.09397382       0.02187319       2.62724431      
    5467.000 9.33667335       93.89308657      0.05185557       0.10672649       0.02337130       2.62807155      
    5467.500 9.33667335       100.80192486     0.05185557       0.12086259       0.03146289       2.62327258      
    5468.000 9.33667837       106.19740129     0.04319358       0.13193581       0.03239270       2.64310166      
    5468.500 9.33666392       113.90479179     0.04022066       0.14306374       0.04774387       2.64525311      
    5469.000 9.33674570       112.64491722     0.04623872       0.15295888       0.04978819       2.63958163      
    5469.500 9.33185831       110.60681158     0.05145436       0.15570808       0.04908393       2.63468679      
    5470.000 9.32464624       106.62254556     0.04960883       0.15560546       0.04537797       2.62948384      
    5470.500 9.31738539       101.94942490     0.04654865       0.15544442       0.04012412       2.62460317      
    5471.000 9.31667747       96.72920100      0.05065196       0.15244333       0.03478416       2.61681518      
    5471.500 9.30591234       89.58941235      0.05707121       0.14870512       0.02941771       2.61398927      
    5472.000 9.29676217       82.01210074      0.05707121       0.13748445       0.02401433       2.61261104      
    5472.500 9.29658688       79.21715004      0.04102307       0.12626379       0.02608450       2.62262552      
    5473.000 9.29657434       80.24997276      0.02698094       0.12264995       0.03637224       2.63713407      
    5473.500 9.29659319       83.79144306      0.02417252       0.12407222       0.04624306       2.65581726      
    5474.000 9.29659319       87.05736220      0.03232390       0.13009829       0.06404863       2.66814164      
    5474.500 9.29659319       88.26673400      0.04020755       0.13698370       0.05608501       2.65705628      
    5475.000 9.29659319       89.16443354      0.04194742       0.13996991       0.04975111       2.64883520      
    5475.500 9.29659319       91.57026401      0.03861585       0.14573721       0.04108142       2.64514549      
    5476.000 9.29661400       98.11974060      0.04177065       0.14549448       0.04393104       2.64506299      
    5476.500 9.29666875       105.78210037     0.05346038       0.14493480       0.04225628       2.63651894      
    5477.000 9.29649427       106.66923933     0.06516671       0.14974925       0.04175413       2.61989450      
    5477.500 9.28510620       100.93446549     0.06072920       0.15376128       0.03197179       2.59463524      
    5478.000 9.25396229       93.93385120      0.04903046       0.15543946       0.03541831       2.61204744      
    5478.500 9.22323094       87.40119992      0.04062187       0.15167088       0.04823067       2.62101011      
    5479.000 9.18398298       81.40259272      0.04182548       0.12460528       0.03395172       2.63471893      
    5479.500 9.17465366       77.52256242      0.04142427       0.09753969       0.03186675       2.63809218      
    5480.000 9.16511388       79.51107148      0.03811298       0.07662320       0.03239723       2.64505101      
    5480.500 9.15655987       83.31263269      0.03529285       0.07793380       0.03282157       2.65587206      
    5481.000 9.15624899       89.24611029      0.03506456       0.09465633       0.03323276       2.65382946      
    5481.500 9.14800208       94.72389703      0.03981946       0.11076376       0.03364508       2.64918611      
    5482.000 9.14524525       98.00147330      0.04742093       0.12002994       0.03399457       2.64106116      
    5482.500 9.15659703       98.38029772      0.05265797       0.12799065       0.03563977       2.61893485      
    5483.000 9.15352233       97.85518499      0.04744233       0.13329990       0.03831793       2.62002764      
    5483.500 9.13576330       93.62900517      0.04102307       0.13169509       0.04049493       2.62983415      
    5484.000 9.15342799       91.59882620      0.04100970       0.12354263       0.03855037       2.63579459      
    5484.500 9.17490600       92.66982058      0.04503511       0.11283852       0.03761065       2.63889998      
    5485.000 9.15604484       97.95639416      0.04984955       0.10802407       0.03362996       2.63514364      
    5485.500 9.15618973       101.87077014     0.05586760       0.11003009       0.02974738       2.62612764      
    5486.000 9.15645558       104.47389537     0.06198195       0.12423983       0.02844938       2.59922557      
    5486.500 9.16738141       104.46553374     0.06469408       0.14012036       0.02640543       2.60001147      
    5487.000 9.17640270       103.07383582     0.05987964       0.14413240       0.02589706       2.60298345      
    5487.500 9.17645515       103.31438087     0.05225677       0.13931795       0.02687083       2.61126229      
    5488.000 9.17634455       104.01748579     0.04904714       0.14131294       0.03795569       2.61439491      
    5488.500 9.17606772       100.29486908     0.05586760       0.13971916       0.03356271       2.62087374      
    5489.000 9.19170804       97.44243667      0.06188566       0.14453360       0.03197420       2.61427808      
    5489.500 9.19633430       92.03515931      0.06469408       0.14694082       0.02796446       2.60353923      
    5490.000 9.19643923       91.37031538      0.05771314       0.14677143       0.02693569       2.60135316      
    5490.500 9.19642975       91.42959032      0.05305918       0.14653962       0.02694914       2.62289728      
    5491.000 9.19848478       92.52847342      0.05586760       0.14292879       0.02695964       2.62491939      
    5491.500 9.20403806       92.94123112      0.06068205       0.13771314       0.02695381       2.61409399      
    5492.000 9.20953964       93.79374077      0.06228686       0.13738315       0.02699181       2.60901164      
    5492.500 9.21505173       94.87121103      0.05987844       0.13811434       0.02802186       2.60615689      
    5493.000 9.22056925       95.87647993      0.06272952       0.14092277       0.02676477       2.60492093      
    5493.500 9.22618581       96.82614048      0.06921515       0.14556871       0.02248638       2.60105566      
    5494.000 9.23175159       95.18968458      0.05944366       0.14781143       0.03551829       2.58776471      
    5494.500 9.22867471       91.58830435      0.04142427       0.14974925       0.04753155       2.58652449      
    5495.000 9.22591912       85.06674906      0.02497492       0.14962889       0.05240211       2.63420800      
    5495.500 9.23663148       81.32309341      0.01815446       0.14569609       0.05922993       2.68454144      
    5496.000 9.23649765       85.36601616      0.02612718       0.14201103       0.05997714       2.66655962      
    5496.500 9.23649757       91.01829751      0.04371938       0.13811434       0.05902728       2.66320835      
    5497.000 9.23638042       96.54439251      0.05209057       0.13987680       0.04751454       2.64511544      
    5497.500 9.23016343       96.92489989      0.06045797       0.14473049       0.04239754       2.62431276      
    5498.000 9.21437016       97.05302464      0.06536694       0.14563193       0.03282654       2.60976482      
    5498.500 9.19851380       94.71095201      0.06587663       0.14537387       0.03176997       2.60028919      
