~Version Information Block
 VERS.                2.00:     CWLS LOG ASCII STANDARD - VERSION 2.000000
 WRAP.                  NO:     One Line Per Depth Step
#
~Well Information Block
#MNEM.UNIT                     Data                         Information
#----------   ------------------------------------------   ----------------
 STRT.FT                                      250.0000:     START DEPTH
 STOP.FT                                    10290.0000:     STOP DEPTH
 STEP.FT                                        0.5000:     STEP
 NULL.                                       -999.2500:     NULL VALUE
 COMP.                                                :     COMPANY
 WELL.                                                :     WELL
 FLD .                                                :     FIELD
 LOC .                                                :     LOCATION
 CNTY.                                                :     COUNTY
 STAT.                                                :     STATE
 CTRY.                                                :     COUNTRY
 SRVC.                                                :     SERVICE COMPANY
 DATE.                                                :     DATE
 API .                                                4210931550:     API NUMBER
 UWI .                                                :     UWI NUMBER
 TVD .                                              NO:     TVD flag
 WSTA.                                             LOC:     Well status
#
~Curve Information Block
#MNEM.UNIT       API CODE      Curve Description
#----------    -------------   -------------------
 DEPT.FT                   :   Depth in Feet
 LLS .OHMM                 :   Latero-Log Shallow (Resistivity)
 LLD .OHMM                 :   Latero-Log Deep (Resistivity)
 SFLU.OHMM                 :   SFL Resistivity (Unaveraged)
 ILD .OHMM                 :   Deep Induction Standard Processed Resistivity
 ILM .OHMM                 :   Medium Induction Standard Processed Resistivity
#
~Parameter Information Block
#MNEM.UNIT            Value               Description
#----------    --------------------    -------------------
 RUN .                         ONE:    Run Number
 PDAT.                          GL:    Permanent Datum
 EPD .FT                          :    Elevation Of Perm. Datum
 LMF .               KELLY BUSHING:    Log Measured From
 EKB .FT                          :    Elevation Of Kelly Bushing
 DF .FT                           :    Elevation Of Derrick Floor
 GL .FT                           :    Elevation Of Ground Level
 TD  .FT                          :    Total Depth
 CSGD.FT                          :    Casing Bottom (Driller) 1
 CSGL.FT                          :    Casing Bottom (Logger) 1
 MUD .                            :    Drilling Fluid Type
 MUDV .CP                         :    Drilling Fluid Viscosity
 MUDD .LB/USG                     :    Drilling Fluid Density
 FL .ML/30MIN                     :    Drilling Fluid Loss
 PH.                              :    Drilling Fluid Ph
 MUDS .                           :    Mud Sample Source
 RM .OHMM                         :    Resistivity Of Mud Sample
 RMT .DEGF                        :    Mud Sample Temperature
 RMF .OHMM                        :    Mud Filtrate Resistivity
 RMFT.DEGF                        :    Mud Filtrate Sample Temperature
 RMC .OHMM                        :    Mud Cake Resistivity
 RMCT.DEGF                        :    Mud Cake Sample Temperature
 RMB .OHMM                        :    Mud Resistivity At Bht
 TMAX .DEGF                       :    Bottom Hole Temperature
#
~Other Information Block
<DescLogPlotStart>   NEURALOG PLOT DEFINITION
PLOTDEFVERSION: 3
LASFILE: E:\nds\projects\Texas Standard Oil LLC\pdf\Pradeep+Ekta\42109315500000
DEPTHSCALE: 240.000000
RESOLUTION: 200
DEPTHLABELFREQ: 100.000000
HEAVYGRIDFREQ: 100.000000
MEDIUMGRIDFREQ: 50.000000
LIGHTGRIDFREQ: 10.000000
#
#   TRACK 1
#
STARTTRACK: 
 LEFTX: 1.000000 inch
 RIGHTX: 6.000000 inch
 SCALETYPE: Log
 NUMCYCLES: 4
 STARTCYCLE: 2
CURVE: SFLU  0.200000   2000.000000 (0,0,255)      Solid             2     N   
CURVE: ILD   0.200000   2000.000000 (0,131,131)    Dot               2     N   
CURVE: ILM   0.200000   2000.000000 (255,0,255)    Short_Dash        2     N   
ENDTRACK: 
#
#   TRACK 2
#
STARTTRACK: 
 LEFTX: 1.000000 inch
 RIGHTX: 6.000000 inch
 SCALETYPE: Log
 NUMCYCLES: 4
 STARTCYCLE: 2
CURVE: LLS   0.200000   2000.000000 (255,0,0)      Solid             2     Y   
BACKUP: 2000.000000 20000000.000000 (255,0,0)      Solid             2    
CURVE: LLD   0.200000   2000.000000 (255,131,0)    Dot               2     Y   
BACKUP: 2000.000000 20000000.000000 (255,131,0)    Dot               2    
ENDTRACK: 
<DescLogPlotEnd>
~A DEPTH     LLS              LLD              SFLU             ILD              ILM             
# ...
    8819.000 -999.25000000    -999.25000000    1937.35828926    1815.11278800    268.17120416    
    8819.500 -999.25000000    -999.25000000    1936.41692306    1815.11278800    268.17120416    
    8820.000 -999.25000000    -999.25000000    1937.40539687    1798.42189149    265.70523188    
    8820.500 -999.25000000    -999.25000000    1831.95859034    1781.88447636    240.03120690    
    8821.000 -999.25000000    -999.25000000    1701.45067632    1670.30311695    237.82399638    
    8821.500 -999.25000000    -999.25000000    1670.30311695    1594.90607035    233.47027802    
    8822.000 -999.25000000    -999.25000000    1670.46650592    1593.93879879    231.32339862    
    8822.500 -999.25000000    -999.25000000    1669.63170610    1593.33660709    225.00048593    
    8823.000 -999.25000000    -999.25000000    1748.81330488    1701.58849419    225.00048593    
    8823.500 -999.25000000    -999.25000000    1781.80909846    1701.45067632    216.83795940    
    8824.000 -999.25000000    -999.25000000    1832.14700169    1831.95859034    216.83795940    
    8824.500 -999.25000000    -999.25000000    1848.79518358    1831.95859034    203.25959638    
    8825.000 -999.25000000    -999.25000000    1848.96073617    1831.95859034    201.39051975    
    8825.500 -999.25000000    -999.25000000    1831.95859034    1831.95859034    201.39051975    
    8826.000 -999.25000000    -999.25000000    1848.96073617    1831.95859034    205.14601964    
    8826.500 -999.25000000    -999.25000000    1815.11278800    1831.95859034    208.97155152    
    8827.000 -999.25000000    -999.25000000    1765.49913127    1866.12067648    210.91098662    
    8827.500 -999.25000000    -999.25000000    1733.17907065    1883.43987574    210.91098662    
    8828.000 -999.25000000    -999.25000000    1685.80496144    1883.43987574    197.70376982    
    8828.500 -999.25000000    -999.25000000    1654.94381991    1883.43987574    188.77947327    
    8829.000 -999.25000000    -999.25000000    1609.70816562    1883.43987574    167.41651628    
    8829.500 -999.25000000    -999.25000000    1551.31146685    1848.96073617    147.10579962    
    8830.000 -999.25000000    -999.25000000    1537.04635929    1765.49913127    113.57762527    
    8830.500 -999.25000000    -999.25000000    1324.17031686    1004.92420189    105.48640583    
    8831.000 -999.25000000    -999.25000000    1126.34915066    866.84356162     97.97160127     
    8831.500 -999.25000000    -999.25000000    958.08099081     462.51121978     91.83663315     
    8832.000 -999.25000000    -999.25000000    814.95083866     380.95134761     89.32640281     
    8832.500 -999.25000000    -999.25000000    693.20326341     322.59145866     88.50500055     
    8833.000 -999.25000000    -999.25000000    632.03776655     217.40375977     87.69115150     
    8833.500 -999.25000000    -999.25000000    632.62659819     182.53514939     86.08583588     
    8834.000 -999.25000000    -999.25000000    702.18418188     200.03775602     86.08583588     
    8834.500 -999.25000000    -999.25000000    734.04735467     155.48983823     85.29423231     
    8835.000 -999.25000000    -999.25000000    754.67538718     151.23973349     85.29423231     
    8835.500 -999.25000000    -999.25000000    734.04735467     178.60045187     86.88478622     
    8836.000 -999.25000000    -999.25000000    706.51157642     251.37836046     89.32640281     
    8836.500 -999.25000000    -999.25000000    677.00229986     688.08141087     111.49841964    
    8837.000 -999.25000000    -999.25000000    971.08122834     1574.71651279    353.81254328    
    8837.500 -999.25000000    -999.25000000    968.46774528     1493.18722144    370.53855700    
    8838.000 -999.25000000    -999.25000000    1092.04775547    690.88001871     373.97747238    
    8838.500 -999.25000000    -999.25000000    627.36381234     621.91985074     168.97028504    
    8839.000 -999.25000000    -999.25000000    198.50902049     176.42321391     43.45512753     
    8839.500 -999.25000000    -999.25000000    112.97069566     71.02684817      38.89525252     
    8840.000 -999.25000000    -999.25000000    64.29117451      40.29249001      34.81385869     
    8840.500 -999.25000000    -999.25000000    59.49086128      37.04523067      23.61819183     
    8841.000 -999.25000000    -999.25000000    58.40179348      36.33892947      21.53407814     
    8841.500 -999.25000000    -999.25000000    49.45492349      33.74941596      24.05862029     
    8842.000 -999.25000000    -999.25000000    47.22254115      33.80329993      29.57025577     
    8842.500 -999.25000000    -999.25000000    47.22254115      34.17653976      53.56748248     
    8843.000 -999.25000000    -999.25000000    72.22757181      35.46306225      62.75669272     
    8843.500 -999.25000000    -999.25000000    93.02887284      40.73397345      84.50990793     
    8844.000 -999.25000000    -999.25000000    236.55312612     51.79283870      108.45076092    
    8844.500 -999.25000000    -999.25000000    1144.84223437    82.36907678      129.25914817    
    8845.000 -999.25000000    -999.25000000    1350.57423706    279.76967667     152.65154230    
    8845.500 -999.25000000    -999.25000000    1883.43987574    968.46774528     167.42023373    
    8846.000 -999.25000000    -999.25000000    1883.43987574    1175.81208467    219.08305835    
    8846.500 -999.25000000    -999.25000000    1883.43987574    1325.84998745    215.49728443    
    8847.000 -999.25000000    -999.25000000    1329.33306452    1277.75104382    231.32339862    
    8847.500 -999.25000000    -999.25000000    895.90858201     1042.75300490    275.70729061    
    8848.000 -999.25000000    -999.25000000    588.07837720     812.56193771     488.87124046    
    8848.500 -999.25000000    -999.25000000    895.10543664     627.36381234     1175.81208467   
    8849.000 -999.25000000    -999.25000000    1404.06020219    479.92173273     1454.16855741   
    8849.500 -999.25000000    -999.25000000    1781.88447636    225.00048593     1481.28567227   
    8850.000 -999.25000000    -999.25000000    1880.64373270    170.53847410     1112.41209650   
    8850.500 -999.25000000    -999.25000000    893.36294962     136.62604798     768.74845942    
    8851.000 -999.25000000    -999.25000000    420.79606216     79.95311928      79.21790919     
    8851.500 -999.25000000    -999.25000000    198.77191152     73.57446062      50.40778899     
    8852.000 -999.25000000    -999.25000000    93.93398896      63.46503285      41.54751273     
    8852.500 -999.25000000    -999.25000000    62.88143920      52.75866371      37.10019964     
    8853.000 -999.25000000    -999.25000000    62.88143920      46.42340560      37.14603185     
    8853.500 -999.25000000    -999.25000000    67.70469125      41.74106716      35.09663802     
    8854.000 -999.25000000    -999.25000000    69.60731315      37.80536094      34.96114179     
    8854.500 -999.25000000    -999.25000000    74.50625731      37.80697258      41.11201964     
    8855.000 -999.25000000    -999.25000000    80.16378934      38.50076144      48.10313994     
    8855.500 -999.25000000    -999.25000000    125.74987273     42.18202193      52.27352064     
    8856.000 -999.25000000    -999.25000000    185.32358710     46.35806302      55.76555177     
    8856.500 -999.25000000    -999.25000000    227.89328510     53.74249927      55.76555177     
    8857.000 -999.25000000    -999.25000000    242.25890222     55.25275882      55.25275882     
    8857.500 -999.25000000    -999.25000000    227.08868328     52.67044174      50.37715140     
    8858.000 -999.25000000    -999.25000000    180.25801713     48.19727162      44.67629368     
    8858.500 -999.25000000    -999.25000000    116.88402842     45.96450127      38.53759065     
    8859.000 -999.25000000    -999.25000000    74.61644586      39.94372811      36.79801387     
    8859.500 -999.25000000    -999.25000000    51.38386038      36.73116782      34.81385869     
