###############################################
##         ENVERUS                           ##
##         ESS - Open Hole                   ##
##         PERMIAN / DELAWARE                ##
##         Nov 03 2023  V4.0                 ##
##         42-109-32599-00-00                ##
###############################################
## Copyright 2017-2023  ENVERUS.  All Rights Reserved. 
## Confidential - Property of ENVERUS, use governed by terms and 
## conditions found within the existing Information Services Subscription Agreement 
## (as may be amended, the “ISSA”) between Customer and ENVERUS. 
## 
~VERSION INFORMATION
# MNEM.UNIT                               DATA : DESCRIPTION OF MNEMONIC
#-----.-----     ----------------------------- : -----------------------------
VERS.                                     2.00 : CWLS LOG ASCII STANDARD - VERSION 2.00
WRAP.                                       NO : MULTIPLE LINES PER DEPTH STEP
VEND.                                  ENVERUS : VENDOR
TYPE.                          ESS - OPEN HOLE : ENVERUS ESSENTIAL CURVES – ACCESSIBLE THROUGH ENVERUS PRISM(TM)
DOC.                                  21933172 : ENVERUS HEADER RAW DOCUMENT ID
#___________________________________________________________________________________________________ 
~WELL INFORMATION 
# uOzh0bdZpl++Qd8K/evm6vwbqlxLNv7zXaBwNvlB7bYnaXF7FEkKOyKwz7AUW0q8cTh4whY6gpezG6wl1Vx46w== 
# MNEM.UNIT                                              DATA : DESCRIPTION OF MNEMONIC 
#-----.-----                    ----------------------------- : ----------------------------- 
CNTY.                                               CULBERSON : COUNTY 
STATE.                                                  TEXAS : STATE 
CNTRY.                                                    USA : COUNTRY 
API.                                             42-109-32599 : API (10 Digit) 
API_14.                                    42-109-32599-00-00 : API (14 Digits) 
API_14_std.                                 42-109-32599-0000 : API (14 Digits Standard) 
UWI.                                           42109325990000 : UNIQUE WELL ID 
WELL.                                           COMANCHE 46 6 : WELL NAME
STRT.FT                                                 190.0 : START DEPTH
STOP.FT                                                5230.0 : STOP DEPTH
STEP.FT                                                   0.5 : STEP BETWEEN DEPTHS
NULL.                                                 -999.25 : NULL VALUE
SRVC.                                             HALLIBURTON :  
DATE.                                  12/31/2013 12-00-00 AM : 
#___________________________________________________________________________________________________ 
~PARAMETER INFORMATION 
# MNEM.UNIT                                              DATA : DESCRIPTION OF MNEMONIC 
#-----.-----                    ----------------------------- : -----------------------------
#___________________________________________________________________________________________________ 
~CURVE INFORMATION 
# MNEM.UNIT           : CURVE DESCRIPTION 
#-----.-----          : ----------------------------- 
 DEPT.FT               : MEASURED DEPTH 
 CALI.IN               : CALIPER (CALD) 
 GR.API                : GAMMA RAY (GRD) 
 PE.B/E                : PHOTOELECTRIC EFFECT/FACTOR 
 RESS_LL.OHMM          : SHALLOW LATEROLOG (LLS) 
 RESD_LL.OHMM          : DEEP LATEROLOG (LLD) 
 DPHI_LS.V/V           : DENSITY POROSITY - LIMESTONE 
 NPHI_LS.V/V           : NEUTRON POROSITY - LIMESTONE 
 RHOB.G/CC             : BULK DENSITY 
 #___________________________________________________________________________________________________ 
~A         DEPT           CALI             GR             PE        RESS_LL        RESD_LL        DPHI_LS        NPHI_LS           RHOB
# ...
         2668.0          8.973         73.055         2.5565         5.2853         7.6439        0.16460        0.18940         2.4381
         2668.5          8.938         71.958         2.5243         5.6880         7.9613        0.16860        0.17930         2.4404
         2669.0          8.896         68.919         2.5129         5.6744         7.9613        0.16680        0.19200         2.4458
         2669.5          8.910         60.933         2.4995         5.3979         7.9613        0.16210        0.17980         2.4549
         2670.0          8.893         55.724         2.4837         5.1214         7.4214        0.15730        0.17120         2.4555
         2670.5          8.867         53.258         2.4805         4.8696         6.8814        0.15610        0.16430         2.4491
         2671.0          8.873         56.907         2.5524         4.6241         6.4495        0.16250        0.18110         2.4407
         2671.5          8.871         62.195         2.5861         4.4675         6.3702        0.16880        0.18340         2.4295
         2672.0          8.864         69.582         2.5909         4.4491         6.5702        0.17510        0.18660         2.4220
         2672.5          8.865         72.712         2.5931         4.8651         6.6932        0.17730        0.18650         2.4281
         2673.0          8.883         74.634         2.5573         5.3850         7.7476        0.17160        0.17800         2.4431
         2673.5          8.871         80.180         2.5303         5.6451         8.0825        0.15970        0.17260         2.4581
         2674.0          8.864         83.365         2.6386         5.1344         7.1317        0.14780        0.18120         2.4731
         2674.5          8.851         83.633         2.7092         4.4743         5.9120        0.14070        0.18380         2.4821
         2675.0          8.856         82.282         2.6309         3.8142         4.9649        0.14220        0.19270         2.4618
         2675.5          8.856         74.780         2.5428         3.1876         4.4415        0.15030        0.19820         2.4404
         2676.0          8.851         67.301         2.4038         3.1558         4.4730        0.16750        0.18890         2.4190
         2676.5          8.856         67.286         2.3500         3.3226         4.7342        0.18150        0.17960         2.4143
         2677.0          8.843         70.979         2.3298         3.4104         4.3412        0.19060        0.18700         2.4064
         2677.5          8.845         68.425         2.3298         3.1601         3.5717        0.20150        0.19380         2.3985
         2678.0          8.843         64.651         2.2836         2.5346         2.8475        0.21340        0.19860         2.3800
         2678.5          8.833         59.642         2.2467         1.9090         2.1839        0.22960        0.21120         2.3453
         2679.0          8.840         53.904         2.2186         1.4532         1.9313        0.24860        0.22180         2.3106
         2679.5          8.832         48.221         2.1767         1.6764         2.0873        0.25680        0.22020         2.2971
         2680.0          8.824         42.572         2.1766         1.8996         2.2822        0.24360        0.21700         2.3218
         2680.5          8.819         41.591         2.1766         2.1229         2.6637        0.22840        0.21410         2.3522
         2681.0          8.813         43.136         2.2487         2.2259         2.8514        0.21330        0.18100         2.3644
         2681.5          8.808         44.607         2.2487         2.2947         2.9977        0.21300        0.21380         2.3554
         2682.0          8.803         47.296         2.2374         2.5696         3.4609        0.22320        0.20380         2.3405
         2682.5          8.803         57.313         2.2082         2.7511         3.5682        0.23590        0.19710         2.3256
         2683.0          8.843         58.768         2.2335         2.9039         3.4903        0.24200        0.20330         2.3113
         2683.5          8.869         57.642         2.2489         2.6728         3.3855        0.24240        0.20280         2.3123
         2684.0          8.859         54.888         2.2720         2.4701         3.4057        0.24700        0.19500         2.3241
         2684.5          8.828         49.504         2.1837         2.3812         3.5491        0.23470        0.19520         2.3420
         2685.0          8.803         45.888         2.1360         2.2491         2.9557        0.21960        0.19490         2.3864
         2685.5          8.786         45.463         2.1808         1.9445         2.5827        0.19790        0.18370         2.3995
         2686.0          8.757         46.193         2.2651         1.7927         2.5196        0.18920        0.16940         2.4029
         2686.5          8.728         42.523         2.2373         1.8337         2.5715        0.20120        0.18250         2.3888
         2687.0          8.700         43.239         2.1893         2.1210         2.9753        0.20650        0.19560         2.3696
         2687.5          8.700         49.010         2.1882         2.6852         3.7129        0.20740        0.20870         2.3555
         2688.0          8.719         55.956         2.2476         2.8863         4.0419        0.21820        0.20870         2.3455
         2688.5          8.763         59.917         2.2487         2.9582         4.1875        0.22720        0.20000         2.3445
         2689.0          8.743         59.720         2.2082         3.2482         4.2618        0.22260        0.19130         2.3569
         2689.5          8.759         59.274         2.1680         3.5877         4.7378        0.21260        0.19500         2.3861
         2690.0          8.755         57.135         2.3008         3.8593         5.2916        0.20260        0.19440         2.3988
         2690.5          8.743         53.097         2.4221         3.7097         5.0247        0.19450        0.18570         2.3937
         2691.0          8.763         51.120         2.5502         3.4602         4.6491        0.19730        0.17990         2.3877
         2691.5          8.743         52.102         2.4241         2.8602         3.7803        0.20490        0.18960         2.3818
         2692.0          8.723         53.558         2.4098         2.3100         3.4679        0.20940        0.20170         2.3772
         2692.5          8.696         53.775         2.4249         2.3603         3.3903        0.20690        0.19610         2.3738
         2693.0          8.668         55.405         2.4400         2.6119         3.3903        0.20640        0.19000         2.3748
         2693.5          8.664         57.892         2.3721         2.8634         3.7151        0.20660        0.17920         2.3806
         2694.0          8.644         59.530         2.3044         3.1150         4.2763        0.20190        0.17090         2.3886
         2694.5          8.643         64.702         2.2285         3.2489         4.3325        0.19080        0.15820         2.4009
         2695.0          8.643         64.678         2.2859         3.1639         4.1066        0.18460        0.17150         2.4014
         2695.5          8.624         59.609         2.3979         3.1275         4.1577        0.18810        0.17010         2.4018
         2696.0          8.609         58.775         2.3865         3.5162         4.5387        0.19050        0.17380         2.4035
         2696.5          8.599         59.270         2.3317         3.9049         4.9122        0.18900        0.18600         2.4064
         2697.0          8.563         58.206         2.2892         4.2937         5.3591        0.18640        0.18190         2.4126
