~Version Information Block
 VERS.                2.00:     CWLS LOG ASCII STANDARD - VERSION 2.000000
 WRAP.                  NO:     One Line Per Depth Step
#
~Well Information Block
#MNEM.UNIT                     Data                         Information
#----------   ------------------------------------------   ----------------
 STRT.FT                                        4.0000:     START DEPTH
 STOP.FT                                    10300.0000:     STOP DEPTH
 STEP.FT                                        0.5000:     STEP
 NULL.                                       -999.2500:     NULL VALUE
 COMP.                            MONSANTO OIL COMPANY:     COMPANY
 WELL.                               UNIVERSITY_6-46-1:     WELL
 FLD .                                         WILDCAT:     FIELD
 LOC .                                                :     LOCATION
 CNTY.                                       CULBERSON:     COUNTY
 STAT.                                           TEXAS:     STATE
 CTRY.                                             USA:     COUNTRY
 SRVC.                                                :     SERVICE COMPANY
 DATE.                                      10/31/2016:     DATE
 API .                                  42109315500000:     API NUMBER
 UWI .                                  42109315500000:     UWI NUMBER
 TVD .                                              NO:     TVD flag
 WSTA.                                             LOC:     Well status
#
~Curve Information Block
#MNEM.UNIT       API CODE      Curve Description
#----------    -------------   -------------------
 DEPT.FT                   :   Depth in Feet
 CALI.IN                   :   Caliper
 GR  .GAPI                 :   Gamma Ray
 DPHI.V/V                  :   Density Porosity
 NPHI.V/V                  :   Neutron Porosity
 DRHO.G/C3                 :   Delta Rho
 RHOB.G/C3                 :   Bulk Density
#
~Parameter Information Block
#MNEM.UNIT            Value               Description
#----------    --------------------    -------------------
 RUN .                         ONE:    Run Number
 PDAT.                          GL:    Permanent Datum
 EPD .FT                          :    Elevation Of Perm. Datum
 LMF .               KELLY BUSHING:    Log Measured From
 EKB .FT                          :    Elevation Of Kelly Bushing
 DF .FT                           :    Elevation Of Derrick Floor
 GL .FT                           :    Elevation Of Ground Level
 TD  .FT                          :    Total Depth
 CSGD.FT                          :    Casing Bottom (Driller) 1
 CSGL.FT                          :    Casing Bottom (Logger) 1
 MUD .                            :    Drilling Fluid Type
 MUDV .CP                         :    Drilling Fluid Viscosity
 MUDD .LB/USG                     :    Drilling Fluid Density
 FL .ML/30MIN                     :    Drilling Fluid Loss
 PH.                              :    Drilling Fluid Ph
 MUDS .                           :    Mud Sample Source
 RM .OHMM                         :    Resistivity Of Mud Sample
 RMT .DEGF                        :    Mud Sample Temperature
 RMF .OHMM                        :    Mud Filtrate Resistivity
 RMFT.DEGF                        :    Mud Filtrate Sample Temperature
 RMC .OHMM                        :    Mud Cake Resistivity
 RMCT.DEGF                        :    Mud Cake Sample Temperature
 RMB .OHMM                        :    Mud Resistivity At Bht
 TMAX .DEGF                       :    Bottom Hole Temperature   
#
~Other Information Block
<DescLogPlotStart>   NEURALOG PLOT DEFINITION
PLOTDEFVERSION: 3
LASFILE: E:\nds\projects\Texas Standard Oil LLC\pdf\Pradeep+Ekta\42109315500000
DEPTHSCALE: 240.000000
RESOLUTION: 200
DEPTHLABELFREQ: 100.000000
HEAVYGRIDFREQ: 100.000000
MEDIUMGRIDFREQ: 50.000000
LIGHTGRIDFREQ: 10.000000
#
#   TRACK 1
#
STARTTRACK: 
 LEFTX: 0.500000 inch
 RIGHTX: 3.000000 inch
 SCALETYPE: Linear
 NUMCHARTDIVISIONS: 10
CURVE: CALI  6.000000   16.000000  (0,0,255)      Solid             2     N    
CURVE: GR    0.000000   100.000000 (0,131,131)    Dot               2     Y    
BACKUP: 100.000000 200.000000 (0,131,131)    Dot               2    
ENDTRACK: 
#
#   TRACK 2
#
STARTTRACK: 
 LEFTX: 3.500000 inch
 RIGHTX: 8.500000 inch
 SCALETYPE: Linear
 NUMCHARTDIVISIONS: 10
CURVE: DPHI  0.300000   -0.100000  (255,0,255)    Solid             2     Y    
BACKUP: 0.700000   0.300000   (255,0,255)    Solid             2    
CURVE: NPHI  0.300000   -0.100000  (255,0,0)      Dot               2     Y    
BACKUP: 0.700000   0.300000   (255,0,0)      Dot               2    
CURVE: DRHO  -0.050000  0.950000   (255,131,0)    Short_Dash        2     N    
ENDTRACK: 
#
#   TRACK 3
#
STARTTRACK: 
 LEFTX: 8.500000 inch
 RIGHTX: 13.500000 inch
 SCALETYPE: Linear
 NUMCHARTDIVISIONS: 10
CURVE: RHOB  2.000000   3.000000   (255,255,0)    Solid             2     Y    
BACKUP: 1.000000   2.000000   (255,255,0)    Solid             2    
ENDTRACK: 
<DescLogPlotEnd>
~A DEPTH     CALI             GR               DPHI             NPHI             DRHO             RHOB            
# ...
    4799.000 9.69474900       62.63068696      0.04142427       0.09074423       0.04590158       2.65402452      
    4799.500 9.75739584       64.03443440      0.05224897       0.09518556       0.03606468       2.64478141      
    4800.000 9.79843564       64.74333878      0.05958712       0.10032788       0.03676564       2.63548268      
    4800.500 9.84625348       64.05863229      0.05308831       0.10069911       0.04321490       2.63356672      
    4801.000 9.87256154       62.81968577      0.04299119       0.10336677       0.04989020       2.63153770      
    4801.500 9.91648374       62.18600668      0.04752304       0.10506687       0.05285049       2.62959080      
    4802.000 9.94591987       63.81215457      0.05584888       0.10676697       0.05262369       2.63027682      
    4802.500 9.97477604       66.67564079      0.06396452       0.10846707       0.03317334       2.62301588      
    4803.000 9.99785722       77.44529758      0.06474395       0.10922768       0.02379632       2.61731861      
    4803.500 10.02414847      79.54642055      0.06095515       0.11203611       0.02440895       2.60620478      
    4804.000 10.05187658      79.08617521      0.05357272       0.11435607       0.01899926       2.60393765      
    4804.500 10.07908032      77.56019381      0.04543631       0.11604814       0.03195083       2.61088366      
    4805.000 10.10917854      76.12610128      0.03620863       0.11323972       0.03430750       2.62209618      
    4805.500 10.12832469      73.66446313      0.03259779       0.10865196       0.04802674       2.63715593      
    4806.000 10.14294210      73.21249648      0.03575393       0.10861465       0.04999292       2.64724191      
    4806.500 10.15765583      75.35900174      0.03821464       0.11017024       0.04846736       2.65406502      
    4807.000 10.15815373      75.00673752      0.03821464       0.11275245       0.04707704       2.65207889      
    4807.500 10.17019443      72.26350802      0.03781344       0.10962889       0.03530636       2.64923550      
    4808.000 10.18579708      68.27883412      0.03529067       0.09484740       0.03411779       2.64911708      
    4808.500 10.20239320      65.07378597      0.03219659       0.08274824       0.03622493       2.64925760      
    4809.000 10.22501881      64.90746148      0.03139418       0.08078243       0.03823606       2.65167742      
    4809.500 10.25733004      66.05147732      0.03969509       0.08495009       0.04900335       2.65555154      
    4810.000 10.28917171      66.87332126      0.05193581       0.09760388       0.04579377       2.65152154      
    4810.500 10.31934608      67.03012320      0.05426279       0.10521565       0.04071219       2.62724910      
    4811.000 10.34174674      64.09075020      0.04102307       0.10481444       0.03539750       2.61904934      
    4811.500 10.36328129      62.12673575      0.02256770       0.10160481       0.04078094       2.61908272      
    4812.000 10.38448422      63.11662683      0.02455607       0.08799198       0.04902064       2.63383737      
    4812.500 10.39866769      64.49905472      0.03139418       0.08116851       0.03947584       2.65843829      
    4813.000 10.41460062      66.42145084      0.03861585       0.08016851       0.03938366       2.66707489      
    4813.500 10.41931321      69.93310102      0.04575923       0.08355065       0.03098590       2.66094584      
    4814.000 10.43859040      77.67971792      0.05457462       0.09194154       0.03201879       2.64994140      
    4814.500 10.46053859      82.57570514      0.06308405       0.10521565       0.03200329       2.63753327      
    4815.000 10.47876978      81.84430078      0.06470855       0.11725176       0.03247995       2.62015641      
    4815.500 10.49562825      82.84674409      0.05307229       0.12768305       0.02561820       2.61228473      
    4816.000 10.53262129      76.59824412      0.04537273       0.12925376       0.02673804       2.60984176      
    4816.500 10.56020181      71.62396065      0.03981946       0.12808425       0.02612292       2.61886410      
    4817.000 10.57849675      67.47021514      0.03861585       0.10268520       0.02204845       2.63086272      
    4817.500 10.60438357      86.84709452      0.03941825       0.08996991       0.02106272       2.64095902      
    4818.000 10.64986480      102.84840851     0.04466867       0.10699097       0.02373786       2.64415260      
    4818.500 10.68037288      113.59992139     0.05265797       0.13631770       0.02551469       2.64104415      
    4819.000 10.70120630      118.44634509     0.05747242       0.15656971       0.03595583       2.63231765      
    4819.500 10.71751689      99.46500173      0.05707121       0.16098295       0.02528024       2.62536660      
    4820.000 10.73540828      75.09018036      0.04981444       0.12084918       0.02139183       2.61546851      
    4820.500 10.75364944      54.73987976      0.04423270       0.09110574       0.01784931       2.62235164      
    4821.000 10.77182881      45.35551102      0.04222668       0.06154385       0.01436811       2.63123886      
    4821.500 10.79000774      41.16526963      0.03941825       0.04784353       0.01088637       2.63438891      
    4822.000 10.80818667      39.08600596      0.03713139       0.04538816       0.00773688       2.63807487      
    4822.500 10.82636560      37.96068936      0.03620863       0.04463390       0.00897356       2.64142524      
    4823.000 10.84454453      36.80895468      0.03580742       0.04423270       0.00868857       2.64659786      
    4823.500 10.86272347      35.47234114      0.03179539       0.04463390       0.01769910       2.65478490      
    4824.000 10.88090240      34.10255904      0.02510491       0.04665826       0.01945128       2.66299853      
    4824.500 10.89908133      32.85112118      0.02253718       0.04784353       0.02673303       2.67023069      
    4825.000 10.91726026      33.49556978      0.02972089       0.04944835       0.03045397       2.67121889      
    4825.500 10.93543920      34.16469770      0.03790277       0.05067924       0.02695979       2.67172021      
    4826.000 10.95361813      37.07093111      0.04142427       0.05359370       0.02493200       2.65582908      
    4826.500 10.97179706      39.62295701      0.04062187       0.05688928       0.01637360       2.64776823      
    4827.000 10.98997599      40.79014136      0.03340020       0.05947844       0.02012859       2.64306289      
    4827.500 11.00815356      39.61130949      0.02821025       0.06349047       0.02396657       2.64640089      
    4828.000 11.02633628      36.24361387      0.02358750       0.06549649       0.02397531       2.65626385      
    4828.500 11.04446421      34.28160016      0.01811610       0.05606660       0.02465947       2.66828782      
    4829.000 11.06327057      34.35404111      0.00932798       0.04953821       0.02643413       2.69571589      
    4829.500 11.08755025      35.73747379      0.00571715       0.04543631       0.02776396       2.70297778      
    4830.000 11.13404745      38.43393834      0.01911735       0.04890271       0.02042148       2.70135193      
    4830.500 11.17835091      41.05825409      0.03241514       0.05382835       0.01736576       2.67066092      
    4831.000 11.20663532      43.62569920      0.04145757       0.05903378       0.02061686       2.65777475      
    4831.500 11.23450974      44.57109297      0.03863101       0.06517055       0.02382212       2.64727761      
    4832.000 11.26806297      42.67728070      0.03226881       0.07227287       0.02697704       2.64714843      
    4832.500 11.28144438      39.69733653      0.02698094       0.07472594       0.02805309       2.65147030      
    4833.000 11.30087774      35.95509071      0.02858576       0.07191003       0.02854178       2.65924905      
    4833.500 11.30062186      33.35062709      0.03179539       0.06647207       0.02103359       2.66465079      
