###############################################
##         ENVERUS                           ##
##         ESS - Open Hole                   ##
##         PERMIAN / DELAWARE                ##
##         Nov 03 2023  V4.0                 ##
##         42-109-32599-00-00                ##
###############################################
## Copyright 2017-2023  ENVERUS.  All Rights Reserved. 
## Confidential - Property of ENVERUS, use governed by terms and 
## conditions found within the existing Information Services Subscription Agreement 
## (as may be amended, the “ISSA”) between Customer and ENVERUS. 
## 
~VERSION INFORMATION
# MNEM.UNIT                               DATA : DESCRIPTION OF MNEMONIC
#-----.-----     ----------------------------- : -----------------------------
VERS.                                     2.00 : CWLS LOG ASCII STANDARD - VERSION 2.00
WRAP.                                       NO : MULTIPLE LINES PER DEPTH STEP
VEND.                                  ENVERUS : VENDOR
TYPE.                          ESS - OPEN HOLE : ENVERUS ESSENTIAL CURVES – ACCESSIBLE THROUGH ENVERUS PRISM(TM)
DOC.                                  21933172 : ENVERUS HEADER RAW DOCUMENT ID
#___________________________________________________________________________________________________ 
~WELL INFORMATION 
# uOzh0bdZpl++Qd8K/evm6vwbqlxLNv7zXaBwNvlB7bYnaXF7FEkKOyKwz7AUW0q8cTh4whY6gpezG6wl1Vx46w== 
# MNEM.UNIT                                              DATA : DESCRIPTION OF MNEMONIC 
#-----.-----                    ----------------------------- : ----------------------------- 
CNTY.                                               CULBERSON : COUNTY 
STATE.                                                  TEXAS : STATE 
CNTRY.                                                    USA : COUNTRY 
API.                                             42-109-32599 : API (10 Digit) 
API_14.                                    42-109-32599-00-00 : API (14 Digits) 
API_14_std.                                 42-109-32599-0000 : API (14 Digits Standard) 
UWI.                                           42109325990000 : UNIQUE WELL ID 
WELL.                                           COMANCHE 46 6 : WELL NAME
STRT.FT                                                 190.0 : START DEPTH
STOP.FT                                                5230.0 : STOP DEPTH
STEP.FT                                                   0.5 : STEP BETWEEN DEPTHS
NULL.                                                 -999.25 : NULL VALUE
SRVC.                                             HALLIBURTON :  
DATE.                                  12/31/2013 12-00-00 AM : 
#___________________________________________________________________________________________________ 
~PARAMETER INFORMATION 
# MNEM.UNIT                                              DATA : DESCRIPTION OF MNEMONIC 
#-----.-----                    ----------------------------- : -----------------------------
#___________________________________________________________________________________________________ 
~CURVE INFORMATION 
# MNEM.UNIT           : CURVE DESCRIPTION 
#-----.-----          : ----------------------------- 
 DEPT.FT               : MEASURED DEPTH 
 CALI.IN               : CALIPER (CALD) 
 GR.API                : GAMMA RAY (GRD) 
 PE.B/E                : PHOTOELECTRIC EFFECT/FACTOR 
 RESS_LL.OHMM          : SHALLOW LATEROLOG (LLS) 
 RESD_LL.OHMM          : DEEP LATEROLOG (LLD) 
 DPHI_LS.V/V           : DENSITY POROSITY - LIMESTONE 
 NPHI_LS.V/V           : NEUTRON POROSITY - LIMESTONE 
 RHOB.G/CC             : BULK DENSITY 
 #___________________________________________________________________________________________________ 
~A         DEPT           CALI             GR             PE        RESS_LL        RESD_LL        DPHI_LS        NPHI_LS           RHOB
# ...
         3258.0          8.565         53.540         2.6628         5.8387         7.9535        0.09490        0.09250         2.5637
         3258.5          8.567         58.381         2.5912         5.4589         6.8878        0.10570        0.11540         2.5626
         3259.0          8.537         72.554         2.4602         5.2320         6.3920        0.13990        0.13820         2.5338
         3259.5          8.536         75.748         2.4585         5.2342         6.2694        0.16160        0.15670         2.4644
         3260.0          8.536         76.295         2.4781         5.3682         6.2721        0.17230        0.15700         2.4512
         3260.5          8.536         78.365         2.4923         6.0316         6.8978        0.16440        0.15560         2.4527
         3261.0          8.523         77.248         2.5440         6.6950         7.9688        0.15450        0.15880         2.4757
         3261.5          8.500         77.477         2.6173         7.3584         8.2338        0.14060        0.15160         2.4982
         3262.0          8.476         82.198         2.7346         6.6545         7.6482        0.11590        0.14320         2.5208
         3262.5          8.461         84.110         2.9618         5.4813         6.7567        0.10600        0.14270         2.5343
         3263.0          8.441         79.429         2.9293         4.5427         5.8652        0.14320        0.14790         2.4760
         3263.5          8.431         70.420         2.5394         5.4279         5.7916        0.15290        0.14880         2.4518
         3264.0          8.437         63.796         2.4746         6.5343         7.2062        0.15880        0.13870         2.4513
         3264.5          8.418         55.105         2.4383         7.6408         8.6208        0.14330        0.12180         2.4685
         3265.0          8.399         47.351         2.4745         8.7472        10.0354        0.12780        0.10500         2.4900
         3265.5          8.387         42.554         2.6235         8.5435         9.8740        0.12260        0.08820         2.5116
         3266.0          8.389         45.961         2.8194         8.1741         9.5511        0.12720        0.09280         2.5159
         3266.5          8.362         56.545         2.9113         8.8909         9.6699        0.12740        0.11110         2.5138
         3267.0          8.362         62.763         2.8287         9.6077        10.6118        0.12520        0.11710         2.5086
         3267.5          8.362         66.888         2.6438        10.3245        11.5536        0.12440        0.11040         2.5109
         3268.0          8.350         67.728         2.6033        10.8392        12.3835        0.12480        0.10160         2.5104
         3268.5          8.337         69.348         2.5713        11.2775        12.6153        0.12490        0.09720         2.5058
         3269.0          8.348         68.353         2.5633        11.8459        14.0156        0.11810        0.09140         2.5020
         3269.5          8.335         71.511         2.5553        13.2379        15.9556        0.11550        0.09580         2.5084
         3270.0          8.324         82.204         2.5473        14.6299        17.8849        0.11550        0.10000         2.5295
         3270.5          8.330         87.237         2.5861        16.1299        19.7711        0.11010        0.11910         2.5581
         3271.0          8.362         89.639         2.6809        18.0625        22.5073        0.08910        0.11010         2.5924
         3271.5          8.326         93.270         2.7410        22.7456        28.6431        0.06810        0.10390         2.6049
         3272.0          8.346        100.028         2.7710        29.2623        34.7789        0.06500        0.10430         2.6129
         3272.5          8.342        110.386         2.8010        35.7790        44.8781        0.06160        0.11100         2.6209
         3273.0          8.362        115.002         3.0294        42.2957        52.9575        0.05270        0.10690         2.6219
         3273.5          8.362        111.904         3.2000        38.0719        46.2029        0.05220        0.10380         2.6092
         3274.0          8.382        117.559         3.3517        31.0323        37.7595        0.06860        0.11590         2.5863
         3274.5          8.402        129.753         3.3314        23.9927        30.3786        0.08430        0.16230         2.5773
         3275.0          8.422        120.937         3.0883        18.8490        25.0954        0.08310        0.12210         2.5855
         3275.5          8.442         98.048         2.9708        16.5491        21.0365        0.07300        0.09810         2.5937
         3276.0          8.450         86.486         2.8249        14.9369        18.8177        0.07040        0.08930         2.5954
         3276.5          8.462         83.392         2.8249        14.7216        19.1545        0.07770        0.09060         2.5805
         3277.0          8.486         85.158         2.7447        15.4371        19.3284        0.09640        0.09990         2.5524
         3277.5          8.506         95.329         2.6581        13.7831        16.7107        0.10100        0.10920         2.5468
         3278.0          8.531        103.904         2.7284        11.7779        15.0225        0.10160        0.13350         2.5468
         3278.5          8.544        100.630         2.8415        10.0215        13.4200        0.10280        0.14810         2.5251
         3279.0          8.563         87.237         2.8789         8.2650         9.8257        0.13080        0.14640         2.4979
         3279.5          8.603         77.627         2.7755         6.5086         7.6685        0.14680        0.14620         2.4711
         3280.0          8.597         74.388         2.5925         5.0720         6.4694        0.16120        0.13300         2.4453
         3280.5          8.617         71.717         2.4777         5.2320         6.8834        0.17170        0.13520         2.4350
         3281.0          8.649         73.081         2.3551         5.7880         7.6554        0.16720        0.13960         2.4352
         3281.5          8.696         68.018         2.2502         6.3440         8.0326        0.16160        0.12980         2.4358
         3282.0          8.694         63.115         2.2498         6.5148         8.0326        0.15600        0.11770         2.4573
         3282.5          8.712         56.006         2.2493         5.7992         7.1996        0.15640        0.11050         2.4681
         3283.0          8.737         54.955         2.2489         5.0837         6.3505        0.18170        0.13040         2.4317
         3283.5          8.763         56.097         2.2096         4.9788         6.7618        0.19740        0.13790         2.3952
         3284.0          8.790         55.677         2.2511         5.4322         7.2760        0.20150        0.14140         2.3879
         3284.5          8.803         53.618         2.3047         5.7043         7.4122        0.18720        0.13250         2.3979
         3285.0          8.819         52.452         2.3565         5.4356         7.3894        0.16960        0.13330         2.4442
         3285.5          8.858         52.418         2.3540         4.9045         7.2760        0.15880        0.14270         2.4436
         3286.0          8.898         52.592         2.2923         4.4671         6.2394        0.17360        0.14500         2.4172
         3286.5          8.928         54.714         2.3004         4.2527         5.9160        0.19220        0.14240         2.3894
         3287.0          8.908         58.191         2.3703         4.1551         5.9713        0.20040        0.15680         2.3829
