###############################################
##         ENVERUS                           ##
##         ESS - Open Hole                   ##
##         PERMIAN / DELAWARE                ##
##         Nov 03 2023  V4.0                 ##
##         42-109-32599-00-00                ##
###############################################
## Copyright 2017-2023  ENVERUS.  All Rights Reserved. 
## Confidential - Property of ENVERUS, use governed by terms and 
## conditions found within the existing Information Services Subscription Agreement 
## (as may be amended, the “ISSA”) between Customer and ENVERUS. 
## 
~VERSION INFORMATION
# MNEM.UNIT                               DATA : DESCRIPTION OF MNEMONIC
#-----.-----     ----------------------------- : -----------------------------
VERS.                                     2.00 : CWLS LOG ASCII STANDARD - VERSION 2.00
WRAP.                                       NO : MULTIPLE LINES PER DEPTH STEP
VEND.                                  ENVERUS : VENDOR
TYPE.                          ESS - OPEN HOLE : ENVERUS ESSENTIAL CURVES – ACCESSIBLE THROUGH ENVERUS PRISM(TM)
DOC.                                  21933172 : ENVERUS HEADER RAW DOCUMENT ID
#___________________________________________________________________________________________________ 
~WELL INFORMATION 
# uOzh0bdZpl++Qd8K/evm6vwbqlxLNv7zXaBwNvlB7bYnaXF7FEkKOyKwz7AUW0q8cTh4whY6gpezG6wl1Vx46w== 
# MNEM.UNIT                                              DATA : DESCRIPTION OF MNEMONIC 
#-----.-----                    ----------------------------- : ----------------------------- 
CNTY.                                               CULBERSON : COUNTY 
STATE.                                                  TEXAS : STATE 
CNTRY.                                                    USA : COUNTRY 
API.                                             42-109-32599 : API (10 Digit) 
API_14.                                    42-109-32599-00-00 : API (14 Digits) 
API_14_std.                                 42-109-32599-0000 : API (14 Digits Standard) 
UWI.                                           42109325990000 : UNIQUE WELL ID 
WELL.                                           COMANCHE 46 6 : WELL NAME
STRT.FT                                                 190.0 : START DEPTH
STOP.FT                                                5230.0 : STOP DEPTH
STEP.FT                                                   0.5 : STEP BETWEEN DEPTHS
NULL.                                                 -999.25 : NULL VALUE
SRVC.                                             HALLIBURTON :  
DATE.                                  12/31/2013 12-00-00 AM : 
#___________________________________________________________________________________________________ 
~PARAMETER INFORMATION 
# MNEM.UNIT                                              DATA : DESCRIPTION OF MNEMONIC 
#-----.-----                    ----------------------------- : -----------------------------
#___________________________________________________________________________________________________ 
~CURVE INFORMATION 
# MNEM.UNIT           : CURVE DESCRIPTION 
#-----.-----          : ----------------------------- 
 DEPT.FT               : MEASURED DEPTH 
 CALI.IN               : CALIPER (CALD) 
 GR.API                : GAMMA RAY (GRD) 
 PE.B/E                : PHOTOELECTRIC EFFECT/FACTOR 
 RESS_LL.OHMM          : SHALLOW LATEROLOG (LLS) 
 RESD_LL.OHMM          : DEEP LATEROLOG (LLD) 
 DPHI_LS.V/V           : DENSITY POROSITY - LIMESTONE 
 NPHI_LS.V/V           : NEUTRON POROSITY - LIMESTONE 
 RHOB.G/CC             : BULK DENSITY 
 #___________________________________________________________________________________________________ 
~A         DEPT           CALI             GR             PE        RESS_LL        RESD_LL        DPHI_LS        NPHI_LS           RHOB
# ...
         4585.5          7.622         47.620         2.8160        36.9963        47.8891        0.04680        0.04040         2.6295
         4586.0          7.702         44.925         2.9104        29.7864        34.8081        0.03950        0.04340         2.6364
         4586.5          7.656         51.501         2.7983        26.7922        28.8213        0.05820        0.06220         2.6084
         4587.0          7.642         66.216         2.5334        24.3866        24.9808        0.07510        0.08100         2.5803
         4587.5          7.674         78.228         2.4295        22.3734        23.4156        0.08160        0.11830         2.5739
         4588.0          7.691         90.936         2.4925        20.3603        21.8504        0.07860        0.11430         2.5819
         4588.5          7.709         96.246         2.6337        19.5928        20.5084        0.07670        0.10550         2.5886
         4589.0          7.746        100.150         2.7147        18.8254        19.3883        0.08370        0.09890         2.5831
         4589.5          7.793        101.848         2.7147        18.6719        19.0319        0.09450        0.10030         2.5699
         4590.0          7.783         98.618         2.6051        20.4025        22.0852        0.09370        0.10210         2.5607
         4590.5          7.747         93.966         2.5254        24.7292        26.3797        0.09280        0.09940         2.5533
         4591.0          7.762         95.339         2.4149        73.9646        69.9999        0.09960        0.09740         2.5460
         4591.5          7.746        106.456         2.3690       134.4273       139.8372        0.10430        0.10740         2.5386
         4592.0          7.750        132.993         2.3590       194.8900       209.6746        0.10660        0.12370         2.5313
         4592.5          7.757        204.354         2.5078       255.3526       279.5119        0.11080        0.15430         2.5135
         4593.0          7.775        257.507         2.7785       269.5046       339.5550        0.12540        0.15670         2.4958
         4593.5          7.720        233.250         2.8677       283.6566       382.0622        0.13540        0.15050         2.4993
         4594.0          7.769        173.357         2.7655       322.7123       436.7537        0.12240        0.13150         2.5111
         4594.5          7.782        112.045         2.6903       369.3323       525.5069        0.09810        0.09290         2.5229
         4595.0          7.779         82.282         2.6392       415.9523       575.5412        0.09070        0.06910         2.5283
         4595.5          7.765         84.684         2.6578       434.6003       596.0569        0.09740        0.08910         2.5233
         4596.0          7.768        111.711         2.6134       398.6532       505.1777        0.12030        0.12970         2.5149
         4596.5          7.752        138.738         2.6143       338.7413       417.9733        0.12550        0.14730         2.5099
         4597.0          7.752        160.811         2.6520       278.8294       330.7689        0.11820        0.13840         2.5283
         4597.5          7.723        157.207         2.6493       218.9175       270.6101        0.10080        0.12960         2.5588
         4598.0          7.695        150.000         2.6313       188.3746       247.7145        0.08180        0.09840         2.5894
         4598.5          7.761        111.411         2.6536       194.8400       255.4929        0.06040        0.07890         2.6101
         4599.0          7.743         91.151         2.7451       227.2504       315.5538        0.05780        0.07090         2.6140
         4599.5          7.683         78.508         3.1263       309.4540       370.8310        0.05500        0.06570         2.6180
         4600.0          7.659         59.868         3.8169       391.6577       519.6890        0.04170        0.05940         2.6318
         4600.5          7.655         44.895         4.5075       473.8613       691.9422        0.02950        0.04830         2.6444
         4601.0          7.642         32.282         4.8227       557.8281       864.1954        0.03220        0.04060         2.6570
         4601.5          7.669         28.936         4.7640       644.4397      1037.6875        0.03360        0.03500         2.6695
         4602.0          7.665         27.245         4.7081       672.1002      1216.1353        0.02580        0.03420         2.6695
         4602.5          7.682         28.225         4.6571       678.3339      1257.6120        0.02610        0.03450         2.6692
         4603.0          7.682         31.452         4.4287       633.3707      1208.6655        0.03230        0.03630         2.6580
         4603.5          7.698         33.097         4.2576       588.4075      1169.5082        0.03960        0.03980         2.6445
         4604.0          7.692         33.162         4.1960       588.4075      1162.2993        0.03920        0.04120         2.6496
         4604.5          7.695         32.145         4.2137       619.1965      1195.1287        0.03220        0.03920         2.6579
         4605.0          7.682         33.408         4.4959       657.6829      1225.7402        0.02520        0.03660         2.6663
         4605.5          7.722         36.486         4.6267       612.0608      1244.1071        0.01890        0.03560         2.6746
         4606.0          7.712         44.162         4.6093       552.2370      1070.2810        0.01910        0.03840         2.6813
         4606.5          7.710         52.197         4.5315       460.9548       846.6738        0.03180        0.04770         2.6512
         4607.0          7.708         58.108         4.3537       369.6725       597.7684        0.03680        0.05650         2.6519
         4607.5          7.729         60.106         4.1652       278.3902       469.2282        0.02860        0.06000         2.6673
         4608.0          7.742         62.906         3.9662       229.8726       410.6673        0.03130        0.06640         2.6651
         4608.5          7.727         64.039         3.7703       214.6355       359.4229        0.03510        0.07530         2.6541
         4609.0          7.762         62.810         3.6799       199.3983       330.9784        0.03080        0.07530         2.6519
         4609.5          7.747         63.329         3.6799       198.1692       315.8047        0.02460        0.07100         2.6593
         4610.0          7.753         67.397         3.6833       183.9892       295.6161        0.02130        0.07050         2.6717
         4610.5          7.762         69.168         3.6680       169.8092       278.6690        0.02000        0.06970         2.6801
         4611.0          7.757         63.213         3.5038       166.2152       271.6268        0.01880        0.06800         2.6813
         4611.5          7.775         59.743         3.4858       161.2537       260.4147        0.01890        0.06240         2.6756
         4612.0          7.748         58.560         3.4628       154.2537       247.5901        0.02350        0.06440         2.6699
         4612.5          7.750         56.936         3.4461       147.2536       232.1649        0.02100        0.06540         2.6749
         4613.0          7.775         51.802         3.5377       134.2320       206.3710        0.01330        0.06140         2.6835
         4613.5          7.762         48.759         3.7710       115.5932       165.1315        0.01290        0.06400         2.6887
         4614.0          7.762         46.495         3.9239        92.8128       120.5472        0.01400        0.06600         2.6887
         4614.5          7.754         48.555         3.9481        67.2711        75.9629        0.01640        0.06800         2.6832
