~VERSION INFORMATION
VERS. 2.0 : CWLS Log ASCII Standard - Version 2.0
WRAP. NO : One line per depth step
#--------------------------------------------------#
#----------------DRILLING INFO, INC.---------------#
#---------------WWW.DRILLINGINFO.COM---------------#
#------------------COPYRIGHT 2015------------------#
#--------------------------------------------------#
#THIS FILE MAY BE USED ONLY IN ACCORDANCE WITH A CURRENT SUBSCRIPTION AGREEMENT BETWEEN
#THE USER AND DRILLING INFO, INC. NO PART OF THIS FILE MAY BE REPRODUCED, USED, COPIED,
#MODIFIED, PROPAGATED, OR DISTRIBUTED EXCEPT IN ACCORDANCE WITH THE SUBSCRIPTION
#AGREEMENT. UNAUTHORIZED USE OR DISTRIBUTION OF ALL OR ANY PART OF THIS FILE MAY VIOLATE
#COPYRIGHT, TRADEMARK, AND/OR OTHER LAWS AND IS SUBJECT TO CIVIL AS WELL AS CRIMINAL
#SANCTIONS.
#--------------------------------------------------#
#THIS FILE IS PROVIDED "AS-IS" AND ALL WARRANTIES ARE EXPRESSLY DISCLAIMED, WHETHER
#EXPRESS, ORAL, IMPLIED, STATUTORY OR OTHERWISE, INCLUDING ANY IMPLIED WARRANTY OF FITNESS
#FOR A PARTICULAR PURPOSE, MERCHANTABILITY, TITLE OR NON-INFRINGEMENT, AND ANY WARRANTIES
#ARISING BY VIRTUE OF CUSTOM OF TRADE OR COURSE OF DEALING.  FURTHER, DRILLING INFO,
#INC. AND ITS LICENSORS DO NOT REPRESENT OR WARRANT THAT THIS FILE WILL MEET USER'S
#REQUIREMENTS OR ARE SUITABLE FOR USER'S NEEDS OR THAT THE DATA OR RESULTS PROVIDED IN
#CONJUNCTION THEREWITH ARE CORRECT, ACCURATE, TIMELY OR RELIABLE. THESE DISCLAIMERS SHALL
#APPLY REGARDLESS OF ANY FAILURE OF ESSENTIAL PURPOSE OF ANY LIMITED REMEDY.  SOME
#JURISDICTIONS DO NOT ALLOW THE EXCLUSION OF CERTAIN WARRANTIES SO SOME OF THE ABOVE
#EXCLUSIONS MAY NOT APPLY. IN NO EVENT SHALL DRILLING INFO, INC. OR ANY OF ITS AFFILIATES
#BE LIABLE UNDER ANY LEGAL THEORY, WHETHER IN TORT (INCLUDING WITHOUT LIMITATION
#NEGLIGENCE), CONTRACT, STRICT LIABILITY, STATUTORY OR OTHERWISE, FOR ANY SPECIAL,
#INCIDENTAL, CONSEQUENTIAL, EXEMPLARY, PUNITIVE OR INDIRECT DAMAGE OF ANY KIND, INCLUDING
#WITHOUT LIMITATION LOSS OF REVENUE, PROFITS, GOODWILL, USE, AND/OR DATA OR THE COST OF
#PROCUREMENT OF SUBSTITUTE GOODS OR SERVICES, EVEN IF APPRISED OF THE POSSIBILITY OF SUCH
#DAMAGES IN ADVANCE.
#--------------------------------------------------#
~WELL INFORMATION
#MNEMONIC     .UNIT              VALUE :DESCRIPTION
#--------------------------------------------------#
STRT       .ft                97.00000 :START DEPTH
STOP       .ft                8647.00000 :STOP DEPTH
STEP       .ft                0.50000 :STEP
NULL       .                -999.25000 :NULL VALUE
COMP       .                 :COMPANY
WELL       .                 :WELL
FLD       .                 :FIELD
LOC       .                 :LOCATION
CNTY       .                 :COUNTY
STAT       .                 :STATE
CTRY       .                 :COUNTRY
SRVC       .                 :SERVICE COMPANY
DATE       .                 :DATE
API       .                42109002030000 :API NUMBER
~CURVE INFORMATION
#MNEMONIC     .UNIT      API CODE :CURVE DESCRIPTION
#--------------------------------------------------#
DEPTH       .ft                      :Measured Depth
DT       .us/ft        UNKNOWN   :DT
GR       .gAPI        UNKNOWN   :GR
ILD       .ohmm        UNKNOWN   :ILD
ILS       .ohmm        UNKNOWN   :ILS
SP       .mV        UNKNOWN   :SP
~A    DEPTH    DT    GR    ILD    ILS    SP
# ...
7505.00000    63.32588    41.98207    70.72205    100.57219    -23.94802
7505.50000    60.50973    36.01667    74.44265    105.70743    -24.32912
7506.00000    57.69358    30.41200    78.16325    110.84268    -24.58610
7506.50000    57.54656    35.96988    81.88384    115.97792    -24.69122
7507.00000    58.08390    41.52777    85.60444    121.11316    -24.79634
7507.50000    58.62123    47.08566    89.32504    126.24841    -24.90145
7508.00000    60.47056    52.64355    92.20919    126.92899    -25.00657
7508.50000    62.81454    54.30095    88.13589    125.87908    -25.11169
7509.00000    65.15852    55.29514    84.06258    124.82916    -25.21680
7509.50000    67.50249    56.28934    79.98928    123.77924    -25.32192
7510.00000    69.23326    57.28353    75.91597    122.72932    -25.42703
7510.50000    69.98022    58.27773    71.84266    121.67941    -25.53215
7511.00000    70.72717    58.95817    67.76936    120.62949    -25.63727
7511.50000    71.47412    56.71629    66.28098    119.57957    -25.51198
7512.00000    72.22108    54.47440    67.88305    118.52965    -25.30427
7512.50000    68.84405    52.23252    69.48512    117.47973    -25.09655
7513.00000    67.68386    49.99064    71.62268    116.42982    -24.88883
7513.50000    66.70503    47.74875    75.02027    117.98850    -24.68111
7514.00000    67.19771    45.50687    78.41787    120.22381    -24.47339
7514.50000    67.69040    46.11826    81.81546    122.45911    -24.26568
7515.00000    68.18308    47.65562    85.08620    124.69442    -24.05796
7515.50000    68.67576    49.19299    86.70095    126.92973    -23.85024
7516.00000    69.16845    50.73035    88.31569    129.16504    -23.64252
7516.50000    69.66113    52.26772    89.93044    131.40035    -23.43481
7517.00000    71.13581    53.80508    90.54215    133.63566    -23.22709
7517.50000    75.96011    57.03700    88.57697    132.54135    -23.01937
7518.00000    80.78441    64.63623    86.61180    130.85999    -22.81165
7518.50000    84.78242    65.12945    84.64662    129.17863    -22.60394
7519.00000    80.40478    65.25657    82.68145    127.49727    -22.39622
7519.50000    76.02713    62.87244    82.24085    125.81591    -22.18850
7520.00000    71.64948    60.48831    83.92868    124.13455    -21.98078
7520.50000    67.27183    58.10419    85.61650    122.45320    -21.77306
7521.00000    62.89418    55.72006    87.30432    120.77184    -21.56535
7521.50000    60.02477    53.33593    83.48447    119.09048    -21.35763
7522.00000    61.84251    50.95181    76.47204    117.40912    -21.21560
7522.50000    63.66025    49.94002    71.64107    115.72776    -21.17217
7523.00000    65.47799    49.38083    75.10395    114.04640    -21.12874
7523.50000    67.19226    48.82165    78.56682    112.36504    -21.08531
7524.00000    67.16093    48.26247    82.02970    110.68368    -21.04188
7524.50000    67.12961    48.21518    85.49257    109.00233    -20.99845
7525.00000    67.28070    49.03508    77.65134    107.32097    -20.95502
7525.50000    69.16081    49.85497    69.62945    105.63961    -20.91159
7526.00000    71.04092    50.67486    61.60757    103.95825    -20.86816
7526.50000    72.92103    51.49476    59.38841    102.27689    -20.82473
7527.00000    74.80114    52.31465    60.44701    100.59553    -20.78130
7527.50000    72.39196    53.58527    61.50561    99.89142    -20.73787
7528.00000    69.50666    55.04870    62.56421    99.72328    -20.69444
7528.50000    66.62135    53.66626    63.62281    99.55515    -20.65101
7529.00000    63.73605    52.28383    64.68141    99.38701    -20.60759
7529.50000    60.85074    50.90139    65.74001    99.76663    -20.56415
7530.00000    61.75202    49.51895    79.29759    103.06811    -20.52073
7530.50000    63.18950    48.13652    114.26850    108.46993    -20.47730
7531.00000    64.62699    46.75408    136.34433    113.87174    -20.43387
7531.50000    66.06447    46.37994    141.99212    119.27356    -20.39044
7532.00000    67.50196    48.30529    147.63990    124.67538    -20.34701
7532.50000    68.93944    50.23065    153.28768    130.07720    -20.23906
7533.00000    70.37692    52.15601    158.93546    135.47902    -20.13017
7533.50000    71.09521    54.08137    161.61962    140.88084    -20.02127
7534.00000    71.19735    55.60470    163.19815    146.28266    -19.91237
7534.50000    71.29949    55.60525    164.77667    151.68448    -19.80347
7535.00000    71.40164    55.63294    166.35520    157.08629    -19.69458
7535.50000    71.55741    56.13417    167.93372    162.48811    -19.58568
7536.00000    72.52655    56.63539    169.51224    166.98447    -19.47678
7536.50000    73.49568    57.13661    171.09077    166.74571    -19.36789
7537.00000    74.46482    57.63783    172.66929    166.50695    -19.25899
7537.50000    75.43396    67.41882    173.89562    166.26818    -19.15009
7538.00000    76.40309    71.35633    173.67956    166.02942    -19.04119
7538.50000    77.37223    70.38848    173.46350    165.79065    -18.93230
7539.00000    78.34136    69.42064    173.24745    165.55189    -18.82340
7539.50000    77.17688    68.45279    173.03139    165.31312    -18.71450
7540.00000    75.93199    65.39417    172.81534    165.07436    -18.60561
7540.50000    74.68710    61.59348    172.59928    164.83559    -18.49671
7541.00000    73.44221    57.79279    172.38322    164.59683    -18.38781
7541.50000    72.19732    53.99209    172.16717    164.35806    -18.27891
7542.00000    70.95243    50.19140    171.95111    164.11930    -18.17002
7542.50000    69.70753    48.21009    171.73506    163.88053    -18.06112
7543.00000    68.46264    46.48138    171.51900    163.64177    -17.95222
7543.50000    68.37737    46.10578    170.49228    163.40300    -17.84333
7544.00000    68.77353    46.59904    169.45501    163.16424    -17.73443
7544.50000    69.16970    47.09230    168.41774    162.92547    -17.62553
7545.00000    69.56587    47.58555    167.38046    162.68671    -17.51663
7545.50000    69.96204    48.07881    166.34319    162.44794    -17.40774
7546.00000    69.95118    48.12870    165.30592    162.20918    -17.29884
7546.50000    69.28746    47.14634    164.26864    161.97041    -17.18994
7547.00000    68.62373    46.16398    163.23137    161.73165    -17.08104
7547.50000    67.96000    45.18162    162.19410    160.40516    -16.97215
7548.00000    67.29627    45.96460    161.15683    158.42019    -16.86325
7548.50000    67.42353    46.79463    160.11955    156.43521    -16.75435
7549.00000    68.71657    47.62465    159.08228    154.45023    -16.64546
7549.50000    70.00961    48.45468    155.58595    152.46526    -17.03764
7550.00000    71.30265    49.28471    148.85518    150.48028    -17.43524
7550.50000    72.59570    50.11474    142.12440    148.49531    -17.83283
7551.00000    73.88874    50.94477    135.39362    146.51033    -18.23043
7551.50000    75.18178    51.77480    128.66284    144.52536    -18.62802
7552.00000    74.65155    52.60483    121.93207    142.54038    -19.02562
7552.50000    74.02058    53.43485    115.20129    140.55541    -19.42321
7553.00000    73.38961    54.26488    108.47051    138.57043    -19.82081
7553.50000    72.75864    55.38412    101.73973    136.58546    -20.21840
7554.00000    72.12767    56.52292    99.50089    134.60048    -20.61600
7554.50000    71.49670    57.66172    98.82782    132.61551    -20.99042
7555.00000    70.86572    58.80052    98.15474    130.63053    -21.28795
7555.50000    75.46037    61.26591    97.48166    128.64556    -21.58548
7556.00000    81.22378    64.12489    96.80858    126.66058    -21.88301
7556.50000    80.67913    66.98388    96.13551    124.67560    -22.18054
7557.00000    74.03499    56.76569    95.46243    122.69063    -22.47807
7557.50000    67.39085    43.21207    94.78935    120.70565    -22.77560
7558.00000    60.74672    30.85827    94.11627    118.72068    -23.07314
7558.50000    54.10258    29.97127    94.04875    116.73570    -23.37067
7559.00000    54.59777    29.08426    95.21247    116.22254    -23.66820
7559.50000    56.60187    28.19726    96.37620    120.04861    -23.96573
