~VERSION INFORMATION
VERS. 2.0 : CWLS Log ASCII Standard - Version 2.0
WRAP. NO : One line per depth step
#--------------------------------------------------#
#----------------DRILLING INFO, INC.---------------#
#---------------WWW.DRILLINGINFO.COM---------------#
#------------------COPYRIGHT 2015------------------#
#--------------------------------------------------#
#THIS FILE MAY BE USED ONLY IN ACCORDANCE WITH A CURRENT SUBSCRIPTION AGREEMENT BETWEEN
#THE USER AND DRILLING INFO, INC. NO PART OF THIS FILE MAY BE REPRODUCED, USED, COPIED,
#MODIFIED, PROPAGATED, OR DISTRIBUTED EXCEPT IN ACCORDANCE WITH THE SUBSCRIPTION
#AGREEMENT. UNAUTHORIZED USE OR DISTRIBUTION OF ALL OR ANY PART OF THIS FILE MAY VIOLATE
#COPYRIGHT, TRADEMARK, AND/OR OTHER LAWS AND IS SUBJECT TO CIVIL AS WELL AS CRIMINAL
#SANCTIONS.
#--------------------------------------------------#
#THIS FILE IS PROVIDED "AS-IS" AND ALL WARRANTIES ARE EXPRESSLY DISCLAIMED, WHETHER
#EXPRESS, ORAL, IMPLIED, STATUTORY OR OTHERWISE, INCLUDING ANY IMPLIED WARRANTY OF FITNESS
#FOR A PARTICULAR PURPOSE, MERCHANTABILITY, TITLE OR NON-INFRINGEMENT, AND ANY WARRANTIES
#ARISING BY VIRTUE OF CUSTOM OF TRADE OR COURSE OF DEALING.  FURTHER, DRILLING INFO,
#INC. AND ITS LICENSORS DO NOT REPRESENT OR WARRANT THAT THIS FILE WILL MEET USER'S
#REQUIREMENTS OR ARE SUITABLE FOR USER'S NEEDS OR THAT THE DATA OR RESULTS PROVIDED IN
#CONJUNCTION THEREWITH ARE CORRECT, ACCURATE, TIMELY OR RELIABLE. THESE DISCLAIMERS SHALL
#APPLY REGARDLESS OF ANY FAILURE OF ESSENTIAL PURPOSE OF ANY LIMITED REMEDY.  SOME
#JURISDICTIONS DO NOT ALLOW THE EXCLUSION OF CERTAIN WARRANTIES SO SOME OF THE ABOVE
#EXCLUSIONS MAY NOT APPLY. IN NO EVENT SHALL DRILLING INFO, INC. OR ANY OF ITS AFFILIATES
#BE LIABLE UNDER ANY LEGAL THEORY, WHETHER IN TORT (INCLUDING WITHOUT LIMITATION
#NEGLIGENCE), CONTRACT, STRICT LIABILITY, STATUTORY OR OTHERWISE, FOR ANY SPECIAL,
#INCIDENTAL, CONSEQUENTIAL, EXEMPLARY, PUNITIVE OR INDIRECT DAMAGE OF ANY KIND, INCLUDING
#WITHOUT LIMITATION LOSS OF REVENUE, PROFITS, GOODWILL, USE, AND/OR DATA OR THE COST OF
#PROCUREMENT OF SUBSTITUTE GOODS OR SERVICES, EVEN IF APPRISED OF THE POSSIBILITY OF SUCH
#DAMAGES IN ADVANCE.
#--------------------------------------------------#
~WELL INFORMATION
#MNEMONIC     .UNIT              VALUE :DESCRIPTION
#--------------------------------------------------#
STRT       .ft                97.00000 :START DEPTH
STOP       .ft                8647.00000 :STOP DEPTH
STEP       .ft                0.50000 :STEP
NULL       .                -999.25000 :NULL VALUE
COMP       .                 :COMPANY
WELL       .                 :WELL
FLD       .                 :FIELD
LOC       .                 :LOCATION
CNTY       .                 :COUNTY
STAT       .                 :STATE
CTRY       .                 :COUNTRY
SRVC       .                 :SERVICE COMPANY
DATE       .                 :DATE
API       .                42109002030000 :API NUMBER
~CURVE INFORMATION
#MNEMONIC     .UNIT      API CODE :CURVE DESCRIPTION
#--------------------------------------------------#
DEPTH       .ft                      :Measured Depth
DT       .us/ft        UNKNOWN   :DT
GR       .gAPI        UNKNOWN   :GR
ILD       .ohmm        UNKNOWN   :ILD
ILS       .ohmm        UNKNOWN   :ILS
SP       .mV        UNKNOWN   :SP
~A    DEPTH    DT    GR    ILD    ILS    SP
# ...
8610.50000    56.54364    -999.25000    136.62859    244.73712    2.60541
8611.00000    57.71120    -999.25000    135.47983    241.92498    4.71539
8611.50000    58.87877    -999.25000    134.33106    236.19863    6.82536
8612.00000    60.04633    -999.25000    133.18230    230.47227    8.93533
8612.50000    61.21390    -999.25000    132.03353    224.74591    11.03750
8613.00000    61.42438    -999.25000    130.88477    219.01955    11.51170
8613.50000    61.06229    -999.25000    129.73600    213.29320    11.98591
8614.00000    60.70019    -999.25000    128.58724    207.56684    12.46011
8614.50000    -999.25000    -999.25000    127.74533    201.84048    12.93431
8615.00000    -999.25000    -999.25000    128.32939    196.11412    13.40851
8615.50000    -999.25000    -999.25000    128.91345    190.38777    13.88271
8616.00000    -999.25000    -999.25000    129.49751    184.66141    14.35691
8616.50000    -999.25000    -999.25000    130.08157    178.93505    14.83111
8617.00000    -999.25000    -999.25000    130.66563    173.20870    15.30531
8617.50000    -999.25000    -999.25000    131.24969    167.48234    15.23017
8618.00000    -999.25000    -999.25000    131.83375    161.75598    12.77873
8618.50000    -999.25000    -999.25000    132.41781    156.02962    10.32730
8619.00000    -999.25000    -999.25000    132.88775    150.30327    7.87586
8619.50000    -999.25000    -999.25000    133.25543    144.57691    5.42443
8620.00000    -999.25000    -999.25000    133.62311    138.85055    4.73585
8620.50000    -999.25000    -999.25000    133.99079    135.74661    11.00162
8621.00000    -999.25000    -999.25000    134.35847    136.14089    17.26739
8621.50000    -999.25000    -999.25000    134.72615    136.53517    18.70058
8622.00000    -999.25000    -999.25000    135.09383    136.92945    19.07336
8622.50000    -999.25000    -999.25000    135.46151    137.32373    19.44614
8623.00000    -999.25000    -999.25000    135.82919    137.71801    19.81892
8623.50000    -999.25000    -999.25000    136.19687    138.11229    20.19170
8624.00000    -999.25000    -999.25000    136.56455    138.50656    20.56448
8624.50000    -999.25000    -999.25000    136.93223    138.90084    20.93726
8625.00000    -999.25000    -999.25000    137.29991    139.29512    21.31004
8625.50000    -999.25000    -999.25000    137.66759    139.68940    21.68282
8626.00000    -999.25000    -999.25000    138.03527    140.08368    21.65567
8626.50000    -999.25000    -999.25000    138.40295    140.47796    21.21074
8627.00000    -999.25000    -999.25000    138.77063    140.87224    20.76582
8627.50000    -999.25000    -999.25000    139.13831    141.26652    20.32089
8628.00000    -999.25000    -999.25000    139.50599    141.66080    19.87597
8628.50000    -999.25000    -999.25000    139.87367    142.05508    19.43104
8629.00000    -999.25000    -999.25000    140.24135    142.44936    18.98611
8629.50000    -999.25000    -999.25000    140.60903    142.84364    18.54119
8630.00000    -999.25000    -999.25000    140.97671    143.23792    18.09626
8630.50000    -999.25000    -999.25000    -999.25000    143.63220    17.65134
8631.00000    -999.25000    -999.25000    -999.25000    144.02648    17.60499
8631.50000    -999.25000    -999.25000    -999.25000    144.42076    17.79861
8632.00000    -999.25000    -999.25000    -999.25000    144.81504    17.99222
8632.50000    -999.25000    -999.25000    -999.25000    145.20932    18.18584
8633.00000    -999.25000    -999.25000    -999.25000    145.60360    18.37945
8633.50000    -999.25000    -999.25000    -999.25000    145.99787    18.57306
8634.00000    -999.25000    -999.25000    -999.25000    146.39215    18.76668
8634.50000    -999.25000    -999.25000    -999.25000    146.78643    18.96029
8635.00000    -999.25000    -999.25000    -999.25000    147.18071    19.15390
8635.50000    -999.25000    -999.25000    -999.25000    147.57499    19.34752
8636.00000    -999.25000    -999.25000    -999.25000    147.96927    19.19198
8636.50000    -999.25000    -999.25000    -999.25000    148.36355    18.94605
8637.00000    -999.25000    -999.25000    -999.25000    148.75783    18.70012
8637.50000    -999.25000    -999.25000    -999.25000    149.15211    18.45418
8638.00000    -999.25000    -999.25000    -999.25000    149.54639    18.20825
8638.50000    -999.25000    -999.25000    -999.25000    149.94067    18.41494
8639.00000    -999.25000    -999.25000    -999.25000    150.33495    18.69093
8639.50000    -999.25000    -999.25000    -999.25000    150.72923    18.96692
8640.00000    -999.25000    -999.25000    -999.25000    151.12351    19.24291
8640.50000    -999.25000    -999.25000    -999.25000    151.51779    19.51891
8641.00000    -999.25000    -999.25000    -999.25000    151.91207    19.79490
8641.50000    -999.25000    -999.25000    -999.25000    152.30635    20.07089
8642.00000    -999.25000    -999.25000    -999.25000    152.70063    20.34688
8642.50000    -999.25000    -999.25000    -999.25000    153.09491    20.62287
8643.00000    -999.25000    -999.25000    -999.25000    153.48918    20.89886
8643.50000    -999.25000    -999.25000    -999.25000    153.88346    21.17486
8644.00000    -999.25000    -999.25000    -999.25000    154.27774    21.45085
8644.50000    -999.25000    -999.25000    -999.25000    154.67202    21.72684
8645.00000    -999.25000    -999.25000    -999.25000    155.06630    22.00283
8645.50000    -999.25000    -999.25000    -999.25000    155.46058    -999.25000
8646.00000    -999.25000    -999.25000    -999.25000    155.85486    -999.25000
8646.50000    -999.25000    -999.25000    -999.25000    156.24914    -999.25000
8647.00000    -999.25000    -999.25000    -999.25000    156.64342    -999.25000
