~Version Information Block
 VERS.                2.00:     CWLS LOG ASCII STANDARD - VERSION 2.000000
 WRAP.                  NO:     One Line Per Depth Step
#
~Well Information Block
#MNEM.UNIT                     Data                         Information
#----------   ------------------------------------------   ----------------
 STRT.FT                                        4.0000:     START DEPTH
 STOP.FT                                    10300.0000:     STOP DEPTH
 STEP.FT                                        0.5000:     STEP
 NULL.                                       -999.2500:     NULL VALUE
 COMP.                            MONSANTO OIL COMPANY:     COMPANY
 WELL.                               UNIVERSITY_6-46-1:     WELL
 FLD .                                         WILDCAT:     FIELD
 LOC .                                                :     LOCATION
 CNTY.                                       CULBERSON:     COUNTY
 STAT.                                           TEXAS:     STATE
 CTRY.                                             USA:     COUNTRY
 SRVC.                                                :     SERVICE COMPANY
 DATE.                                      10/31/2016:     DATE
 API .                                  42109315500000:     API NUMBER
 UWI .                                  42109315500000:     UWI NUMBER
 TVD .                                              NO:     TVD flag
 WSTA.                                             LOC:     Well status
#
~Curve Information Block
#MNEM.UNIT       API CODE      Curve Description
#----------    -------------   -------------------
 DEPT.FT                   :   Depth in Feet
 CALI.IN                   :   Caliper
 GR  .GAPI                 :   Gamma Ray
 DPHI.V/V                  :   Density Porosity
 NPHI.V/V                  :   Neutron Porosity
 DRHO.G/C3                 :   Delta Rho
 RHOB.G/C3                 :   Bulk Density
#
~Parameter Information Block
#MNEM.UNIT            Value               Description
#----------    --------------------    -------------------
 RUN .                         ONE:    Run Number
 PDAT.                          GL:    Permanent Datum
 EPD .FT                          :    Elevation Of Perm. Datum
 LMF .               KELLY BUSHING:    Log Measured From
 EKB .FT                          :    Elevation Of Kelly Bushing
 DF .FT                           :    Elevation Of Derrick Floor
 GL .FT                           :    Elevation Of Ground Level
 TD  .FT                          :    Total Depth
 CSGD.FT                          :    Casing Bottom (Driller) 1
 CSGL.FT                          :    Casing Bottom (Logger) 1
 MUD .                            :    Drilling Fluid Type
 MUDV .CP                         :    Drilling Fluid Viscosity
 MUDD .LB/USG                     :    Drilling Fluid Density
 FL .ML/30MIN                     :    Drilling Fluid Loss
 PH.                              :    Drilling Fluid Ph
 MUDS .                           :    Mud Sample Source
 RM .OHMM                         :    Resistivity Of Mud Sample
 RMT .DEGF                        :    Mud Sample Temperature
 RMF .OHMM                        :    Mud Filtrate Resistivity
 RMFT.DEGF                        :    Mud Filtrate Sample Temperature
 RMC .OHMM                        :    Mud Cake Resistivity
 RMCT.DEGF                        :    Mud Cake Sample Temperature
 RMB .OHMM                        :    Mud Resistivity At Bht
 TMAX .DEGF                       :    Bottom Hole Temperature   
#
~Other Information Block
<DescLogPlotStart>   NEURALOG PLOT DEFINITION
PLOTDEFVERSION: 3
LASFILE: E:\nds\projects\Texas Standard Oil LLC\pdf\Pradeep+Ekta\42109315500000
DEPTHSCALE: 240.000000
RESOLUTION: 200
DEPTHLABELFREQ: 100.000000
HEAVYGRIDFREQ: 100.000000
MEDIUMGRIDFREQ: 50.000000
LIGHTGRIDFREQ: 10.000000
#
#   TRACK 1
#
STARTTRACK: 
 LEFTX: 0.500000 inch
 RIGHTX: 3.000000 inch
 SCALETYPE: Linear
 NUMCHARTDIVISIONS: 10
CURVE: CALI  6.000000   16.000000  (0,0,255)      Solid             2     N    
CURVE: GR    0.000000   100.000000 (0,131,131)    Dot               2     Y    
BACKUP: 100.000000 200.000000 (0,131,131)    Dot               2    
ENDTRACK: 
#
#   TRACK 2
#
STARTTRACK: 
 LEFTX: 3.500000 inch
 RIGHTX: 8.500000 inch
 SCALETYPE: Linear
 NUMCHARTDIVISIONS: 10
CURVE: DPHI  0.300000   -0.100000  (255,0,255)    Solid             2     Y    
BACKUP: 0.700000   0.300000   (255,0,255)    Solid             2    
CURVE: NPHI  0.300000   -0.100000  (255,0,0)      Dot               2     Y    
BACKUP: 0.700000   0.300000   (255,0,0)      Dot               2    
CURVE: DRHO  -0.050000  0.950000   (255,131,0)    Short_Dash        2     N    
ENDTRACK: 
#
#   TRACK 3
#
STARTTRACK: 
 LEFTX: 8.500000 inch
 RIGHTX: 13.500000 inch
 SCALETYPE: Linear
 NUMCHARTDIVISIONS: 10
CURVE: RHOB  2.000000   3.000000   (255,255,0)    Solid             2     Y    
BACKUP: 1.000000   2.000000   (255,255,0)    Solid             2    
ENDTRACK: 
<DescLogPlotEnd>
~A DEPTH     CALI             GR               DPHI             NPHI             DRHO             RHOB            
# ...
    1369.000 13.04469000      58.64089499      0.11563326       0.11546185       0.03151758       2.51617474      
    1369.500 13.03998108      53.80437886      0.11144578       0.10763361       0.02486062       2.52771379      
    1370.000 13.03658568      49.31266965      0.09819277       0.08935743       0.02680163       2.54257261      
    1370.500 13.04978245      47.17310675      0.08630522       0.06606426       0.03364974       2.55692887      
    1371.000 13.05577552      47.66490749      0.07867826       0.06807229       0.03810042       2.56878025      
    1371.500 13.05590290      51.49748673      0.07106573       0.07380627       0.04797103       2.58310355      
    1372.000 13.05584231      57.51608618      0.06450305       0.08502986       0.06126092       2.59424971      
    1372.500 13.05580358      62.84531672      0.06128294       0.09940228       0.06266587       2.59772008      
    1373.000 13.05636001      65.97333540      0.06807229       0.11255689       0.06333300       2.57505537      
    1373.500 13.08492622      63.25408697      0.08413655       0.11787149       0.04601599       2.55768342      
    1374.000 13.15354662      58.94724872      0.10060241       0.11546185       0.03475649       2.53467023      
    1374.500 13.19840526      55.06563428      0.11311647       0.11224900       0.02350500       2.51132991      
    1375.000 13.23189560      51.66905005      0.11907631       0.10783133       0.01760699       2.50080685      
    1375.500 13.25586454      49.42913788      0.12469880       0.10421687       0.01507769       2.49438796      
    1376.000 13.25539064      49.46803817      0.12710843       0.09912644       0.01263832       2.49783382      
    1376.500 13.24646037      52.78915638      0.12504016       0.09824053       0.01552978       2.49897813      
    1377.000 13.25192278      57.02806229      0.12068273       0.10200088       0.01881806       2.49795264      
    1377.500 13.29744498      57.70623493      0.11586345       0.11325301       0.02937130       2.50220794      
    1378.000 13.36865201      53.30937851      0.11907631       0.12451807       0.04481422       2.50901834      
    1378.500 13.44737096      49.95103983      0.11960643       0.12951807       0.05161646       2.50310836      
    1379.000 13.49028327      49.96919931      0.12188755       0.13074473       0.05211429       2.49647086      
    1379.500 13.52631098      52.68711555      0.12871486       0.13069338       0.04323694       2.49058471      
    1380.000 13.44731615      55.18208672      0.12851406       0.12817550       0.03565105       2.48669515      
    1380.500 13.32355743      55.55834243      0.13024096       0.11906024       0.02444593       2.48542207      
    1381.000 13.19890549      58.42376670      0.13152610       0.11367501       0.01789742       2.48401384      
    1381.500 13.12315750      61.55570047      0.12871486       0.11720420       0.01797235       2.48810225      
    1382.000 13.03889880      63.06680570      0.12269076       0.12170354       0.02802076       2.49274968      
    1382.500 13.01457762      57.69812343      0.12831325       0.12385271       0.02155706       2.48307693      
    1383.000 13.01601114      49.97843271      0.13313253       0.10410328       0.01640521       2.48789911      
    1383.500 13.01597513      45.22131344      0.12429719       0.08419215       0.00440686       2.50093145      
    1384.000 13.01596639      44.61122769      0.11024096       0.07329317       0.00942149       2.51505712      
    1384.500 13.01594879      48.61233490      0.10339759       0.07048193       0.01681964       2.52829773      
    1385.000 13.01593522      57.64291807      0.10840431       0.10318115       0.02870756       2.51798177      
    1385.500 13.01704975      70.64104373      0.11799897       0.12280068       0.02130742       2.50991239      
    1386.000 13.02627277      77.16290387      0.12022975       0.14357430       0.01866468       2.50121320      
    1386.500 13.03557217      72.93990246      0.11943775       0.14574297       0.01397636       2.50411597      
    1387.000 13.04491859      63.62808572      0.11626506       0.13940562       0.01741509       2.50822047      
    1387.500 13.05493636      53.53957295      0.11024096       0.11610442       0.02080196       2.51425702      
    1388.000 13.03022901      47.60104492      0.10060241       0.08906827       0.02291118       2.53176410      
    1388.500 12.99828651      46.51168701      0.09711380       0.07387149       0.02414112       2.53684903      
    1389.000 12.96619422      58.08090945      0.09462751       0.08040830       0.02554669       2.54914300      
    1389.500 12.93419165      71.45042182      0.08764879       0.09440428       0.03761031       2.56571774      
    1390.000 12.90215111      84.43127235      0.07148594       0.10702811       0.05181507       2.61003880      
    1390.500 12.86982690      91.32510402      0.05643909       0.10845929       0.06315826       2.61994810      
    1391.000 12.83793806      89.69339737      0.05120482       0.10983936       0.06801459       2.59408135      
    1391.500 12.85490155      83.10519075      0.07048193       0.11626506       0.05546622       2.57419281      
    1392.000 12.87600052      75.49274406      0.09497992       0.12630522       0.03359964       2.55348057      
    1392.500 12.92003440      65.23907004      0.11345382       0.10911145       0.01254170       2.53174915      
    1393.000 13.05075284      57.34239489      0.11024096       0.09157380       0.00581023       2.52801382      
    1393.500 13.02225662      55.56462260      0.10060241       0.07048193       0.00731217       2.53900451      
    1394.000 12.98752031      57.01367453      0.09297189       0.08348645       0.01894093       2.54429516      
    1394.500 12.95362534      61.57386621      0.09618474       0.10361695       0.02682988       2.55062559      
    1395.000 12.94716962      66.61025614      0.08970149       0.12363447       0.03411739       2.55318098      
    1395.500 12.96987750      68.62226273      0.08656725       0.14480594       0.03684761       2.55502631      
    1396.000 12.99243646      68.39084323      0.08654618       0.14529390       0.03836527       2.55791674      
    1396.500 13.01527774      67.34115412      0.08855422       0.14585250       0.04296537       2.55410789      
    1397.000 13.03780961      66.40080445      0.09136546       0.14236948       0.03916189       2.55175476      
    1397.500 13.04738241      63.62225635      0.09658635       0.14277108       0.03051189       2.54331943      
    1398.000 12.99508583      58.70366309      0.10301205       0.14638554       0.02531797       2.53304746      
    1398.500 12.94410032      52.44417301      0.11024096       0.14638554       0.01855446       2.52473147      
    1399.000 12.91683093      48.81216152      0.11064257       0.13149371       0.02111476       2.53119847      
    1399.500 12.89667366      47.35323206      0.08913655       0.11383130       0.02745363       2.54325314      
    1400.000 12.90334851      49.46067419      0.06927711       0.09150201       0.03897973       2.55366805      
    1400.500 12.91028483      52.46214136      0.07329317       0.09517433       0.04970817       2.56380424      
    1401.000 12.91716962      54.64312880      0.08551004       0.10435943       0.03903922       2.57033449      
    1401.500 12.92342389      55.53997840      0.09446104       0.10594384       0.02925782       2.55799959      
    1402.000 12.92996421      57.14500871      0.09297189       0.10455565       0.03291166       2.54858644      
    1402.500 12.93518303      59.58946486      0.09257028       0.10285527       0.03862491       2.54650170      
    1403.000 12.90865204      62.43625986      0.09779116       0.10431935       0.03251439       2.53932678      
    1403.500 12.88037819      64.38003180      0.10622490       0.10650212       0.01929638       2.53371588      
