~Version Information Block
 VERS.                2.00:     CWLS LOG ASCII STANDARD - VERSION 2.000000
 WRAP.                  NO:     One Line Per Depth Step
#
~Well Information Block
#MNEM.UNIT                     Data                         Information
#----------   ------------------------------------------   ----------------
 STRT.FT                                      250.0000:     START DEPTH
 STOP.FT                                    10290.0000:     STOP DEPTH
 STEP.FT                                        0.5000:     STEP
 NULL.                                       -999.2500:     NULL VALUE
 COMP.                                                :     COMPANY
 WELL.                                                :     WELL
 FLD .                                                :     FIELD
 LOC .                                                :     LOCATION
 CNTY.                                                :     COUNTY
 STAT.                                                :     STATE
 CTRY.                                                :     COUNTRY
 SRVC.                                                :     SERVICE COMPANY
 DATE.                                                :     DATE
 API .                                                4210931550:     API NUMBER
 UWI .                                                :     UWI NUMBER
 TVD .                                              NO:     TVD flag
 WSTA.                                             LOC:     Well status
#
~Curve Information Block
#MNEM.UNIT       API CODE      Curve Description
#----------    -------------   -------------------
 DEPT.FT                   :   Depth in Feet
 LLS .OHMM                 :   Latero-Log Shallow (Resistivity)
 LLD .OHMM                 :   Latero-Log Deep (Resistivity)
 SFLU.OHMM                 :   SFL Resistivity (Unaveraged)
 ILD .OHMM                 :   Deep Induction Standard Processed Resistivity
 ILM .OHMM                 :   Medium Induction Standard Processed Resistivity
#
~Parameter Information Block
#MNEM.UNIT            Value               Description
#----------    --------------------    -------------------
 RUN .                         ONE:    Run Number
 PDAT.                          GL:    Permanent Datum
 EPD .FT                          :    Elevation Of Perm. Datum
 LMF .               KELLY BUSHING:    Log Measured From
 EKB .FT                          :    Elevation Of Kelly Bushing
 DF .FT                           :    Elevation Of Derrick Floor
 GL .FT                           :    Elevation Of Ground Level
 TD  .FT                          :    Total Depth
 CSGD.FT                          :    Casing Bottom (Driller) 1
 CSGL.FT                          :    Casing Bottom (Logger) 1
 MUD .                            :    Drilling Fluid Type
 MUDV .CP                         :    Drilling Fluid Viscosity
 MUDD .LB/USG                     :    Drilling Fluid Density
 FL .ML/30MIN                     :    Drilling Fluid Loss
 PH.                              :    Drilling Fluid Ph
 MUDS .                           :    Mud Sample Source
 RM .OHMM                         :    Resistivity Of Mud Sample
 RMT .DEGF                        :    Mud Sample Temperature
 RMF .OHMM                        :    Mud Filtrate Resistivity
 RMFT.DEGF                        :    Mud Filtrate Sample Temperature
 RMC .OHMM                        :    Mud Cake Resistivity
 RMCT.DEGF                        :    Mud Cake Sample Temperature
 RMB .OHMM                        :    Mud Resistivity At Bht
 TMAX .DEGF                       :    Bottom Hole Temperature
#
~Other Information Block
<DescLogPlotStart>   NEURALOG PLOT DEFINITION
PLOTDEFVERSION: 3
LASFILE: E:\nds\projects\Texas Standard Oil LLC\pdf\Pradeep+Ekta\42109315500000
DEPTHSCALE: 240.000000
RESOLUTION: 200
DEPTHLABELFREQ: 100.000000
HEAVYGRIDFREQ: 100.000000
MEDIUMGRIDFREQ: 50.000000
LIGHTGRIDFREQ: 10.000000
#
#   TRACK 1
#
STARTTRACK: 
 LEFTX: 1.000000 inch
 RIGHTX: 6.000000 inch
 SCALETYPE: Log
 NUMCYCLES: 4
 STARTCYCLE: 2
CURVE: SFLU  0.200000   2000.000000 (0,0,255)      Solid             2     N   
CURVE: ILD   0.200000   2000.000000 (0,131,131)    Dot               2     N   
CURVE: ILM   0.200000   2000.000000 (255,0,255)    Short_Dash        2     N   
ENDTRACK: 
#
#   TRACK 2
#
STARTTRACK: 
 LEFTX: 1.000000 inch
 RIGHTX: 6.000000 inch
 SCALETYPE: Log
 NUMCYCLES: 4
 STARTCYCLE: 2
CURVE: LLS   0.200000   2000.000000 (255,0,0)      Solid             2     Y   
BACKUP: 2000.000000 20000000.000000 (255,0,0)      Solid             2    
CURVE: LLD   0.200000   2000.000000 (255,131,0)    Dot               2     Y   
BACKUP: 2000.000000 20000000.000000 (255,131,0)    Dot               2    
ENDTRACK: 
<DescLogPlotEnd>
~A DEPTH     LLS              LLD              SFLU             ILD              ILM             
# ...
    3981.000 -999.25000000    -999.25000000    175.33090767     125.72602392     87.69115150     
    3981.500 -999.25000000    -999.25000000    149.84900628     116.76935797     79.68991363     
    3982.000 -999.25000000    -999.25000000    117.85307769     102.60307739     74.45849628     
    3982.500 -999.25000000    -999.25000000    116.94028055     105.48640583     72.72314725     
    3983.000 -999.25000000    -999.25000000    116.76935797     102.42957016     74.25729467     
    3983.500 -999.25000000    -999.25000000    128.07054376     102.52669213     76.34405635     
    3984.000 -999.25000000    -999.25000000    137.89405480     101.69465612     76.34405635     
    3984.500 -999.25000000    -999.25000000    144.48175602     97.07070196      74.94646601     
    3985.000 -999.25000000    -999.25000000    149.84900628     96.17808688      72.89790558     
    3985.500 -999.25000000    -999.25000000    149.84900628     96.17808688      70.25332868     
    3986.000 -999.25000000    -999.25000000    135.42011066     107.45350034     70.25332868     
    3986.500 -999.25000000    -999.25000000    123.36972363     113.57762527     74.94646601     
    3987.000 -999.25000000    -999.25000000    115.07340737     113.57762527     84.50990793     
    3987.500 -999.25000000    -999.25000000    137.89405480     107.45350034     99.79856084     
    3988.000 -999.25000000    -999.25000000    180.25801713     102.60307739     101.65958927    
    3988.500 -999.25000000    -999.25000000    229.19626089     110.47313427     101.65958927    
    3989.000 -999.25000000    -999.25000000    253.71136709     118.94685526     99.60725688     
    3989.500 -999.25000000    -999.25000000    242.25890222     131.66955317     117.06257993    
    3990.000 -999.25000000    -999.25000000    229.19626089     164.35171049     160.07104205    
    3990.500 -999.25000000    -999.25000000    223.79941116     182.01038964     241.79636122    
    3991.000 -999.25000000    -999.25000000    248.15017534     192.39000389     337.84153745    
    3991.500 -999.25000000    -999.25000000    392.10587612     206.91430778     410.17180425    
    3992.000 -999.25000000    -999.25000000    700.91264873     214.84402274     470.80930882    
    3992.500 -999.25000000    -999.25000000    825.61435869     237.82399638     309.94535928    
    3993.000 -999.25000000    -999.25000000    835.39636925     288.74098320     232.03917201    
    3993.500 -999.25000000    -999.25000000    525.63859252     395.83999705     210.06514725    
    3994.000 -999.25000000    -999.25000000    448.07471152     394.04841406     222.08719443    
    3994.500 -999.25000000    -999.25000000    654.65522912     600.91984527     266.41110594    
    3995.000 -999.25000000    -999.25000000    1580.24008796    697.27541113     319.62506412    
    3995.500 -999.25000000    -999.25000000    1781.88447636    681.75414807     417.82062589    
    3996.000 -999.25000000    -999.25000000    1717.24159685    551.25299058     377.44830385    
    3996.500 -999.25000000    -999.25000000    1344.62353296    516.73360457     318.98365947    
    3997.000 -999.25000000    -999.25000000    1082.00581416    556.36909079     320.06232722    
    3997.500 -999.25000000    -999.25000000    1023.66387609    768.74845942     335.03955246    
    3998.000 -999.25000000    -999.25000000    1350.57423706    812.56193771     341.28193487    
    3998.500 -999.25000000    -999.25000000    1481.28567227    812.56193771     340.97699647    
    3999.000 -999.25000000    -999.25000000    1122.73623416    507.27403524     319.62506412    
    3999.500 -999.25000000    -999.25000000    1042.75300490    357.09622692     286.08586121    
    4000.000 -999.25000000    -999.25000000    1052.43064650    258.44253821     182.77325389    
    4000.500 -999.25000000    -999.25000000    916.79209746     246.77650951     145.75308607    
    4001.000 -999.25000000    -999.25000000    572.00404897     237.33063861     136.62604798    
    4001.500 -999.25000000    -999.25000000    256.06602602     238.47797205     129.25914817    
    4002.000 -999.25000000    -999.25000000    259.78300605     193.65435625     136.62604798    
    4002.500 -999.25000000    -999.25000000    286.08586121     192.11658372     144.41281141    
    4003.000 -999.25000000    -999.25000000    370.53855700     192.11035508     139.17382982    
    4003.500 -999.25000000    -999.25000000    556.36909079     193.83490374     137.89405480    
    4004.000 -999.25000000    -999.25000000    935.46308100     222.67992714     141.76912230    
    4004.500 -999.25000000    -999.25000000    1457.05819673    246.77650951     149.84900628    
    4005.000 -999.25000000    -999.25000000    1457.25405643    270.66006278     162.84041190    
    4005.500 -999.25000000    -999.25000000    1053.54473659    310.88854465     172.12121730    
    4006.000 -999.25000000    -999.25000000    829.18777151     395.29166647     190.53150858    
    4006.500 -999.25000000    -999.25000000    847.45180924     449.86910022     229.19626089    
    4007.000 -999.25000000    -999.25000000    1024.15719385    475.50860533     265.70523188    
    4007.500 -999.25000000    -999.25000000    1290.39446309    502.60938934     281.20535841    
    4008.000 -999.25000000    -999.25000000    1439.96965558    663.11931915     281.01448467    
    4008.500 -999.25000000    -999.25000000    1594.75370891    1033.16435421    280.80706152    
    4009.000 -999.25000000    -999.25000000    1700.99051928    1401.41449614    299.61018682    
    4009.500 -999.25000000    -999.25000000    1820.02069664    1495.03327286    340.97699647    
    4010.000 -999.25000000    -999.25000000    1705.25215999    1685.80496144    395.29166647    
    4010.500 -999.25000000    -999.25000000    1663.96667896    1508.90846297    583.65506036    
    4011.000 -999.25000000    -999.25000000    1481.28567227    1325.84998745    605.74619399    
    4011.500 -999.25000000    -999.25000000    1350.57423706    1277.75104382    533.18406340    
    4012.000 -999.25000000    -999.25000000    1467.66448794    1033.16435421    473.64332532    
    4012.500 -999.25000000    -999.25000000    1551.31146685    768.74845942     353.77091207    
    4013.000 -999.25000000    -999.25000000    1375.75954074    566.74417727     300.68951746    
    4013.500 -999.25000000    -999.25000000    843.14956354     354.82063408     235.60041222    
    4014.000 -999.25000000    -999.25000000    498.06942952     359.05029099     190.53150858    
    4014.500 -999.25000000    -999.25000000    265.70523188     226.45481286     149.84900628    
    4015.000 -999.25000000    -999.25000000    268.17120416     227.64322496     139.17382982    
    4015.500 -999.25000000    -999.25000000    258.44253821     173.09212844     125.72021673    
    4016.000 -999.25000000    -999.25000000    240.19979010     153.70680242     116.76935797    
    4016.500 -999.25000000    -999.25000000    214.84402274     151.20412185     112.47407623    
    4017.000 -999.25000000    -999.25000000    205.14601964     149.98625169     112.36982037    
    4017.500 -999.25000000    -999.25000000    231.32339862     148.22320787     117.69589723    
    4018.000 -999.25000000    -999.25000000    377.51804805     170.51323229     133.63875603    
    4018.500 -999.25000000    -999.25000000    849.84830077     190.53150858     175.33090767    
    4019.000 -999.25000000    -999.25000000    993.78314660     210.91098662     210.91098662    
    4019.500 -999.25000000    -999.25000000    982.21416510     227.08868328     229.19626089    
    4020.000 -999.25000000    -999.25000000    968.46774528     270.66006278     253.71136709    
    4020.500 -999.25000000    -999.25000000    874.88861281     322.59145866     263.26193549    
    4021.000 -999.25000000    -999.25000000    950.73851750     373.97747238     283.45515444    
    4021.500 -999.25000000    -999.25000000    1148.84992621    467.23673386     353.81254328    
