###############################################
##         ENVERUS                           ##
##         ESS - Open Hole                   ##
##         PERMIAN / DELAWARE                ##
##         Nov 03 2023  V4.0                 ##
##         42-109-32599-00-00                ##
###############################################
## Copyright 2017-2023  ENVERUS.  All Rights Reserved. 
## Confidential - Property of ENVERUS, use governed by terms and 
## conditions found within the existing Information Services Subscription Agreement 
## (as may be amended, the “ISSA”) between Customer and ENVERUS. 
## 
~VERSION INFORMATION
# MNEM.UNIT                               DATA : DESCRIPTION OF MNEMONIC
#-----.-----     ----------------------------- : -----------------------------
VERS.                                     2.00 : CWLS LOG ASCII STANDARD - VERSION 2.00
WRAP.                                       NO : MULTIPLE LINES PER DEPTH STEP
VEND.                                  ENVERUS : VENDOR
TYPE.                          ESS - OPEN HOLE : ENVERUS ESSENTIAL CURVES – ACCESSIBLE THROUGH ENVERUS PRISM(TM)
DOC.                                  21933172 : ENVERUS HEADER RAW DOCUMENT ID
#___________________________________________________________________________________________________ 
~WELL INFORMATION 
# uOzh0bdZpl++Qd8K/evm6vwbqlxLNv7zXaBwNvlB7bYnaXF7FEkKOyKwz7AUW0q8cTh4whY6gpezG6wl1Vx46w== 
# MNEM.UNIT                                              DATA : DESCRIPTION OF MNEMONIC 
#-----.-----                    ----------------------------- : ----------------------------- 
CNTY.                                               CULBERSON : COUNTY 
STATE.                                                  TEXAS : STATE 
CNTRY.                                                    USA : COUNTRY 
API.                                             42-109-32599 : API (10 Digit) 
API_14.                                    42-109-32599-00-00 : API (14 Digits) 
API_14_std.                                 42-109-32599-0000 : API (14 Digits Standard) 
UWI.                                           42109325990000 : UNIQUE WELL ID 
WELL.                                           COMANCHE 46 6 : WELL NAME
STRT.FT                                                 190.0 : START DEPTH
STOP.FT                                                5230.0 : STOP DEPTH
STEP.FT                                                   0.5 : STEP BETWEEN DEPTHS
NULL.                                                 -999.25 : NULL VALUE
SRVC.                                             HALLIBURTON :  
DATE.                                  12/31/2013 12-00-00 AM : 
#___________________________________________________________________________________________________ 
~PARAMETER INFORMATION 
# MNEM.UNIT                                              DATA : DESCRIPTION OF MNEMONIC 
#-----.-----                    ----------------------------- : -----------------------------
#___________________________________________________________________________________________________ 
~CURVE INFORMATION 
# MNEM.UNIT           : CURVE DESCRIPTION 
#-----.-----          : ----------------------------- 
 DEPT.FT               : MEASURED DEPTH 
 CALI.IN               : CALIPER (CALD) 
 GR.API                : GAMMA RAY (GRD) 
 PE.B/E                : PHOTOELECTRIC EFFECT/FACTOR 
 RESS_LL.OHMM          : SHALLOW LATEROLOG (LLS) 
 RESD_LL.OHMM          : DEEP LATEROLOG (LLD) 
 DPHI_LS.V/V           : DENSITY POROSITY - LIMESTONE 
 NPHI_LS.V/V           : NEUTRON POROSITY - LIMESTONE 
 RHOB.G/CC             : BULK DENSITY 
 #___________________________________________________________________________________________________ 
~A         DEPT           CALI             GR             PE        RESS_LL        RESD_LL        DPHI_LS        NPHI_LS           RHOB
# ...
         3818.5          7.895         51.666         2.2886         2.9037         5.0044        0.23500        0.19410         2.3135
         3819.0          7.912         48.217         2.3589         3.4562         5.6529        0.21730        0.17090         2.3168
         3819.5          7.943         44.077         2.4242         3.6772         5.9862        0.17370        0.14590         2.3976
         3820.0          7.909         45.184         2.3940         2.9815         4.7335        0.17420        0.12590         2.4356
         3820.5          7.882         47.408         2.3401         2.6041         4.4598        0.19800        0.14130         2.4265
         3821.0          7.922         50.935         2.2719         2.5839         4.3392        0.22190        0.17440         2.3918
         3821.5          8.042         52.636         2.2285         3.0110         4.7399        0.23700        0.20570         2.3571
         3822.0          8.128         50.992         2.2416         3.4381         5.4738        0.23220        0.21190         2.3348
         3822.5          8.270         49.037         2.2416         3.7643         6.1648        0.23290        0.19520         2.3287
         3823.0          8.237         47.292         2.1880         4.0033         6.3959        0.23520        0.20040         2.3271
         3823.5          8.202         43.606         2.1677         4.4990         6.8756        0.23680        0.19280         2.3286
         3824.0          8.269         44.656         2.1164         4.3508         6.6541        0.23240        0.18450         2.3326
         3824.5          8.323         50.300         2.0754         3.8927         5.9245        0.22540        0.19740         2.3444
         3825.0          8.317         54.786         2.0551         3.4345         5.1707        0.21840        0.19270         2.3568
         3825.5          8.008         54.123         2.2262         3.0645         4.4626        0.19480        0.17730         2.3670
         3826.0          7.986         49.215         2.3725         2.9506         4.4615        0.17730        0.16560         2.3771
         3826.5          8.087         46.582         2.5016         3.0388         5.1362        0.17070        0.15110         2.4364
         3827.0          8.117         45.551         2.5121         3.6226         5.8406        0.17200        0.15380         2.4304
         3827.5          8.255         50.376         2.4714         4.3247         7.4079        0.18340        0.17050         2.4153
         3828.0          8.309         57.803         2.3690         6.5142        10.1731        0.20710        0.18240         2.4002
         3828.5          8.327         63.867         2.3095         8.7036        12.9382        0.21100        0.17480         2.3850
         3829.0          8.341         67.117         2.4159        10.8931        16.6442        0.18470        0.17000         2.3795
         3829.5          8.339         73.723         2.6033        13.4492        21.7615        0.15740        0.15930         2.4327
         3830.0          8.340         80.867         2.6940        15.6304        26.1567        0.13060        0.14700         2.4856
         3830.5          8.341         86.937         2.6899        17.1947        29.0838        0.13030        0.16010         2.4996
         3831.0          8.326         91.141         2.6706        18.4558        31.0333        0.13210        0.14760         2.5191
         3831.5          8.302        103.335         2.6526        18.3665        30.0025        0.11600        0.13250         2.5386
         3832.0          8.297        113.333         2.6146        15.4949        24.4728        0.10320        0.14410         2.5371
         3832.5          8.282        108.275         2.5020        12.6234        17.8017        0.12930        0.15640         2.5191
         3833.0          8.266         88.438         2.3797         9.7518        13.1867        0.16360        0.15900         2.4766
         3833.5          8.269         81.497         2.3095         7.3218        11.0652        0.16920        0.16980         2.4342
         3834.0          8.242         81.661         2.3905         7.0724        10.7980        0.15840        0.16710         2.4562
         3834.5          8.210         81.832         2.3905         7.4448        10.6679        0.15570        0.18000         2.4544
         3835.0          8.223         78.829         2.4084         7.7431        10.4397        0.16160        0.17220         2.4489
         3835.5          8.180         78.249         2.4852         6.8768        10.1536        0.16540        0.17500         2.4433
         3836.0          8.026         78.398         2.5243         5.4311         8.7061        0.17140        0.17130         2.4329
         3836.5          8.070         76.126         2.4140         3.9854         5.6907        0.18000        0.17010         2.4169
         3837.0          7.882         67.718         2.1981         3.5180         4.7248        0.18720        0.16580         2.4009
         3837.5          7.641         62.314         2.0971         4.2257         5.2732        0.20810        0.15560         2.3849
         3838.0          7.682         57.609         2.0844         5.3247         6.8113        0.20720        0.13350         2.3746
         3838.5          7.710         53.651         2.1717         5.9848         8.3494        0.16270        0.12080         2.4327
         3839.0          7.742         48.841         2.3095         5.2101         8.0105        0.13710        0.10800         2.4913
         3839.5          7.431         50.732         2.2741         4.4354         6.5643        0.14690        0.10480         2.4636
         3840.0          7.366         51.935         2.1930         3.8521         5.0743        0.18690        0.13440         2.4315
         3840.5          7.379         53.838         2.1474         4.0342         4.8522        0.19870        0.15670         2.3994
         3841.0          7.415         55.380         2.1474         4.4076         5.1845        0.19450        0.16010         2.3941
         3841.5          7.515         53.919         2.1816         4.7811         5.7084        0.19300        0.15720         2.3974
         3842.0          7.498         54.189         2.2098         5.1545         6.2123        0.19130        0.15270         2.4018
         3842.5          7.454         56.396         2.2690         5.2292         6.2508        0.17850        0.14820         2.4138
         3843.0          7.475         57.515         2.2690         4.8831         6.0433        0.17360        0.14790         2.4301
         3843.5          7.495         58.635         2.2285         4.5370         5.6976        0.18490        0.15160         2.4103
         3844.0          7.468         62.762         2.2366         4.5669         5.7329        0.19360        0.15600         2.3935
         3844.5          7.454         64.031         2.3307         5.4085         7.2931        0.17830        0.14830         2.3944
         3845.0          7.456         65.878         2.4311         6.2500         8.6914        0.15830        0.12250         2.4291
         3845.5          7.599         63.513         2.4716         7.0916         9.5844        0.12910        0.10910         2.4723
         3846.0          7.493         58.778         2.5364         7.7648        10.1829        0.12960        0.10720         2.5070
         3846.5          7.361         60.648         2.4748         6.9049         9.8158        0.14260        0.12040         2.4680
         3847.0          7.522         68.919         2.3465         7.6767         9.6919        0.15060        0.12920         2.4753
         3847.5          7.767         75.233         2.2223        11.5355        14.7615        0.14370        0.12890         2.4805
