###############################################
##         ENVERUS                           ##
##         ESS - Open Hole                   ##
##         PERMIAN / DELAWARE                ##
##         Nov 03 2023  V4.0                 ##
##         42-109-32599-00-00                ##
###############################################
## Copyright 2017-2023  ENVERUS.  All Rights Reserved. 
## Confidential - Property of ENVERUS, use governed by terms and 
## conditions found within the existing Information Services Subscription Agreement 
## (as may be amended, the “ISSA”) between Customer and ENVERUS. 
## 
~VERSION INFORMATION
# MNEM.UNIT                               DATA : DESCRIPTION OF MNEMONIC
#-----.-----     ----------------------------- : -----------------------------
VERS.                                     2.00 : CWLS LOG ASCII STANDARD - VERSION 2.00
WRAP.                                       NO : MULTIPLE LINES PER DEPTH STEP
VEND.                                  ENVERUS : VENDOR
TYPE.                          ESS - OPEN HOLE : ENVERUS ESSENTIAL CURVES – ACCESSIBLE THROUGH ENVERUS PRISM(TM)
DOC.                                  21933172 : ENVERUS HEADER RAW DOCUMENT ID
#___________________________________________________________________________________________________ 
~WELL INFORMATION 
# uOzh0bdZpl++Qd8K/evm6vwbqlxLNv7zXaBwNvlB7bYnaXF7FEkKOyKwz7AUW0q8cTh4whY6gpezG6wl1Vx46w== 
# MNEM.UNIT                                              DATA : DESCRIPTION OF MNEMONIC 
#-----.-----                    ----------------------------- : ----------------------------- 
CNTY.                                               CULBERSON : COUNTY 
STATE.                                                  TEXAS : STATE 
CNTRY.                                                    USA : COUNTRY 
API.                                             42-109-32599 : API (10 Digit) 
API_14.                                    42-109-32599-00-00 : API (14 Digits) 
API_14_std.                                 42-109-32599-0000 : API (14 Digits Standard) 
UWI.                                           42109325990000 : UNIQUE WELL ID 
WELL.                                           COMANCHE 46 6 : WELL NAME
STRT.FT                                                 190.0 : START DEPTH
STOP.FT                                                5230.0 : STOP DEPTH
STEP.FT                                                   0.5 : STEP BETWEEN DEPTHS
NULL.                                                 -999.25 : NULL VALUE
SRVC.                                             HALLIBURTON :  
DATE.                                  12/31/2013 12-00-00 AM : 
#___________________________________________________________________________________________________ 
~PARAMETER INFORMATION 
# MNEM.UNIT                                              DATA : DESCRIPTION OF MNEMONIC 
#-----.-----                    ----------------------------- : -----------------------------
#___________________________________________________________________________________________________ 
~CURVE INFORMATION 
# MNEM.UNIT           : CURVE DESCRIPTION 
#-----.-----          : ----------------------------- 
 DEPT.FT               : MEASURED DEPTH 
 CALI.IN               : CALIPER (CALD) 
 GR.API                : GAMMA RAY (GRD) 
 PE.B/E                : PHOTOELECTRIC EFFECT/FACTOR 
 RESS_LL.OHMM          : SHALLOW LATEROLOG (LLS) 
 RESD_LL.OHMM          : DEEP LATEROLOG (LLD) 
 DPHI_LS.V/V           : DENSITY POROSITY - LIMESTONE 
 NPHI_LS.V/V           : NEUTRON POROSITY - LIMESTONE 
 RHOB.G/CC             : BULK DENSITY 
 #___________________________________________________________________________________________________ 
~A         DEPT           CALI             GR             PE        RESS_LL        RESD_LL        DPHI_LS        NPHI_LS           RHOB
# ...
         5175.5          7.684       -999.250         2.3796         7.3651         7.5088        0.10470        0.08070         2.5415
         5176.0          7.676       -999.250         2.3730         8.2104         8.5299        0.09320        0.07980         2.5415
         5176.5          7.682       -999.250         2.4766         9.0558         9.7748        0.08910        0.08300         2.5685
         5177.0          7.678       -999.250         2.4716         9.9012        11.0198        0.07960        0.07830         2.5758
         5177.5          7.664       -999.250         2.3856        10.7466        11.8989        0.08070        0.07280         2.5782
         5178.0          7.668       -999.250         2.4127        11.5920        12.9489        0.08360        0.07230         2.5806
         5178.5          7.684       -999.250         2.6640        13.0333        13.9988        0.07110        0.07250         2.5829
         5179.0          7.670       -999.250         2.8982        12.4015        14.5959        0.05960        0.05910         2.5905
         5179.5          7.661       -999.250         2.8221        12.3721        14.9314        0.06640        0.06730         2.6027
         5180.0          7.657       -999.250         2.5954        14.1270        15.3413        0.06100        0.06580         2.6149
         5180.5          7.648       -999.250         2.5020        15.2003        16.2717        0.05110        0.05570         2.6250
         5181.0          7.662       -999.250         2.5349        15.9675        17.6708        0.05850        0.04970         2.6260
         5181.5          7.664       -999.250         2.5877        17.1741        19.0699        0.06610        0.06120         2.6261
         5182.0          7.666       -999.250         2.6393        16.5590        19.6295        0.07400        0.06310         2.5945
         5182.5          7.667       -999.250         2.5911        14.1480        16.9567        0.07480     -999.25000         2.5912
         5183.0          7.679       -999.250         2.5729        11.7371        13.7668        0.07550     -999.25000         2.5872
         5183.5          7.663       -999.250         2.5729         9.3261        10.5770        0.08970     -999.25000         2.5654
         5184.0          7.648       -999.250         2.4847         9.1486         9.5216        0.10640     -999.25000         2.5400
         5184.5          7.659       -999.250         2.4918         9.4001        11.5412        0.10550     -999.25000         2.5415
         5185.0          7.650       -999.250         2.5050         9.7388        16.1447        0.10100     -999.25000         2.5453
         5185.5          7.654       -999.250         2.5688        11.2284        20.7481        0.09610     -999.25000         2.5492
         5186.0          7.653       -999.250         2.4837        15.8736        25.3515        0.09490     -999.25000         2.5530
         5186.5          7.652       -999.250         2.4321        22.4243        29.9549        0.09290     -999.25000         2.5568
         5187.0          7.650       -999.250         2.4891        27.6985        32.6402        0.08170     -999.25000         2.5613
         5187.5          7.649       -999.250         2.7284        30.0092        34.1338        0.06610     -999.25000         2.5824
         5188.0          7.648       -999.250         3.0073        31.4961        35.4285        0.05360     -999.25000         2.6059
         5188.5          7.647       -999.250         2.9840        32.8577        39.6380        0.04780     -999.25000         2.6295
         5189.0          7.645       -999.250         2.8565        39.5680        48.2199        0.05150     -999.25000         2.6342
         5189.5          7.644       -999.250         2.8191        50.2979        59.5517        0.06110     -999.25000         2.6225
         5190.0          7.643       -999.250         2.7724        60.7316        75.0612        0.06230     -999.25000         2.6109
         5190.5          7.642       -999.250         2.7350        70.7210        90.5707        0.06560     -999.25000         2.6034
         5191.0          7.556       -999.250         2.7678        80.7103        96.7745        0.06810     -999.25000         2.6002
         5191.5          7.470       -999.250         2.7981        77.4900        80.7737        0.06730     -999.25000         2.5988
         5192.0          7.401       -999.250         2.7866        66.9284        66.5515        0.06640     -999.25000         2.5988
         5192.5       -999.250       -999.250      -999.2500        56.3667        55.4168     -999.25000     -999.25000      -999.2500
         5193.0       -999.250       -999.250      -999.2500        45.8050        46.9657     -999.25000     -999.25000      -999.2500
         5193.5       -999.250       -999.250      -999.2500        35.2433        38.5147     -999.25000     -999.25000      -999.2500
         5194.0       -999.250       -999.250      -999.2500        34.1782        36.4298     -999.25000     -999.25000      -999.2500
         5194.5       -999.250       -999.250      -999.2500        33.7504        38.2736     -999.25000     -999.25000      -999.2500
         5195.0       -999.250       -999.250      -999.2500        36.8226        42.3181     -999.25000     -999.25000      -999.2500
         5195.5       -999.250       -999.250      -999.2500        41.9431        46.3627     -999.25000     -999.25000      -999.2500
         5196.0       -999.250       -999.250      -999.2500        47.0635        50.4073     -999.25000     -999.25000      -999.2500
         5196.5       -999.250       -999.250      -999.2500        50.1358        54.4518     -999.25000     -999.25000      -999.2500
         5197.0       -999.250       -999.250      -999.2500        47.7155        56.9785     -999.25000     -999.25000      -999.2500
         5197.5       -999.250       -999.250      -999.2500        46.2634        59.4904     -999.25000     -999.25000      -999.2500
         5198.0       -999.250       -999.250      -999.2500        57.6962        62.0022     -999.25000     -999.25000      -999.2500
         5198.5       -999.250       -999.250      -999.2500        78.5076        91.2574     -999.25000     -999.25000      -999.2500
         5199.0       -999.250       -999.250      -999.2500       108.7621       124.8970     -999.25000     -999.25000      -999.2500
         5199.5       -999.250       -999.250      -999.2500       139.0166       158.5366     -999.25000     -999.25000      -999.2500
         5200.0       -999.250       -999.250      -999.2500       140.2864       171.2855     -999.25000     -999.25000      -999.2500
         5200.5       -999.250       -999.250      -999.2500       111.8818       132.1239     -999.25000     -999.25000      -999.2500
         5201.0       -999.250       -999.250      -999.2500        83.4773        99.0006     -999.25000     -999.25000      -999.2500
         5201.5       -999.250       -999.250      -999.2500        55.0727        74.4047     -999.25000     -999.25000      -999.2500
         5202.0       -999.250       -999.250      -999.2500        41.0639        49.8088     -999.25000     -999.25000      -999.2500
         5202.5       -999.250       -999.250      -999.2500        32.4003        37.2277     -999.25000     -999.25000      -999.2500
         5203.0       -999.250       -999.250      -999.2500        23.7368        30.9866     -999.25000     -999.25000      -999.2500
         5203.5       -999.250       -999.250      -999.2500        19.5959        25.1660     -999.25000     -999.25000      -999.2500
         5204.0       -999.250       -999.250      -999.2500        15.5578        18.1133     -999.25000     -999.25000      -999.2500
         5204.5       -999.250       -999.250      -999.2500        13.4902        16.4277     -999.25000     -999.25000      -999.2500
