###############################################
##         ENVERUS                           ##
##         ESS - Open Hole                   ##
##         PERMIAN / DELAWARE                ##
##         Nov 03 2023  V4.0                 ##
##         42-109-32599-00-00                ##
###############################################
## Copyright 2017-2023  ENVERUS.  All Rights Reserved. 
## Confidential - Property of ENVERUS, use governed by terms and 
## conditions found within the existing Information Services Subscription Agreement 
## (as may be amended, the “ISSA”) between Customer and ENVERUS. 
## 
~VERSION INFORMATION
# MNEM.UNIT                               DATA : DESCRIPTION OF MNEMONIC
#-----.-----     ----------------------------- : -----------------------------
VERS.                                     2.00 : CWLS LOG ASCII STANDARD - VERSION 2.00
WRAP.                                       NO : MULTIPLE LINES PER DEPTH STEP
VEND.                                  ENVERUS : VENDOR
TYPE.                          ESS - OPEN HOLE : ENVERUS ESSENTIAL CURVES – ACCESSIBLE THROUGH ENVERUS PRISM(TM)
DOC.                                  21933172 : ENVERUS HEADER RAW DOCUMENT ID
#___________________________________________________________________________________________________ 
~WELL INFORMATION 
# uOzh0bdZpl++Qd8K/evm6vwbqlxLNv7zXaBwNvlB7bYnaXF7FEkKOyKwz7AUW0q8cTh4whY6gpezG6wl1Vx46w== 
# MNEM.UNIT                                              DATA : DESCRIPTION OF MNEMONIC 
#-----.-----                    ----------------------------- : ----------------------------- 
CNTY.                                               CULBERSON : COUNTY 
STATE.                                                  TEXAS : STATE 
CNTRY.                                                    USA : COUNTRY 
API.                                             42-109-32599 : API (10 Digit) 
API_14.                                    42-109-32599-00-00 : API (14 Digits) 
API_14_std.                                 42-109-32599-0000 : API (14 Digits Standard) 
UWI.                                           42109325990000 : UNIQUE WELL ID 
WELL.                                           COMANCHE 46 6 : WELL NAME
STRT.FT                                                 190.0 : START DEPTH
STOP.FT                                                5230.0 : STOP DEPTH
STEP.FT                                                   0.5 : STEP BETWEEN DEPTHS
NULL.                                                 -999.25 : NULL VALUE
SRVC.                                             HALLIBURTON :  
DATE.                                  12/31/2013 12-00-00 AM : 
#___________________________________________________________________________________________________ 
~PARAMETER INFORMATION 
# MNEM.UNIT                                              DATA : DESCRIPTION OF MNEMONIC 
#-----.-----                    ----------------------------- : -----------------------------
#___________________________________________________________________________________________________ 
~CURVE INFORMATION 
# MNEM.UNIT           : CURVE DESCRIPTION 
#-----.-----          : ----------------------------- 
 DEPT.FT               : MEASURED DEPTH 
 CALI.IN               : CALIPER (CALD) 
 GR.API                : GAMMA RAY (GRD) 
 PE.B/E                : PHOTOELECTRIC EFFECT/FACTOR 
 RESS_LL.OHMM          : SHALLOW LATEROLOG (LLS) 
 RESD_LL.OHMM          : DEEP LATEROLOG (LLD) 
 DPHI_LS.V/V           : DENSITY POROSITY - LIMESTONE 
 NPHI_LS.V/V           : NEUTRON POROSITY - LIMESTONE 
 RHOB.G/CC             : BULK DENSITY 
 #___________________________________________________________________________________________________ 
~A         DEPT           CALI             GR             PE        RESS_LL        RESD_LL        DPHI_LS        NPHI_LS           RHOB
# ...
         4792.0          7.661        109.477         3.2293        46.4564        54.7182        0.07110        0.14360         2.6012
         4792.5          7.650         95.587         3.1178        27.9903        38.8217        0.07870        0.14220         2.5886
         4793.0          7.670         83.361         2.8436        18.5860        25.9614        0.08510        0.11670         2.5760
         4793.5          7.682         74.048         2.7673        15.5304        20.3252        0.09650        0.09600         2.5623
         4794.0          7.682         68.180         2.5565        13.7052        18.6941        0.10710        0.08260         2.5479
         4794.5          7.667         64.740         2.5378        13.1604        17.0629        0.10760        0.07920         2.5364
         4795.0          7.676         60.837         2.6436        12.6157        15.7962        0.10430        0.07200         2.5364
         4795.5          7.678         56.436         2.7325        12.0709        14.8517        0.10380        0.06830         2.5371
         4796.0          7.666         58.543         2.6836        11.4900        13.9073        0.10360        0.07070         2.5408
         4796.5          7.654         61.083         2.5722        10.9049        13.3058        0.10210        0.07630         2.5445
         4797.0          7.646         61.675         2.5437        10.5749        12.9329        0.10160        0.07800         2.5491
         4797.5          7.648         61.517         2.6818         9.9182        12.5600        0.09520        0.07530         2.5574
         4798.0          7.650         63.708         2.6216         9.0428        11.6104        0.08980        0.07420         2.5656
         4798.5          7.652         68.047         2.5110         8.3000         9.9960        0.08960        0.07540         2.5680
         4799.0          7.654         73.439         2.3879         7.7561         9.4679        0.09270        0.08350         2.5629
         4799.5          7.656         73.797         2.4119         7.2123         8.9399        0.10320        0.09270         2.5444
         4800.0          7.658         70.845         2.4181         6.8803         8.7798        0.13410        0.08800         2.5280
         4800.5          7.660         70.239         2.4244         7.3958         9.0682        0.14120        0.09060         2.5117
         4801.0          7.662         72.909         2.4307         7.9113         9.4287        0.13010        0.09010         2.5084
         4801.5          7.662         72.595         2.4810         8.4267        10.4069        0.11920        0.08580         2.5077
         4802.0          7.662         69.805         2.5939         8.8391        11.2408        0.11030        0.07960         2.5088
         4802.5          7.662         67.885         2.6296         8.6869        10.8254        0.10510        0.07220         2.5339
         4803.0          7.672         69.532         2.5733         8.3063        10.3926        0.10440        0.07070         2.5403
         4803.5          7.682         72.308         2.5639         7.9258         9.9598        0.10840        0.07120         2.5407
         4804.0          7.682         75.083         2.5545         7.5452         9.3265        0.11080        0.07970         2.5402
         4804.5          7.682         76.250         2.5215         7.1646         8.7258        0.10820        0.08890         2.5362
         4805.0          7.682         79.766         2.4945         7.2251         8.6720        0.11260        0.09160         2.5313
         4805.5          7.667         78.662         2.4940         7.3260         8.6720        0.12730        0.09220         2.5253
         4806.0          7.625         73.685         2.4583         7.4268         8.6720        0.13350        0.09420         2.5194
         4806.5          7.624         69.096         2.3825         7.5276         8.6720        0.12850        0.09610         2.5165
         4807.0          7.653         65.979         2.3119         7.4697         8.6607        0.12560        0.09490         2.5165
         4807.5          7.629         68.889         2.3929         7.3309         8.6038        0.12470        0.09320         2.5179
         4808.0          7.627         74.479         2.4536         7.0701         8.5469        0.12200        0.09750         2.5191
         4808.5          7.629         71.772         2.4523         6.8614         8.5656        0.11910        0.10020         2.5199
         4809.0          7.627         69.873         2.3899         7.2626         9.2826        0.11610        0.10040         2.5217
         4809.5          7.640         72.539         2.3348         7.6212        10.3892        0.11340        0.09680         2.5232
         4810.0          7.627         75.168         2.3052        10.9814        15.9786        0.10710        0.09340         2.5333
         4810.5          7.622         74.432         2.4445        15.1227        24.5567        0.10010        0.09120         2.5506
         4811.0          7.622         75.202         2.6293        24.6113        33.1347        0.09280        0.08900         2.5680
         4811.5          7.634         81.866         2.7811        55.4895        87.7171        0.08900        0.09460         2.5688
         4812.0          7.650         94.687         2.6187        86.3676       133.0164        0.09120        0.10200         2.5583
         4812.5          7.662        107.392         2.4649        90.9851       144.1388        0.09790        0.12080         2.5486
         4813.0          7.672        120.433         2.5117        87.4888       143.2512        0.10700        0.13960         2.5389
         4813.5          7.682        124.362         2.5413        80.1852       127.3829        0.11610        0.13670         2.5291
         4814.0          7.670        113.957         2.5381        69.5256       109.0496        0.11730        0.12070         2.5233
         4814.5          7.657        105.596         2.4771        58.6330        80.8568        0.09880        0.10610         2.5385
         4815.0          7.644         97.484         2.4823        47.7404        52.6640        0.08320        0.09690         2.5576
         4815.5          7.682         93.582         2.5134        36.8479        34.7072        0.07900        0.09330         2.5766
         4816.0          7.655         88.174         2.5273        25.9553        23.5744        0.07870        0.09170         2.5842
         4816.5          7.682         79.577         2.5105        15.0627        17.5861        0.08590        0.09020         2.5697
         4817.0          7.662         70.580         2.4566        11.9972        15.0276        0.09670        0.08580         2.5516
         4817.5          7.679         63.623         2.4409        10.8885        13.2053        0.10550        0.08130         2.5335
         4818.0          7.683         62.500         2.4776         9.7635        11.4755        0.10910        0.07250         2.5335
         4818.5          7.673         52.079         2.5516         8.5736        10.0465        0.10820        0.06220         2.5357
         4819.0          7.683         44.728         2.5788         7.3836         8.4119        0.10500        0.05770         2.5364
         4819.5          7.673         47.241         2.5131         6.1937         7.0183        0.10440        0.05930         2.5386
         4820.0          7.656         53.247         2.4574         5.0037         5.9862        0.11070        0.07150         2.5417
         4820.5          7.658         60.228         2.4040         5.9852         6.4367        0.11790        0.08270         2.5441
         4821.0          7.656         61.738         2.3703         9.1073         8.6501        0.11910        0.08720         2.5463
