###############################################
##         ENVERUS                           ##
##         ESS - Open Hole                   ##
##         PERMIAN / DELAWARE                ##
##         Nov 03 2023  V4.0                 ##
##         42-109-32599-00-00                ##
###############################################
## Copyright 2017-2023  ENVERUS.  All Rights Reserved. 
## Confidential - Property of ENVERUS, use governed by terms and 
## conditions found within the existing Information Services Subscription Agreement 
## (as may be amended, the “ISSA”) between Customer and ENVERUS. 
## 
~VERSION INFORMATION
# MNEM.UNIT                               DATA : DESCRIPTION OF MNEMONIC
#-----.-----     ----------------------------- : -----------------------------
VERS.                                     2.00 : CWLS LOG ASCII STANDARD - VERSION 2.00
WRAP.                                       NO : MULTIPLE LINES PER DEPTH STEP
VEND.                                  ENVERUS : VENDOR
TYPE.                          ESS - OPEN HOLE : ENVERUS ESSENTIAL CURVES – ACCESSIBLE THROUGH ENVERUS PRISM(TM)
DOC.                                  21933172 : ENVERUS HEADER RAW DOCUMENT ID
#___________________________________________________________________________________________________ 
~WELL INFORMATION 
# uOzh0bdZpl++Qd8K/evm6vwbqlxLNv7zXaBwNvlB7bYnaXF7FEkKOyKwz7AUW0q8cTh4whY6gpezG6wl1Vx46w== 
# MNEM.UNIT                                              DATA : DESCRIPTION OF MNEMONIC 
#-----.-----                    ----------------------------- : ----------------------------- 
CNTY.                                               CULBERSON : COUNTY 
STATE.                                                  TEXAS : STATE 
CNTRY.                                                    USA : COUNTRY 
API.                                             42-109-32599 : API (10 Digit) 
API_14.                                    42-109-32599-00-00 : API (14 Digits) 
API_14_std.                                 42-109-32599-0000 : API (14 Digits Standard) 
UWI.                                           42109325990000 : UNIQUE WELL ID 
WELL.                                           COMANCHE 46 6 : WELL NAME
STRT.FT                                                 190.0 : START DEPTH
STOP.FT                                                5230.0 : STOP DEPTH
STEP.FT                                                   0.5 : STEP BETWEEN DEPTHS
NULL.                                                 -999.25 : NULL VALUE
SRVC.                                             HALLIBURTON :  
DATE.                                  12/31/2013 12-00-00 AM : 
#___________________________________________________________________________________________________ 
~PARAMETER INFORMATION 
# MNEM.UNIT                                              DATA : DESCRIPTION OF MNEMONIC 
#-----.-----                    ----------------------------- : -----------------------------
#___________________________________________________________________________________________________ 
~CURVE INFORMATION 
# MNEM.UNIT           : CURVE DESCRIPTION 
#-----.-----          : ----------------------------- 
 DEPT.FT               : MEASURED DEPTH 
 CALI.IN               : CALIPER (CALD) 
 GR.API                : GAMMA RAY (GRD) 
 PE.B/E                : PHOTOELECTRIC EFFECT/FACTOR 
 RESS_LL.OHMM          : SHALLOW LATEROLOG (LLS) 
 RESD_LL.OHMM          : DEEP LATEROLOG (LLD) 
 DPHI_LS.V/V           : DENSITY POROSITY - LIMESTONE 
 NPHI_LS.V/V           : NEUTRON POROSITY - LIMESTONE 
 RHOB.G/CC             : BULK DENSITY 
 #___________________________________________________________________________________________________ 
~A         DEPT           CALI             GR             PE        RESS_LL        RESD_LL        DPHI_LS        NPHI_LS           RHOB
# ...
         3051.5          8.603         57.068         2.3681        13.2842        17.8063        0.15410        0.11190         2.4701
         3052.0          8.613         59.146         2.4403        13.0963        18.6546        0.14500        0.10900         2.4769
         3052.5          8.643         57.541         2.5225        11.4941        15.8668        0.13570        0.10360         2.4838
         3053.0          8.683         54.692         2.5628        10.2123        14.1792        0.13300        0.10510         2.4907
         3053.5          8.724         53.635         2.4946         9.9319        13.6416        0.13100        0.10160         2.4976
         3054.0          8.764         56.656         2.4163         9.6601        13.5295        0.13170        0.09810         2.4998
         3054.5          8.773         58.679         2.4406         9.3998        13.6287        0.13190        0.09290         2.4968
         3055.0          8.804         59.534         2.4402         8.8979        13.4701        0.13220        0.09710         2.4917
         3055.5          8.844         60.583         2.3483         8.7956        13.3773        0.13560        0.11320         2.4843
         3056.0          8.866         58.193         2.2289         9.4413        14.4574        0.14920        0.12880         2.4622
         3056.5          8.884         54.024         2.2035        10.0869        14.8797        0.16340        0.12330         2.4487
         3057.0          8.883         56.471         2.2605         9.8201        14.7994        0.16430        0.11510         2.4483
         3057.5          8.899         60.862         2.3175         9.6601        15.2955        0.15480        0.11840         2.4505
         3058.0          8.963         64.585         2.3597         9.8413        15.7108        0.15350        0.12670         2.4617
         3058.5          9.002         68.820         2.3785        12.2504        18.7216        0.14980        0.12090         2.4730
         3059.0          9.037         70.182         2.4038        15.1863        24.4089        0.14250        0.11510         2.4842
         3059.5          9.031         68.592         2.4004        16.8434        21.0116        0.13660        0.13260         2.4887
         3060.0          9.052         73.515         2.3813        10.0917        11.4511        0.14010        0.12910         2.4725
         3060.5          9.101         75.075         2.4314         5.6085         8.8243        0.15660        0.12660         2.4523
         3061.0          9.027         63.364         2.3859         5.0893         8.5128        0.17300        0.13070         2.4321
         3061.5          8.950         55.619         2.3231         4.3273         6.7735        0.18620        0.13340         2.4189
         3062.0          9.034         55.776         2.3024         4.5685         6.7320        0.18550        0.12700         2.4122
         3062.5          9.026         54.054         2.3313         4.2333         6.2621        0.17900        0.11910         2.4054
         3063.0          9.044         46.601         2.3014         3.8008         5.7863        0.18900        0.13390         2.3928
         3063.5          9.123         47.052         2.2420         4.9196         6.9728        0.20990        0.14460         2.3764
         3064.0          9.161         48.502         2.2079         6.0383         8.4336        0.20750        0.14680         2.3798
         3064.5          9.200         50.267         2.2554         6.7096         8.7258        0.18880        0.12660         2.4130
         3065.0          9.243         51.993         2.3273         5.8381         7.8411        0.17010        0.12400         2.4287
         3065.5          9.283         47.909         2.2723         4.7487         6.1856        0.17440        0.12400         2.3752
         3066.0          9.283         46.667         2.1910         3.6593         4.8795        0.21310        0.15360         2.3431
         3066.5          9.283         50.300         2.1734         3.0922         4.7514        0.22720        0.17390         2.3484
         3067.0          9.323         57.207         2.1608         3.6175         5.5596        0.22580        0.15970         2.3617
         3067.5          9.403         58.114         2.2547         4.1428         6.3677        0.21640        0.15320         2.3750
         3068.0          9.504         57.800         2.4190         5.6615         8.8717        0.19480        0.15670         2.3994
         3068.5          9.604         56.741         2.5274         7.4285        11.2577        0.16440        0.15230         2.4556
         3069.0          9.704         56.637         2.5581         7.5926        12.1067        0.15730        0.14820         2.4541
         3069.5          9.764         57.057         2.4065         7.2773        11.8103        0.17230        0.15790         2.4424
         3070.0          9.784         51.576         2.3544         6.9619        11.8788        0.20340        0.17470         2.4130
         3070.5          9.784         50.150         2.2776         6.6683        11.9244        0.21100        0.17560         2.3835
         3071.0          9.787         49.554         2.2845         6.5326        11.7697        0.21280        0.16230         2.3684
         3071.5          9.790         49.260         2.3095         6.4655        11.6149        0.21370        0.17310         2.3627
         3072.0          9.792         52.129         2.2583         6.5636        11.4370        0.21600        0.18270         2.3570
         3072.5          9.795         53.906         2.1860         6.8090        11.3667        0.22370        0.18870         2.3499
         3073.0          9.798         52.961         2.1306         7.0544        11.3105        0.22430        0.18470         2.3470
         3073.5          9.801         51.051         2.0884         7.2998        12.1836        0.21670        0.16610         2.3521
         3074.0          9.803         46.761         2.2001         7.5452        12.7190        0.21570        0.18310         2.3599
         3074.5          9.804         45.045         2.1365         6.7582        10.4610        0.21410        0.17070         2.3622
         3075.0          9.804         48.048         2.1281         5.5240         8.0109        0.20640        0.16550         2.3659
         3075.5          9.729         51.426         2.1904         4.2899         7.0499        0.20020        0.15450         2.3785
         3076.0          9.654         51.314         2.2037         4.2559         6.8154        0.20390        0.14060         2.3916
         3076.5          9.624         53.600         2.2024         6.4527         8.3906        0.20590        0.14450         2.4047
         3077.0          9.624         58.108         2.1880         9.4879        12.2921        0.19640        0.15860         2.4196
         3077.5          9.624         63.732         2.2167        12.5231        18.6425        0.17030        0.15130         2.4416
         3078.0          9.624         70.384         2.2789        14.1229        22.6388        0.14420        0.14420         2.4637
         3078.5          9.577         72.488         2.3095        12.3417        15.8937        0.15030        0.15320         2.4769
         3079.0          9.553         68.886         2.2690         7.8633         9.3477        0.16490        0.14470         2.4491
         3079.5          9.508         64.022         2.2285         4.5706         5.8042        0.16450        0.13980         2.4213
         3080.0          9.419         59.124         2.2015         3.3382         5.6273        0.17470        0.15730         2.3935
         3080.5          9.255         50.450         2.1880         4.0789         6.1889        0.20150        0.17420         2.3890
