~Version Information Block
 VERS.                2.00:     CWLS LOG ASCII STANDARD - VERSION 2.000000
 WRAP.                  NO:     One Line Per Depth Step
#
~Well Information Block
#MNEM.UNIT                     Data                         Information
#----------   ------------------------------------------   ----------------
 STRT.FT                                      250.0000:     START DEPTH
 STOP.FT                                    10290.0000:     STOP DEPTH
 STEP.FT                                        0.5000:     STEP
 NULL.                                       -999.2500:     NULL VALUE
 COMP.                                                :     COMPANY
 WELL.                                                :     WELL
 FLD .                                                :     FIELD
 LOC .                                                :     LOCATION
 CNTY.                                                :     COUNTY
 STAT.                                                :     STATE
 CTRY.                                                :     COUNTRY
 SRVC.                                                :     SERVICE COMPANY
 DATE.                                                :     DATE
 API .                                                4210931550:     API NUMBER
 UWI .                                                :     UWI NUMBER
 TVD .                                              NO:     TVD flag
 WSTA.                                             LOC:     Well status
#
~Curve Information Block
#MNEM.UNIT       API CODE      Curve Description
#----------    -------------   -------------------
 DEPT.FT                   :   Depth in Feet
 LLS .OHMM                 :   Latero-Log Shallow (Resistivity)
 LLD .OHMM                 :   Latero-Log Deep (Resistivity)
 SFLU.OHMM                 :   SFL Resistivity (Unaveraged)
 ILD .OHMM                 :   Deep Induction Standard Processed Resistivity
 ILM .OHMM                 :   Medium Induction Standard Processed Resistivity
#
~Parameter Information Block
#MNEM.UNIT            Value               Description
#----------    --------------------    -------------------
 RUN .                         ONE:    Run Number
 PDAT.                          GL:    Permanent Datum
 EPD .FT                          :    Elevation Of Perm. Datum
 LMF .               KELLY BUSHING:    Log Measured From
 EKB .FT                          :    Elevation Of Kelly Bushing
 DF .FT                           :    Elevation Of Derrick Floor
 GL .FT                           :    Elevation Of Ground Level
 TD  .FT                          :    Total Depth
 CSGD.FT                          :    Casing Bottom (Driller) 1
 CSGL.FT                          :    Casing Bottom (Logger) 1
 MUD .                            :    Drilling Fluid Type
 MUDV .CP                         :    Drilling Fluid Viscosity
 MUDD .LB/USG                     :    Drilling Fluid Density
 FL .ML/30MIN                     :    Drilling Fluid Loss
 PH.                              :    Drilling Fluid Ph
 MUDS .                           :    Mud Sample Source
 RM .OHMM                         :    Resistivity Of Mud Sample
 RMT .DEGF                        :    Mud Sample Temperature
 RMF .OHMM                        :    Mud Filtrate Resistivity
 RMFT.DEGF                        :    Mud Filtrate Sample Temperature
 RMC .OHMM                        :    Mud Cake Resistivity
 RMCT.DEGF                        :    Mud Cake Sample Temperature
 RMB .OHMM                        :    Mud Resistivity At Bht
 TMAX .DEGF                       :    Bottom Hole Temperature
#
~Other Information Block
<DescLogPlotStart>   NEURALOG PLOT DEFINITION
PLOTDEFVERSION: 3
LASFILE: E:\nds\projects\Texas Standard Oil LLC\pdf\Pradeep+Ekta\42109315500000
DEPTHSCALE: 240.000000
RESOLUTION: 200
DEPTHLABELFREQ: 100.000000
HEAVYGRIDFREQ: 100.000000
MEDIUMGRIDFREQ: 50.000000
LIGHTGRIDFREQ: 10.000000
#
#   TRACK 1
#
STARTTRACK: 
 LEFTX: 1.000000 inch
 RIGHTX: 6.000000 inch
 SCALETYPE: Log
 NUMCYCLES: 4
 STARTCYCLE: 2
CURVE: SFLU  0.200000   2000.000000 (0,0,255)      Solid             2     N   
CURVE: ILD   0.200000   2000.000000 (0,131,131)    Dot               2     N   
CURVE: ILM   0.200000   2000.000000 (255,0,255)    Short_Dash        2     N   
ENDTRACK: 
#
#   TRACK 2
#
STARTTRACK: 
 LEFTX: 1.000000 inch
 RIGHTX: 6.000000 inch
 SCALETYPE: Log
 NUMCYCLES: 4
 STARTCYCLE: 2
CURVE: LLS   0.200000   2000.000000 (255,0,0)      Solid             2     Y   
BACKUP: 2000.000000 20000000.000000 (255,0,0)      Solid             2    
CURVE: LLD   0.200000   2000.000000 (255,131,0)    Dot               2     Y   
BACKUP: 2000.000000 20000000.000000 (255,131,0)    Dot               2    
ENDTRACK: 
<DescLogPlotEnd>
~A DEPTH     LLS              LLD              SFLU             ILD              ILM             
# ...
    9270.000 -999.25000000    -999.25000000    160.58464565     207.04995053     119.04029646    
    9270.500 -999.25000000    -999.25000000    145.48538369     178.60045187     108.67951683    
    9271.000 -999.25000000    -999.25000000    131.80585717     155.48983823     95.17651122     
    9271.500 -999.25000000    -999.25000000    119.41257289     140.46548224     83.73279582     
    9272.000 -999.25000000    -999.25000000    114.63172298     126.89286918     76.00908459     
    9272.500 -999.25000000    -999.25000000    120.05078402     120.05078402     72.89790558     
    9273.000 -999.25000000    -999.25000000    124.56990840     118.92931231     73.57446062     
    9273.500 -999.25000000    -999.25000000    128.07054376     117.91172090     74.25729467     
    9274.000 -999.25000000    -999.25000000    135.36970113     117.70595580     73.57446062     
    9274.500 -999.25000000    -999.25000000    135.24857456     121.16495819     78.42422876     
    9275.000 -999.25000000    -999.25000000    140.53957607     125.72602392     82.96282966     
    9275.500 -999.25000000    -999.25000000    141.83017978     135.36970113     83.73279582     
    9276.000 -999.25000000    -999.25000000    141.76912230     141.76912230     82.96282966     
    9276.500 -999.25000000    -999.25000000    144.41281141     149.84900628     88.06639630     
    9277.000 -999.25000000    -999.25000000    144.41281141     161.34301049     91.83663315     
    9277.500 -999.25000000    -999.25000000    144.41281141     175.33090767     102.06694001    
    9278.000 -999.25000000    -999.25000000    151.23973349     192.29980427     94.61078987     
    9278.500 -999.25000000    -999.25000000    158.38938916     207.04995053     102.40428128    
    9279.000 -999.25000000    -999.25000000    167.41651628     242.82836962     107.53294260    
    9279.500 -999.25000000    -999.25000000    170.53847410     241.78905020     117.06097637    
    9280.000 -999.25000000    -999.25000000    173.71864972     288.40984927     119.87950989    
    9280.500 -999.25000000    -999.25000000    187.71932747     297.39870123     123.51090865    
    9281.000 -999.25000000    -999.25000000    184.91108700     302.39082614     126.97795789    
    9281.500 -999.25000000    -999.25000000    183.62819171     308.02976444     130.36194862    
    9282.000 -999.25000000    -999.25000000    181.78063193     322.59145866     129.18660222    
    9282.500 -999.25000000    -999.25000000    194.08451127     305.19727218     131.93786294    
    9283.000 -999.25000000    -999.25000000    212.86842134     283.45515444     132.83048922    
    9283.500 -999.25000000    -999.25000000    231.32339862     260.84110647     134.01878644    
    9284.000 -999.25000000    -999.25000000    238.34800183     242.25890222     125.94689584    
    9284.500 -999.25000000    -999.25000000    217.32528206     233.47027802     123.02031541    
    9285.000 -999.25000000    -999.25000000    212.60008814     242.25890222     121.16495819    
    9285.500 -999.25000000    -999.25000000    210.91098662     253.71136709     123.41067556    
    9286.000 -999.25000000    -999.25000000    208.97155152     270.66006278     129.20650699    
    9286.500 -999.25000000    -999.25000000    286.08586121     288.74098320     135.32151621    
    9287.000 -999.25000000    -999.25000000    275.70729061     340.97699647     140.61228151    
    9287.500 -999.25000000    -999.25000000    392.56233804     334.73491059     168.63554679    
    9288.000 -999.25000000    -999.25000000    521.52933529     615.87899420     164.67393149    
    9288.500 -999.25000000    -999.25000000    564.30366755     1190.58195441    199.70275575    
    9289.000 -999.25000000    -999.25000000    727.29741135     1491.72289764    237.82399638    
    9289.500 -999.25000000    -999.25000000    1072.05621368    1703.54714168    263.26193549    
    9290.000 -999.25000000    -999.25000000    1456.25974447    1936.36787656    280.09578051    
    9290.500 -999.25000000    -999.25000000    1633.64425285    1936.36787656    293.52448729    
    9291.000 -999.25000000    -999.25000000    1815.11278800    1936.36787656    307.75111840    
    9291.500 -999.25000000    -999.25000000    1848.96073617    1972.47697123    328.60709528    
    9292.000 -999.25000000    -999.25000000    1900.91981201    2009.25942284    355.38492588    
    9292.500 -999.25000000    -999.25000000    1928.78026582    2009.25942284    398.67375578    
    9293.000 -999.25000000    -999.25000000    1973.70402671    2009.25942284    441.63358408    
    9293.500 -999.25000000    -999.25000000    1970.80914941    2009.25942284    449.86910022    
    9294.000 -999.25000000    -999.25000000    1971.17169739    2009.25942284    441.63358408    
    9294.500 -999.25000000    -999.25000000    1985.06728208    2009.25942284    441.68527446    
    9295.000 -999.25000000    -999.25000000    1972.47697123    1954.33903004    441.53783085    
    9295.500 -999.25000000    -999.25000000    1990.78324807    1954.33903004    462.78731709    
    9296.000 -999.25000000    -999.25000000    1948.31304799    1954.33903004    462.75123249    
    9296.500 -999.25000000    -999.25000000    1909.44330926    1954.33903004    466.80372031    
    9297.000 -999.25000000    -999.25000000    1848.96073617    1954.33903004    417.82062589    
    9297.500 -999.25000000    -999.25000000    1883.43987574    2027.90707234    379.10821490    
    9298.000 -999.25000000    -999.25000000    1603.31893719    1953.88633375    308.18958789    
    9298.500 -999.25000000    -999.25000000    1199.78987373    1922.14795825    240.49642742    
    9299.000 -999.25000000    -999.25000000    879.35900411     723.83671575     189.97085621    
    9299.500 -999.25000000    -999.25000000    521.52933529     521.06187626     170.53847410    
    9300.000 -999.25000000    -999.25000000    419.99764887     416.92383674     167.30171527    
    9300.500 -999.25000000    -999.25000000    343.73568908     417.90719792     163.71456199    
    9301.000 -999.25000000    -999.25000000    290.14914094     425.61208160     161.34301049    
    9301.500 -999.25000000    -999.25000000    415.45310452     454.04427104     175.33090767    
    9302.000 -999.25000000    -999.25000000    603.78007078     479.92173273     204.29497227    
    9302.500 -999.25000000    -999.25000000    654.38381064     1508.90846297    229.72620450    
    9303.000 -999.25000000    -999.25000000    838.86598491     1639.72575951    260.84110647    
    9303.500 -999.25000000    -999.25000000    1162.11790812    1639.72575951    265.70523188    
    9304.000 -999.25000000    -999.25000000    1522.91242674    1551.31146685    283.82199200    
    9304.500 -999.25000000    -999.25000000    1357.57928101    1440.79672891    297.45905044    
    9305.000 -999.25000000    -999.25000000    1042.75300490    1363.10872351    305.19727218    
    9305.500 -999.25000000    -999.25000000    727.29741135     1266.00146518    294.68746125    
    9306.000 -999.25000000    -999.25000000    582.58995822     1154.28711353    280.35611669    
    9306.500 -999.25000000    -999.25000000    512.05292373     950.73851750     261.29934473    
    9307.000 -999.25000000    -999.25000000    441.63358408     907.82242904     244.50727246    
    9307.500 -999.25000000    -999.25000000    425.61208160     907.82242904     246.77650951    
    9308.000 -999.25000000    -999.25000000    488.41982709     1062.19810489    240.03120690    
    9308.500 -999.25000000    -999.25000000    617.58821872     1289.60966862    254.35438160    
    9309.000 -999.25000000    -999.25000000    906.31411109     1440.79672891    267.87408326    
    9309.500 -999.25000000    -999.25000000    1143.67284929    1440.79672891    292.79698845    
    9310.000 -999.25000000    -999.25000000    1313.65811426    1382.37746575    296.85511692    
    9310.500 -999.25000000    -999.25000000    1010.80322719    1170.68780332    271.18337317    
