~VERSION INFORMATION
VERS. 2.0 : CWLS Log ASCII Standard - Version 2.0
WRAP. NO : One line per depth step
#--------------------------------------------------#
#----------------DRILLING INFO, INC.---------------#
#---------------WWW.DRILLINGINFO.COM---------------#
#------------------COPYRIGHT 2015------------------#
#--------------------------------------------------#
#THIS FILE MAY BE USED ONLY IN ACCORDANCE WITH A CURRENT SUBSCRIPTION AGREEMENT BETWEEN
#THE USER AND DRILLING INFO, INC. NO PART OF THIS FILE MAY BE REPRODUCED, USED, COPIED,
#MODIFIED, PROPAGATED, OR DISTRIBUTED EXCEPT IN ACCORDANCE WITH THE SUBSCRIPTION
#AGREEMENT. UNAUTHORIZED USE OR DISTRIBUTION OF ALL OR ANY PART OF THIS FILE MAY VIOLATE
#COPYRIGHT, TRADEMARK, AND/OR OTHER LAWS AND IS SUBJECT TO CIVIL AS WELL AS CRIMINAL
#SANCTIONS.
#--------------------------------------------------#
#THIS FILE IS PROVIDED "AS-IS" AND ALL WARRANTIES ARE EXPRESSLY DISCLAIMED, WHETHER
#EXPRESS, ORAL, IMPLIED, STATUTORY OR OTHERWISE, INCLUDING ANY IMPLIED WARRANTY OF FITNESS
#FOR A PARTICULAR PURPOSE, MERCHANTABILITY, TITLE OR NON-INFRINGEMENT, AND ANY WARRANTIES
#ARISING BY VIRTUE OF CUSTOM OF TRADE OR COURSE OF DEALING.  FURTHER, DRILLING INFO,
#INC. AND ITS LICENSORS DO NOT REPRESENT OR WARRANT THAT THIS FILE WILL MEET USER'S
#REQUIREMENTS OR ARE SUITABLE FOR USER'S NEEDS OR THAT THE DATA OR RESULTS PROVIDED IN
#CONJUNCTION THEREWITH ARE CORRECT, ACCURATE, TIMELY OR RELIABLE. THESE DISCLAIMERS SHALL
#APPLY REGARDLESS OF ANY FAILURE OF ESSENTIAL PURPOSE OF ANY LIMITED REMEDY.  SOME
#JURISDICTIONS DO NOT ALLOW THE EXCLUSION OF CERTAIN WARRANTIES SO SOME OF THE ABOVE
#EXCLUSIONS MAY NOT APPLY. IN NO EVENT SHALL DRILLING INFO, INC. OR ANY OF ITS AFFILIATES
#BE LIABLE UNDER ANY LEGAL THEORY, WHETHER IN TORT (INCLUDING WITHOUT LIMITATION
#NEGLIGENCE), CONTRACT, STRICT LIABILITY, STATUTORY OR OTHERWISE, FOR ANY SPECIAL,
#INCIDENTAL, CONSEQUENTIAL, EXEMPLARY, PUNITIVE OR INDIRECT DAMAGE OF ANY KIND, INCLUDING
#WITHOUT LIMITATION LOSS OF REVENUE, PROFITS, GOODWILL, USE, AND/OR DATA OR THE COST OF
#PROCUREMENT OF SUBSTITUTE GOODS OR SERVICES, EVEN IF APPRISED OF THE POSSIBILITY OF SUCH
#DAMAGES IN ADVANCE.
#--------------------------------------------------#
~WELL INFORMATION
#MNEMONIC     .UNIT              VALUE :DESCRIPTION
#--------------------------------------------------#
STRT       .ft                97.00000 :START DEPTH
STOP       .ft                8647.00000 :STOP DEPTH
STEP       .ft                0.50000 :STEP
NULL       .                -999.25000 :NULL VALUE
COMP       .                 :COMPANY
WELL       .                 :WELL
FLD       .                 :FIELD
LOC       .                 :LOCATION
CNTY       .                 :COUNTY
STAT       .                 :STATE
CTRY       .                 :COUNTRY
SRVC       .                 :SERVICE COMPANY
DATE       .                 :DATE
API       .                42109002030000 :API NUMBER
~CURVE INFORMATION
#MNEMONIC     .UNIT      API CODE :CURVE DESCRIPTION
#--------------------------------------------------#
DEPTH       .ft                      :Measured Depth
DT       .us/ft        UNKNOWN   :DT
GR       .gAPI        UNKNOWN   :GR
ILD       .ohmm        UNKNOWN   :ILD
ILS       .ohmm        UNKNOWN   :ILS
SP       .mV        UNKNOWN   :SP
~A    DEPTH    DT    GR    ILD    ILS    SP
# ...
415.00000    83.56666    19.01401    -999.25000    -999.25000    -64.03131
415.50000    79.84055    19.54708    -999.25000    -999.25000    -64.35755
416.00000    76.11444    20.08016    -999.25000    -999.25000    -64.68378
416.50000    72.61996    20.61323    -999.25000    -999.25000    -65.01001
417.00000    73.46173    21.14631    -999.25000    -999.25000    -64.55848
417.50000    74.30351    21.67938    -999.25000    -999.25000    -63.87680
418.00000    75.14529    22.21246    -999.25000    -999.25000    -63.19512
418.50000    75.16449    23.23974    -999.25000    -999.25000    -62.51344
419.00000    74.56243    24.48833    -999.25000    -999.25000    -61.83176
419.50000    75.39646    25.73692    -999.25000    -999.25000    -61.15008
420.00000    77.26195    26.98551    -999.25000    -999.25000    -60.46840
420.50000    79.12744    28.23410    -999.25000    -999.25000    -59.87749
421.00000    80.99292    29.05297    -999.25000    -999.25000    -59.94268
421.50000    82.85841    29.66160    -999.25000    -999.25000    -60.00787
422.00000    84.72390    30.27023    -999.25000    -999.25000    -60.07307
422.50000    75.39969    30.87886    -999.25000    -999.25000    -60.13826
423.00000    75.32197    31.48748    -999.25000    -999.25000    -60.20345
423.50000    75.24425    33.01832    -999.25000    -999.25000    -60.30241
424.00000    73.80177    35.45370    -999.25000    -999.25000    -60.40653
424.50000    71.39163    37.88907    -999.25000    -999.25000    -60.51065
425.00000    68.96785    40.32445    -999.25000    -999.25000    -62.10932
425.50000    66.12987    42.75982    -999.25000    -999.25000    -64.57626
426.00000    63.29189    45.19520    -999.25000    -999.25000    -67.04321
426.50000    61.03163    48.31470    -999.25000    -999.25000    -69.51015
427.00000    63.01810    53.15203    -999.25000    -999.25000    -71.97709
427.50000    65.00457    57.98936    -999.25000    -999.25000    -77.35510
428.00000    66.99104    62.12405    -999.25000    -999.25000    -80.50812
428.50000    68.97751    63.82496    -999.25000    -999.25000    -79.75575
429.00000    70.96399    65.52588    -999.25000    -999.25000    -79.00338
429.50000    72.95046    67.22679    -999.25000    -999.25000    -78.25101
430.00000    74.29665    68.92771    -999.25000    -999.25000    -77.49864
430.50000    73.02341    69.56641    -999.25000    -999.25000    -76.74628
431.00000    71.75017    69.88348    -999.25000    -999.25000    -76.61964
431.50000    70.47693    65.45657    -999.25000    -999.25000    -76.62247
432.00000    69.20369    58.65086    -999.25000    -999.25000    -76.62530
432.50000    67.93045    51.84515    -999.25000    -999.25000    -76.71993
433.00000    66.65721    48.26442    -999.25000    -999.25000    -76.87692
433.50000    66.28257    46.62045    -999.25000    -999.25000    -77.03390
434.00000    66.44200    45.64484    -999.25000    -999.25000    -77.19088
434.50000    66.29707    46.02034    -999.25000    -999.25000    -77.34787
435.00000    65.88788    46.39584    -999.25000    -999.25000    -77.50485
435.50000    64.97270    46.77134    -999.25000    -999.25000    -77.66183
436.00000    64.50966    47.14684    -999.25000    -999.25000    -77.81882
436.50000    64.24658    47.52233    -999.25000    -999.25000    -77.94604
437.00000    63.98351    46.50960    -999.25000    134.31295    -77.81424
437.50000    61.70645    44.47230    -999.25000    144.34504    -77.68243
438.00000    62.40836    43.11144    -999.25000    154.37713    -76.58306
438.50000    63.42365    43.89201    -999.25000    164.40922    -75.02676
439.00000    64.43893    44.67259    -999.25000    174.44131    -73.47046
439.50000    65.45422    45.45316    -999.25000    184.47339    -71.91416
440.00000    65.77006    45.36551    -999.25000    194.50548    -70.64939
440.50000    65.02535    44.79005    -999.25000    204.53757    -70.16947
441.00000    64.28065    44.21459    -999.25000    214.56966    -69.68954
441.50000    64.09852    43.63913    -999.25000    224.60175    -69.20961
442.00000    64.05471    43.06367    -999.25000    234.63384    -68.72968
442.50000    63.77352    42.48820    -999.25000    244.66593    -68.24975
443.00000    63.34153    41.91274    -999.25000    254.04060    -67.76983
443.50000    62.90954    45.87414    -999.25000    263.26558    -67.28990
444.00000    63.27164    51.06950    -999.25000    272.49055    -66.80997
444.50000    66.86737    51.65433    -999.25000    281.71552    -66.33004
445.00000    70.19742    52.23916    224.97260    290.66516    -65.85012
445.50000    70.45044    52.47759    222.73421    295.62271    -65.37019
446.00000    70.70345    51.58991    224.15616    300.58027    -64.89026
446.50000    70.95647    50.70223    227.18021    305.53782    -64.41033
447.00000    71.20948    49.81455    230.20426    310.49538    -63.93041
447.50000    71.46250    48.45984    233.22831    315.45294    -63.67145
448.00000    71.02023    47.06299    236.25236    320.41049    -63.80934
448.50000    70.24629    45.66615    247.76308    325.36805    -63.94723
449.00000    69.47234    44.26930    260.43948    330.32561    -64.88513
449.50000    68.69840    42.87246    273.11589    335.28316    -65.88145
450.00000    68.08732    41.47561    285.79230    340.24072    -66.87778
450.50000    68.33679    41.08763    298.46870    343.62071    -67.87411
451.00000    68.58625    41.13603    311.14511    342.80472    -68.87043
451.50000    68.83572    41.18443    310.42118    341.98872    -69.86676
452.00000    69.08519    41.23284    309.51429    341.17272    -70.86309
452.50000    69.33466    40.47315    308.60740    339.52944    -71.85941
453.00000    69.58413    39.69967    309.04774    335.03540    -72.85574
453.50000    69.74485    39.01686    312.07065    330.54137    -73.85207
454.00000    69.58917    38.62991    315.09356    326.04733    -74.84839
454.50000    69.43348    38.24296    316.93663    316.86708    -75.84472
455.00000    69.27780    37.85601    310.97365    307.48484    -76.35580
455.50000    69.12211    38.14836    305.01067    298.10260    -77.07568
456.00000    68.96643    39.26716    292.96483    288.72036    -77.79557
456.50000    68.81075    40.38596    277.95810    279.33812    -78.51545
457.00000    68.67353    41.50477    262.95136    269.95588    -79.23534
457.50000    68.83314    42.62357    248.40886    260.57364    -79.78915
458.00000    68.99275    42.93424    234.02531    251.19140    -80.27677
458.50000    69.15235    43.13322    219.64176    241.80916    -80.76438
459.00000    69.31196    43.33219    205.25821    232.42692    -81.25199
459.50000    69.16643    43.53117    190.87466    223.04468    -81.73960
460.00000    68.72710    43.66024    178.85637    213.66244    -82.06272
460.50000    68.28777    43.75302    171.97994    207.26398    -82.35082
461.00000    67.84845    43.84580    165.10352    200.90786    -82.63892
461.50000    67.40912    43.93858    158.22709    194.55173    -82.92701
462.00000    67.05292    44.03135    151.35067    188.19561    -83.21511
462.50000    68.17664    44.12413    144.47424    181.83949    -83.50321
463.00000    69.30037    44.21691    138.04897    175.48337    -83.79131
463.50000    70.02548    44.23519    134.05087    171.09500    -84.07940
464.00000    69.72482    44.01656    130.05277    167.09436    -84.33061
464.50000    69.42415    43.79792    126.05467    163.09371    -84.54754
465.00000    69.12349    43.57928    122.05657    159.09306    -84.76446
465.50000    68.82283    43.36064    119.16519    155.09241    -84.98139
466.00000    68.52216    43.14201    119.38529    151.53146    -85.19831
466.50000    68.22150    43.22846    119.60538    151.01565    -85.41524
467.00000    67.92083    43.92073    119.82548    150.49985    -85.63217
467.50000    68.08179    44.61300    120.04558    149.98404    -85.84909
468.00000    68.55248    45.30528    120.26568    149.46823    -86.06602
468.50000    69.02317    45.99755    120.48578    148.95243    -86.28294
469.00000    69.49386    46.68982    120.70588    148.43662    -86.49987
