###############################################
##         ENVERUS                           ##
##         ESS - Open Hole                   ##
##         PERMIAN / DELAWARE                ##
##         Nov 03 2023  V4.0                 ##
##         42-109-32599-00-00                ##
###############################################
## Copyright 2017-2023  ENVERUS.  All Rights Reserved. 
## Confidential - Property of ENVERUS, use governed by terms and 
## conditions found within the existing Information Services Subscription Agreement 
## (as may be amended, the “ISSA”) between Customer and ENVERUS. 
## 
~VERSION INFORMATION
# MNEM.UNIT                               DATA : DESCRIPTION OF MNEMONIC
#-----.-----     ----------------------------- : -----------------------------
VERS.                                     2.00 : CWLS LOG ASCII STANDARD - VERSION 2.00
WRAP.                                       NO : MULTIPLE LINES PER DEPTH STEP
VEND.                                  ENVERUS : VENDOR
TYPE.                          ESS - OPEN HOLE : ENVERUS ESSENTIAL CURVES – ACCESSIBLE THROUGH ENVERUS PRISM(TM)
DOC.                                  21933172 : ENVERUS HEADER RAW DOCUMENT ID
#___________________________________________________________________________________________________ 
~WELL INFORMATION 
# uOzh0bdZpl++Qd8K/evm6vwbqlxLNv7zXaBwNvlB7bYnaXF7FEkKOyKwz7AUW0q8cTh4whY6gpezG6wl1Vx46w== 
# MNEM.UNIT                                              DATA : DESCRIPTION OF MNEMONIC 
#-----.-----                    ----------------------------- : ----------------------------- 
CNTY.                                               CULBERSON : COUNTY 
STATE.                                                  TEXAS : STATE 
CNTRY.                                                    USA : COUNTRY 
API.                                             42-109-32599 : API (10 Digit) 
API_14.                                    42-109-32599-00-00 : API (14 Digits) 
API_14_std.                                 42-109-32599-0000 : API (14 Digits Standard) 
UWI.                                           42109325990000 : UNIQUE WELL ID 
WELL.                                           COMANCHE 46 6 : WELL NAME
STRT.FT                                                 190.0 : START DEPTH
STOP.FT                                                5230.0 : STOP DEPTH
STEP.FT                                                   0.5 : STEP BETWEEN DEPTHS
NULL.                                                 -999.25 : NULL VALUE
SRVC.                                             HALLIBURTON :  
DATE.                                  12/31/2013 12-00-00 AM : 
#___________________________________________________________________________________________________ 
~PARAMETER INFORMATION 
# MNEM.UNIT                                              DATA : DESCRIPTION OF MNEMONIC 
#-----.-----                    ----------------------------- : -----------------------------
#___________________________________________________________________________________________________ 
~CURVE INFORMATION 
# MNEM.UNIT           : CURVE DESCRIPTION 
#-----.-----          : ----------------------------- 
 DEPT.FT               : MEASURED DEPTH 
 CALI.IN               : CALIPER (CALD) 
 GR.API                : GAMMA RAY (GRD) 
 PE.B/E                : PHOTOELECTRIC EFFECT/FACTOR 
 RESS_LL.OHMM          : SHALLOW LATEROLOG (LLS) 
 RESD_LL.OHMM          : DEEP LATEROLOG (LLD) 
 DPHI_LS.V/V           : DENSITY POROSITY - LIMESTONE 
 NPHI_LS.V/V           : NEUTRON POROSITY - LIMESTONE 
 RHOB.G/CC             : BULK DENSITY 
 #___________________________________________________________________________________________________ 
~A         DEPT           CALI             GR             PE        RESS_LL        RESD_LL        DPHI_LS        NPHI_LS           RHOB
# ...
         3641.5          8.525         78.246         2.3336         6.7356         9.8747        0.18020        0.17350         2.4200
         3642.0          8.516         74.047         2.3081         5.5651         8.3621        0.18250        0.15910         2.4134
         3642.5          8.487         67.755         2.2537         4.9990         7.9424        0.18770        0.16820         2.4068
         3643.0          8.402         59.063         2.2150         4.9112         7.2262        0.20180        0.15730         2.4002
         3643.5          8.341         55.919         2.2129         4.2472         6.5197        0.20210        0.14410         2.3935
         3644.0          8.275         54.401         2.2841         4.7031         6.4895        0.18990        0.13090         2.3929
         3644.5          8.212         52.070         2.4606         4.2687         6.5163        0.18910        0.13160         2.3945
         3645.0          8.218         49.189         2.5707         5.0930         7.3522        0.19480        0.14140         2.3963
         3645.5          8.410         56.367         2.6371         6.2319         8.7914        0.19270        0.15570         2.3974
         3646.0          8.473         66.027         2.6143         7.3709        10.3680        0.18650        0.16790         2.4309
         3646.5          8.512         70.642         2.5718         8.1807        11.8223        0.16740        0.16280         2.4577
         3647.0          8.519         65.625         2.5136         8.2901        11.8223        0.15620        0.15560         2.4516
         3647.5          8.533         63.219         2.5020         8.2476        11.8223        0.16090        0.15690         2.4440
         3648.0          8.550         66.471         2.4273         8.2051        12.0436        0.16670        0.16840         2.4365
         3648.5          8.552         73.064         2.4005         8.6100        12.6289        0.17260        0.16750         2.4334
         3649.0          8.548         76.757         2.3828         9.2849        13.2142        0.16660        0.16300         2.4334
         3649.5          8.534         78.187         2.3828         9.9598        15.0213        0.15760        0.15860         2.4518
         3650.0          8.543         77.389         2.3840        10.6347        16.4071        0.15610        0.15550         2.4548
         3650.5          8.553         78.697         2.4068        10.7345        16.3854        0.15950        0.15820         2.4567
         3651.0          8.543         81.034         2.4918        10.5075        16.5368        0.15810        0.15520         2.4594
         3651.5          8.543         80.749         2.5616        11.0508        17.2096        0.15560        0.15230         2.4620
         3652.0          8.543         76.619         2.6629        10.9824        16.6518        0.15320        0.15020         2.4709
         3652.5          8.543         74.804         2.7439        10.4707        16.0830        0.14600        0.14820         2.4867
         3653.0          8.543         75.540         2.6455        10.6104        15.2708        0.14000        0.14590         2.4871
         3653.5          8.543         74.331         2.5729         9.6718        13.4220        0.13970        0.14380         2.4871
         3654.0          8.543         70.221         2.5661         9.0366        13.0505        0.14060        0.14390         2.4827
         3654.5          8.533         64.487         2.5425         9.0071        12.7544        0.14290        0.14640         2.4744
         3655.0          8.543         65.428         2.5690         8.5972        12.2465        0.15320        0.15090         2.4629
         3655.5          8.547         69.438         2.6173         8.3716        12.4358        0.16610        0.15740         2.4515
         3656.0          8.560         71.354         2.6372         9.0909        13.3181        0.17210        0.16140         2.4400
         3656.5          8.548         73.123         2.6127        10.7919        14.7211        0.16830        0.16200         2.4400
         3657.0          8.543         72.104         2.5363        12.4929        17.6264        0.15840        0.15220         2.4509
         3657.5          8.543         74.925         2.4756        14.1938        21.3319        0.14530        0.15190         2.4832
         3658.0          8.549         80.765         2.4940        15.8948        25.5524        0.13230        0.14750         2.5052
         3658.5          8.543         82.887         2.6337        17.2321        27.9245        0.12320        0.14740         2.5119
         3659.0          8.543         84.234         2.7684        17.9944        29.4701        0.11820        0.13770         2.5173
         3659.5          8.543         87.802         2.7728        17.9056        29.9562        0.11740        0.13460         2.5173
         3660.0          8.543         88.885         2.6995        16.6521        26.5435        0.12070        0.15470         2.5158
         3660.5          8.543         87.603         2.5711        15.1130        24.1884        0.12400        0.13760         2.5085
         3661.0          8.544         88.723         2.4696        13.5738        21.1445        0.12560        0.13460         2.5014
         3661.5          8.580         89.903         2.4984        12.0346        18.8524        0.13140        0.14130         2.4943
         3662.0          8.570         87.502         2.5287        10.4955        17.9831        0.13630        0.14240         2.4879
         3662.5          8.550         78.045         2.5389         9.8598        17.0272        0.13910        0.14530         2.4856
         3663.0          8.561         75.508         2.5301         9.4317        16.5368        0.14240        0.15090         2.4796
         3663.5          8.587         73.972         2.4789         8.9206        15.6604        0.14830        0.16680         2.4739
         3664.0          8.564         72.430         2.4546         8.4095        14.7762        0.15360        0.17260         2.4673
         3664.5          8.549         74.379         2.3703         7.9589        13.3740        0.16560        0.16390         2.4638
         3665.0          8.564         78.383         2.3057         7.6655        13.1143        0.17760        0.17150         2.4128
         3665.5          8.566         75.417         2.2925         7.7516        13.6794        0.18740        0.17620         2.3992
         3666.0          8.568         68.772         2.3061         9.0035        15.1873        0.19250        0.16710         2.3981
         3666.5          8.570         70.391         2.3407        10.9941        19.0545        0.19190        0.16920         2.3987
         3667.0          8.572         80.161         2.3983        12.6531        18.0820        0.18860        0.18240         2.4072
         3667.5          8.556         79.583         2.4458        10.9866        13.5608        0.17710        0.17150         2.4342
         3668.0          8.515         75.939         2.3852         6.0381         8.8725        0.17000        0.16090         2.4344
         3668.5          8.394         73.594         2.2704         2.0037         4.1843        0.20080        0.16220         2.3772
         3669.0          8.025         64.249         2.2069         1.6262         2.6723        0.22960        0.18860         2.3143
         3669.5          7.823         52.774         2.2172         1.3714         2.0043        0.25020        0.19930         2.2892
         3670.0          7.791         48.112         2.2577         1.5700         2.3378        0.26250        0.21110         2.2914
         3670.5          7.805         50.653         2.2583         2.6768         3.2638        0.25000        0.20870         2.2948
