###############################################
##         ENVERUS                           ##
##         ESS - Open Hole                   ##
##         PERMIAN / DELAWARE                ##
##         Nov 03 2023  V4.0                 ##
##         42-109-32599-00-00                ##
###############################################
## Copyright 2017-2023  ENVERUS.  All Rights Reserved. 
## Confidential - Property of ENVERUS, use governed by terms and 
## conditions found within the existing Information Services Subscription Agreement 
## (as may be amended, the “ISSA”) between Customer and ENVERUS. 
## 
~VERSION INFORMATION
# MNEM.UNIT                               DATA : DESCRIPTION OF MNEMONIC
#-----.-----     ----------------------------- : -----------------------------
VERS.                                     2.00 : CWLS LOG ASCII STANDARD - VERSION 2.00
WRAP.                                       NO : MULTIPLE LINES PER DEPTH STEP
VEND.                                  ENVERUS : VENDOR
TYPE.                          ESS - OPEN HOLE : ENVERUS ESSENTIAL CURVES – ACCESSIBLE THROUGH ENVERUS PRISM(TM)
DOC.                                  21933172 : ENVERUS HEADER RAW DOCUMENT ID
#___________________________________________________________________________________________________ 
~WELL INFORMATION 
# uOzh0bdZpl++Qd8K/evm6vwbqlxLNv7zXaBwNvlB7bYnaXF7FEkKOyKwz7AUW0q8cTh4whY6gpezG6wl1Vx46w== 
# MNEM.UNIT                                              DATA : DESCRIPTION OF MNEMONIC 
#-----.-----                    ----------------------------- : ----------------------------- 
CNTY.                                               CULBERSON : COUNTY 
STATE.                                                  TEXAS : STATE 
CNTRY.                                                    USA : COUNTRY 
API.                                             42-109-32599 : API (10 Digit) 
API_14.                                    42-109-32599-00-00 : API (14 Digits) 
API_14_std.                                 42-109-32599-0000 : API (14 Digits Standard) 
UWI.                                           42109325990000 : UNIQUE WELL ID 
WELL.                                           COMANCHE 46 6 : WELL NAME
STRT.FT                                                 190.0 : START DEPTH
STOP.FT                                                5230.0 : STOP DEPTH
STEP.FT                                                   0.5 : STEP BETWEEN DEPTHS
NULL.                                                 -999.25 : NULL VALUE
SRVC.                                             HALLIBURTON :  
DATE.                                  12/31/2013 12-00-00 AM : 
#___________________________________________________________________________________________________ 
~PARAMETER INFORMATION 
# MNEM.UNIT                                              DATA : DESCRIPTION OF MNEMONIC 
#-----.-----                    ----------------------------- : -----------------------------
#___________________________________________________________________________________________________ 
~CURVE INFORMATION 
# MNEM.UNIT           : CURVE DESCRIPTION 
#-----.-----          : ----------------------------- 
 DEPT.FT               : MEASURED DEPTH 
 CALI.IN               : CALIPER (CALD) 
 GR.API                : GAMMA RAY (GRD) 
 PE.B/E                : PHOTOELECTRIC EFFECT/FACTOR 
 RESS_LL.OHMM          : SHALLOW LATEROLOG (LLS) 
 RESD_LL.OHMM          : DEEP LATEROLOG (LLD) 
 DPHI_LS.V/V           : DENSITY POROSITY - LIMESTONE 
 NPHI_LS.V/V           : NEUTRON POROSITY - LIMESTONE 
 RHOB.G/CC             : BULK DENSITY 
 #___________________________________________________________________________________________________ 
~A         DEPT           CALI             GR             PE        RESS_LL        RESD_LL        DPHI_LS        NPHI_LS           RHOB
# ...
         3435.0          8.137         51.954         3.7974        91.7674       103.7222        0.02950        0.04980         2.6596
         3435.5          8.101         66.156         3.5494        74.4368        82.0138        0.05220        0.06340         2.6412
         3436.0          8.109         80.372         2.9827        63.2138        68.9687        0.06000        0.07420         2.6228
         3436.5          8.088         86.519         2.7848        56.0626        65.6297        0.06650        0.07760         2.6074
         3437.0          8.078         90.872         2.7866        53.5719        61.7569        0.06760        0.08270         2.6041
         3437.5          8.091         92.067         2.8432        51.0812        58.5188        0.06580        0.09300         2.6008
         3438.0          8.092         85.812         2.9497        52.6748        65.7114        0.07620        0.09840         2.5800
         3438.5          8.092         79.426         2.8246        64.5615        73.5676        0.08700        0.08810         2.5633
         3439.0          8.090         75.434         2.6177        76.4482        87.9548        0.08080        0.07360         2.5652
         3439.5          8.072         73.504         2.6081        88.3349       102.5992        0.06760        0.06040         2.5920
         3440.0          8.054         70.753         2.8494        91.6147       109.5081        0.05430        0.05060         2.6251
         3440.5          8.076         62.470         2.9477        92.7428       113.6535        0.03600        0.05170         2.6422
         3441.0          8.083         65.465         3.1089        86.9966       105.2570        0.03930        0.05420         2.6488
         3441.5          8.062         69.948         3.4349        73.5000        93.8282        0.03590        0.05460         2.6584
         3442.0          8.007         64.798         3.5525        74.8891        93.6390        0.02630        0.05460         2.6687
         3442.5          8.075         66.459         3.3969        71.8415        95.5850        0.02280        0.05620         2.6598
         3443.0          8.092         74.399         3.0360        73.2768        96.7745        0.05020        0.06030         2.6380
         3443.5          8.111         78.217         2.8857        87.9567       109.5847        0.06770        0.06380         2.6162
         3444.0          8.106         73.924         3.0283       102.6367       128.9282        0.05270        0.06060         2.6257
         3444.5          8.101         65.346         3.4947       111.2279       148.2716        0.03420        0.05580         2.6605
         3445.0          8.085         58.768         3.7909       113.1682       166.7561        0.01870        0.05060         2.6876
         3445.5          8.085         53.300         4.0176       110.2029       162.2369        0.01170        0.04690         2.6964
         3446.0          8.090         55.244         3.9440        87.6151       138.4135        0.01010        0.04460         2.6889
         3446.5          8.094         63.756         3.8320        65.0273       102.6174        0.02040        0.05710         2.6739
         3447.0          8.113         76.252         3.5703        52.6826        92.0645        0.03140        0.07260         2.6578
         3447.5          8.167         92.175         3.3326        48.2698        81.5116        0.04220        0.08340         2.6374
         3448.0          8.167         89.689         3.2213        48.2698        79.4010        0.05020        0.08520         2.6208
         3448.5          8.181         77.180         3.1057        48.2698        81.8942        0.05510        0.08120         2.6101
         3449.0          8.212         72.326         2.9498        46.9355        80.1898        0.06530        0.07870         2.5994
         3449.5          8.237         71.777         2.9514        45.2676        77.9416        0.07100        0.07850         2.6038
         3450.0          8.257         77.104         3.0015        45.5782        78.9115        0.06920        0.08470         2.6120
         3450.5          8.278         83.488         3.0452        48.8564        89.4608        0.06730        0.09460         2.6202
         3451.0          8.338         84.339         3.0307        54.5790       101.6357        0.05930        0.08670         2.6284
         3451.5          8.368         81.954         3.1557        60.3015       117.1618        0.04750        0.07910         2.6404
         3452.0          8.390         77.285         3.2210        63.8072       132.6879        0.04560        0.07550         2.6511
         3452.5          8.431         75.157         3.1780        57.5876       134.9205        0.03930        0.06830         2.6567
         3453.0          8.497         74.721         3.0744        50.0623       118.4403        0.03190        0.06780         2.6442
         3453.5          8.509         72.120         2.9508        42.5370       101.9601        0.04160        0.07100         2.6246
         3454.0          8.551         71.260         2.8651        37.8285        89.6686        0.05360        0.08400         2.6166
         3454.5          8.598         75.303         2.7957        34.9979        80.1696        0.05980        0.08550         2.6114
         3455.0          8.646         75.536         2.7161        32.1672        74.0061        0.06230        0.08820         2.6063
         3455.5          8.736         74.133         2.7114        29.3673        67.8101        0.06430        0.09010         2.5776
         3456.0          8.771         71.598         2.6757        26.6905        58.9692        0.07710        0.09680         2.5430
         3456.5          8.843         67.506         2.5570        21.6485        44.3462        0.09720        0.11240         2.5084
         3457.0          8.904         66.447         2.5222        13.4862        23.6952        0.12440        0.12770         2.4738
         3457.5          8.984         68.474         2.5505         4.9928        11.8592        0.15520        0.14670         2.4238
         3458.0          8.773         70.002         2.5860         4.4360        10.9926        0.18450        0.16580         2.3753
         3458.5          8.563         68.275         2.6134         4.3360        10.5588        0.21890        0.18920         2.3573
         3459.0          8.716         65.740         2.6044         4.6431        10.9613        0.21190        0.18300         2.3716
         3459.5          8.935         71.758         2.5596         4.4612        10.7364        0.19590        0.16930         2.4073
         3460.0          8.923         73.722         2.5147         3.6996         9.5693        0.18730        0.18150         2.4039
         3460.5          8.699         65.791         2.4513         2.9379         7.8124        0.20190        0.20290         2.3550
         3461.0          8.665         61.111         2.3334         2.6666         7.2289        0.22420        0.19950         2.3190
         3461.5          8.704         52.703         2.3097         2.7667         6.7944        0.24380        0.20020         2.3190
         3462.0          8.743         49.438         2.3880         2.6625         6.7172        0.24290        0.21760         2.3194
         3462.5          8.795         51.068         2.4513         2.5583         6.6584        0.23860        0.23000         2.3254
         3463.0          8.843         53.892         2.4108         2.5374         6.5995        0.23330        0.18510         2.3357
         3463.5          8.891         53.861         2.3298         2.5374         6.6126        0.23030        0.19160         2.3418
         3464.0          8.930         52.010         2.2385         2.4598         6.6541        0.23080        0.19510         2.3379
