~Version Information Block
 VERS.                2.00:     CWLS LOG ASCII STANDARD - VERSION 2.000000
 WRAP.                  NO:     One Line Per Depth Step
#
~Well Information Block
#MNEM.UNIT                     Data                         Information
#----------   ------------------------------------------   ----------------
 STRT.FT                                      250.0000:     START DEPTH
 STOP.FT                                    10290.0000:     STOP DEPTH
 STEP.FT                                        0.5000:     STEP
 NULL.                                       -999.2500:     NULL VALUE
 COMP.                                                :     COMPANY
 WELL.                                                :     WELL
 FLD .                                                :     FIELD
 LOC .                                                :     LOCATION
 CNTY.                                                :     COUNTY
 STAT.                                                :     STATE
 CTRY.                                                :     COUNTRY
 SRVC.                                                :     SERVICE COMPANY
 DATE.                                                :     DATE
 API .                                                4210931550:     API NUMBER
 UWI .                                                :     UWI NUMBER
 TVD .                                              NO:     TVD flag
 WSTA.                                             LOC:     Well status
#
~Curve Information Block
#MNEM.UNIT       API CODE      Curve Description
#----------    -------------   -------------------
 DEPT.FT                   :   Depth in Feet
 LLS .OHMM                 :   Latero-Log Shallow (Resistivity)
 LLD .OHMM                 :   Latero-Log Deep (Resistivity)
 SFLU.OHMM                 :   SFL Resistivity (Unaveraged)
 ILD .OHMM                 :   Deep Induction Standard Processed Resistivity
 ILM .OHMM                 :   Medium Induction Standard Processed Resistivity
#
~Parameter Information Block
#MNEM.UNIT            Value               Description
#----------    --------------------    -------------------
 RUN .                         ONE:    Run Number
 PDAT.                          GL:    Permanent Datum
 EPD .FT                          :    Elevation Of Perm. Datum
 LMF .               KELLY BUSHING:    Log Measured From
 EKB .FT                          :    Elevation Of Kelly Bushing
 DF .FT                           :    Elevation Of Derrick Floor
 GL .FT                           :    Elevation Of Ground Level
 TD  .FT                          :    Total Depth
 CSGD.FT                          :    Casing Bottom (Driller) 1
 CSGL.FT                          :    Casing Bottom (Logger) 1
 MUD .                            :    Drilling Fluid Type
 MUDV .CP                         :    Drilling Fluid Viscosity
 MUDD .LB/USG                     :    Drilling Fluid Density
 FL .ML/30MIN                     :    Drilling Fluid Loss
 PH.                              :    Drilling Fluid Ph
 MUDS .                           :    Mud Sample Source
 RM .OHMM                         :    Resistivity Of Mud Sample
 RMT .DEGF                        :    Mud Sample Temperature
 RMF .OHMM                        :    Mud Filtrate Resistivity
 RMFT.DEGF                        :    Mud Filtrate Sample Temperature
 RMC .OHMM                        :    Mud Cake Resistivity
 RMCT.DEGF                        :    Mud Cake Sample Temperature
 RMB .OHMM                        :    Mud Resistivity At Bht
 TMAX .DEGF                       :    Bottom Hole Temperature
#
~Other Information Block
<DescLogPlotStart>   NEURALOG PLOT DEFINITION
PLOTDEFVERSION: 3
LASFILE: E:\nds\projects\Texas Standard Oil LLC\pdf\Pradeep+Ekta\42109315500000
DEPTHSCALE: 240.000000
RESOLUTION: 200
DEPTHLABELFREQ: 100.000000
HEAVYGRIDFREQ: 100.000000
MEDIUMGRIDFREQ: 50.000000
LIGHTGRIDFREQ: 10.000000
#
#   TRACK 1
#
STARTTRACK: 
 LEFTX: 1.000000 inch
 RIGHTX: 6.000000 inch
 SCALETYPE: Log
 NUMCYCLES: 4
 STARTCYCLE: 2
CURVE: SFLU  0.200000   2000.000000 (0,0,255)      Solid             2     N   
CURVE: ILD   0.200000   2000.000000 (0,131,131)    Dot               2     N   
CURVE: ILM   0.200000   2000.000000 (255,0,255)    Short_Dash        2     N   
ENDTRACK: 
#
#   TRACK 2
#
STARTTRACK: 
 LEFTX: 1.000000 inch
 RIGHTX: 6.000000 inch
 SCALETYPE: Log
 NUMCYCLES: 4
 STARTCYCLE: 2
CURVE: LLS   0.200000   2000.000000 (255,0,0)      Solid             2     Y   
BACKUP: 2000.000000 20000000.000000 (255,0,0)      Solid             2    
CURVE: LLD   0.200000   2000.000000 (255,131,0)    Dot               2     Y   
BACKUP: 2000.000000 20000000.000000 (255,131,0)    Dot               2    
ENDTRACK: 
<DescLogPlotEnd>
~A DEPTH     LLS              LLD              SFLU             ILD              ILM             
# ...
    7343.000 -999.25000000    -999.25000000    67.70469125      47.39346315      51.11132871     
    7343.500 -999.25000000    -999.25000000    79.21790919      58.24342947      56.36724996     
    7344.000 -999.25000000    -999.25000000    116.51075155     65.65601976      79.74033196     
    7344.500 -999.25000000    -999.25000000    302.39082614     71.64316046      87.08670228     
    7345.000 -999.25000000    -999.25000000    398.96031193     74.94646601      87.69115150     
    7345.500 -999.25000000    -999.25000000    334.73491059     78.48945973      87.69115150     
    7346.000 -999.25000000    -999.25000000    215.61548394     71.56340210      74.25729467     
    7346.500 -999.25000000    -999.25000000    136.26348363     61.16265999      62.88143920     
    7347.000 -999.25000000    -999.25000000    93.31520309      58.94381218      49.00016000     
    7347.500 -999.25000000    -999.25000000    77.05337788      55.76555177      43.85842835     
    7348.000 -999.25000000    -999.25000000    68.83781131      52.27352064      40.35940360     
    7348.500 -999.25000000    -999.25000000    68.33304882      49.91390756      42.26734030     
    7349.000 -999.25000000    -999.25000000    74.94646601      47.66080681      45.93177676     
    7349.500 -999.25000000    -999.25000000    88.50500055      47.66080681      47.66080681     
    7350.000 -999.25000000    -999.25000000    105.34033369     51.79283870      51.79283870     
    7350.500 -999.25000000    -999.25000000    124.56990840     58.94381218      55.76555177     
    7351.000 -999.25000000    -999.25000000    144.60236093     63.46503285      61.73030189     
    7351.500 -999.25000000    -999.25000000    159.68100920     64.64851917      65.24851283     
    7352.000 -999.25000000    -999.25000000    164.68849059     62.88143920      65.24851283     
    7352.500 -999.25000000    -999.25000000    155.48983823     59.02021276      56.80545933     
    7353.000 -999.25000000    -999.25000000    131.66955317     55.25348364      49.45492349     
    7353.500 -999.25000000    -999.25000000    97.07070196      52.26402845      39.25623380     
    7354.000 -999.25000000    -999.25000000    61.16265999      51.86784670      38.18321767     
    7354.500 -999.25000000    -999.25000000    62.88143920      47.33529011      43.05553526     
    7355.000 -999.25000000    -999.25000000    68.96723807      44.62121494      42.26734030     
    7355.500 -999.25000000    -999.25000000    86.08583588      41.11201964      38.89525252     
    7356.000 -999.25000000    -999.25000000    90.99214803      38.89525252      36.45963719     
    7356.500 -999.25000000    -999.25000000    78.48945973      40.35940360      35.13696114     
    7357.000 -999.25000000    -999.25000000    65.85407495      41.49357441      35.13696114     
    7357.500 -999.25000000    -999.25000000    68.33304882      42.26734030      39.25623380     
    7358.000 -999.25000000    -999.25000000    75.44894972      42.65961745      40.73397345     
    7358.500 -999.25000000    -999.25000000    79.95311928      43.05553526      41.87867035     
    7359.000 -999.25000000    -999.25000000    80.69515275      44.26547216      41.87867035     
    7359.500 -999.25000000    -999.25000000    74.94646601      45.50941043      42.65961745     
    7360.000 -999.25000000    -999.25000000    80.14327366      46.35806302      43.06218143     
    7360.500 -999.25000000    -999.25000000    86.88478622      46.35806302      43.02577349     
    7361.000 -999.25000000    -999.25000000    94.41740541      45.09092797      43.50567016     
    7361.500 -999.25000000    -999.25000000    90.15542838      42.26734030      42.67185149     
    7362.000 -999.25000000    -999.25000000    80.69515275      36.94989744      41.11201964     
    7362.500 -999.25000000    -999.25000000    71.48081147      37.29934752      32.33373490     
    7363.000 -999.25000000    -999.25000000    61.73030189      36.40001075      28.67473440     
    7363.500 -999.25000000    -999.25000000    52.27352064      36.12437206      28.41105545     
    7364.000 -999.25000000    -999.25000000    45.93177676      35.79218986      33.24237020     
    7364.500 -999.25000000    -999.25000000    49.45492349      35.79218986      34.81385869     
    7365.000 -999.25000000    -999.25000000    63.46503285      36.12437206      34.49372734     
    7365.500 -999.25000000    -999.25000000    82.19994373      37.13953098      33.55088788     
    7366.000 -999.25000000    -999.25000000    97.97160127      37.83210333      34.81385869     
    7366.500 -999.25000000    -999.25000000    90.30685846      39.25623380      37.83210333     
    7367.000 -999.25000000    -999.25000000    78.48945973      39.98827810      39.62056530     
    7367.500 -999.25000000    -999.25000000    70.25332868      41.11201964      41.49357441     
    7368.000 -999.25000000    -999.25000000    71.56340210      41.87867035      42.27441683     
    7368.500 -999.25000000    -999.25000000    78.35615651      42.26734030      43.05953963     
    7369.000 -999.25000000    -999.25000000    83.73279582      43.05553526      43.06269930     
    7369.500 -999.25000000    -999.25000000    86.88478622      43.85842835      43.04033824     
    7370.000 -999.25000000    -999.25000000    95.29367986      45.09092797      43.05553526     
    7370.500 -999.25000000    -999.25000000    98.03368266      45.09092797      46.35806302     
    7371.000 -999.25000000    -999.25000000    104.51640403     45.09092797      42.26734030     
    7371.500 -999.25000000    -999.25000000    95.29367986      45.09092797      39.98827810     
    7372.000 -999.25000000    -999.25000000    77.76770874      45.09092797      39.62056530     
    7372.500 -999.25000000    -999.25000000    69.60731315      45.09092797      40.02387463     
    7373.000 -999.25000000    -999.25000000    74.94646601      44.67629368      39.94698036     
    7373.500 -999.25000000    -999.25000000    80.69515275      44.26547216      41.09913587     
    7374.000 -999.25000000    -999.25000000    83.73279582      43.03281190      41.51857030     
    7374.500 -999.25000000    -999.25000000    82.33547589      43.06483865      42.26734030     
    7375.000 -999.25000000    -999.25000000    80.69515275      42.19718972      43.85842835     
    7375.500 -999.25000000    -999.25000000    79.95311928      44.22117166      45.09092797     
    7376.000 -999.25000000    -999.25000000    82.19994373      47.66080681      46.35806302     
    7376.500 -999.25000000    -999.25000000    91.83663315      49.00016000      46.35806302     
    7377.000 -999.25000000    -999.25000000    105.73423628     49.45492349      47.68892228     
    7377.500 -999.25000000    -999.25000000    105.32487939     49.91390756      47.69018267     
    7378.000 -999.25000000    -999.25000000    100.11724335     50.37715140      47.69285110     
    7378.500 -999.25000000    -999.25000000    91.64634884      51.32634170      46.77758510     
    7379.000 -999.25000000    -999.25000000    89.32640281      51.32967572      47.66080681     
    7379.500 -999.25000000    -999.25000000    93.54918876      51.34621208      47.66080681     
    7380.000 -999.25000000    -999.25000000    93.21644283      48.07010048      46.35806302     
    7380.500 -999.25000000    -999.25000000    91.83663315      47.22254115      45.09092797     
    7381.000 -999.25000000    -999.25000000    86.08583588      47.22254115      43.85842835     
    7381.500 -999.25000000    -999.25000000    84.50990793      49.00016000      43.85842835     
    7382.000 -999.25000000    -999.25000000    87.59038788      50.37715140      44.26547216     
    7382.500 -999.25000000    -999.25000000    90.18751973      51.79283870      45.93177676     
    7383.000 -999.25000000    -999.25000000    92.53829826      53.24830933      49.45492349     
    7383.500 -999.25000000    -999.25000000    97.97160127      53.74249927      51.31657689     
