~Version Information Block
 VERS.                2.00:     CWLS LOG ASCII STANDARD - VERSION 2.000000
 WRAP.                  NO:     One Line Per Depth Step
#
~Well Information Block
#MNEM.UNIT                     Data                         Information
#----------   ------------------------------------------   ----------------
 STRT.FT                                        4.0000:     START DEPTH
 STOP.FT                                    10300.0000:     STOP DEPTH
 STEP.FT                                        0.5000:     STEP
 NULL.                                       -999.2500:     NULL VALUE
 COMP.                            MONSANTO OIL COMPANY:     COMPANY
 WELL.                               UNIVERSITY_6-46-1:     WELL
 FLD .                                         WILDCAT:     FIELD
 LOC .                                                :     LOCATION
 CNTY.                                       CULBERSON:     COUNTY
 STAT.                                           TEXAS:     STATE
 CTRY.                                             USA:     COUNTRY
 SRVC.                                                :     SERVICE COMPANY
 DATE.                                      10/31/2016:     DATE
 API .                                  42109315500000:     API NUMBER
 UWI .                                  42109315500000:     UWI NUMBER
 TVD .                                              NO:     TVD flag
 WSTA.                                             LOC:     Well status
#
~Curve Information Block
#MNEM.UNIT       API CODE      Curve Description
#----------    -------------   -------------------
 DEPT.FT                   :   Depth in Feet
 CALI.IN                   :   Caliper
 GR  .GAPI                 :   Gamma Ray
 DPHI.V/V                  :   Density Porosity
 NPHI.V/V                  :   Neutron Porosity
 DRHO.G/C3                 :   Delta Rho
 RHOB.G/C3                 :   Bulk Density
#
~Parameter Information Block
#MNEM.UNIT            Value               Description
#----------    --------------------    -------------------
 RUN .                         ONE:    Run Number
 PDAT.                          GL:    Permanent Datum
 EPD .FT                          :    Elevation Of Perm. Datum
 LMF .               KELLY BUSHING:    Log Measured From
 EKB .FT                          :    Elevation Of Kelly Bushing
 DF .FT                           :    Elevation Of Derrick Floor
 GL .FT                           :    Elevation Of Ground Level
 TD  .FT                          :    Total Depth
 CSGD.FT                          :    Casing Bottom (Driller) 1
 CSGL.FT                          :    Casing Bottom (Logger) 1
 MUD .                            :    Drilling Fluid Type
 MUDV .CP                         :    Drilling Fluid Viscosity
 MUDD .LB/USG                     :    Drilling Fluid Density
 FL .ML/30MIN                     :    Drilling Fluid Loss
 PH.                              :    Drilling Fluid Ph
 MUDS .                           :    Mud Sample Source
 RM .OHMM                         :    Resistivity Of Mud Sample
 RMT .DEGF                        :    Mud Sample Temperature
 RMF .OHMM                        :    Mud Filtrate Resistivity
 RMFT.DEGF                        :    Mud Filtrate Sample Temperature
 RMC .OHMM                        :    Mud Cake Resistivity
 RMCT.DEGF                        :    Mud Cake Sample Temperature
 RMB .OHMM                        :    Mud Resistivity At Bht
 TMAX .DEGF                       :    Bottom Hole Temperature   
#
~Other Information Block
<DescLogPlotStart>   NEURALOG PLOT DEFINITION
PLOTDEFVERSION: 3
LASFILE: E:\nds\projects\Texas Standard Oil LLC\pdf\Pradeep+Ekta\42109315500000
DEPTHSCALE: 240.000000
RESOLUTION: 200
DEPTHLABELFREQ: 100.000000
HEAVYGRIDFREQ: 100.000000
MEDIUMGRIDFREQ: 50.000000
LIGHTGRIDFREQ: 10.000000
#
#   TRACK 1
#
STARTTRACK: 
 LEFTX: 0.500000 inch
 RIGHTX: 3.000000 inch
 SCALETYPE: Linear
 NUMCHARTDIVISIONS: 10
CURVE: CALI  6.000000   16.000000  (0,0,255)      Solid             2     N    
CURVE: GR    0.000000   100.000000 (0,131,131)    Dot               2     Y    
BACKUP: 100.000000 200.000000 (0,131,131)    Dot               2    
ENDTRACK: 
#
#   TRACK 2
#
STARTTRACK: 
 LEFTX: 3.500000 inch
 RIGHTX: 8.500000 inch
 SCALETYPE: Linear
 NUMCHARTDIVISIONS: 10
CURVE: DPHI  0.300000   -0.100000  (255,0,255)    Solid             2     Y    
BACKUP: 0.700000   0.300000   (255,0,255)    Solid             2    
CURVE: NPHI  0.300000   -0.100000  (255,0,0)      Dot               2     Y    
BACKUP: 0.700000   0.300000   (255,0,0)      Dot               2    
CURVE: DRHO  -0.050000  0.950000   (255,131,0)    Short_Dash        2     N    
ENDTRACK: 
#
#   TRACK 3
#
STARTTRACK: 
 LEFTX: 8.500000 inch
 RIGHTX: 13.500000 inch
 SCALETYPE: Linear
 NUMCHARTDIVISIONS: 10
CURVE: RHOB  2.000000   3.000000   (255,255,0)    Solid             2     Y    
BACKUP: 1.000000   2.000000   (255,255,0)    Solid             2    
ENDTRACK: 
<DescLogPlotEnd>
~A DEPTH     CALI             GR               DPHI             NPHI             DRHO             RHOB            
# ...
   10259.000 11.54277890      111.54405520     0.13407289       0.40582649       0.12331179       1.73378559      
   10259.500 12.39503242      110.91158598     0.15791214       0.38898171       0.10590590       1.74123059      
   10260.000 13.42911564      109.87978168     0.16520762       0.39928484       0.10733502       1.73598520      
   10260.500 14.40248337      108.45367487     0.17358034       0.41764751       0.10850233       1.73892258      
   10261.000 14.58170880      106.72973056     0.17703109       0.40569171       0.10964955       1.74307005      
   10261.500 14.93486573      107.33644348     0.16414673       0.39222418       0.11325097       1.75454038      
   10262.000 15.14799372      109.53754222     0.13605704       0.38264616       0.12800744       1.93883884      
   10262.500 15.33285003      111.27126249     0.09286391       0.37833501       0.14718583       1.99374374      
   10263.000 15.88518934      113.11912606     0.04958566       0.37482447       0.16670755       1.83333333      
   10263.500 16.50972880      114.12777029     0.01534604       0.37403212       0.18569091       1.96346346      
   10264.000 16.95701417      114.52810371     0.05198018       0.37681827       0.19899572       1.80630631      
   10264.500 17.08453006      114.44580220     0.11372447       0.38088448       0.12243448       1.79629630      
   10265.000 17.24074936      112.91522483     0.17554330       0.38405216       0.07640549       1.63813814      
   10265.500 17.10860628      110.91023901     0.22382744       0.38405216       0.06682519       1.63428428      
   10266.000 16.38890193      110.13640622     0.23314900       0.38338816       0.05458442       1.65515516      
   10266.500 15.96340694      109.57422977     0.22767361       0.38389870       0.04506769       1.66001498      
   10267.000 13.89698000      111.59249769     0.22220182       0.39247743       0.04962966       1.66211927      
   10267.500 12.07495478      112.50676404     0.21876380       0.39985289       0.04806787       1.56512511      
   10268.000 12.08055880      112.66048327     0.24665132       0.40665151       0.04417838       1.55301117      
   10268.500 12.21509937      113.76580352     0.26771747       0.40755912       0.04084979       1.53921138      
   10269.000 12.74219562      114.92755768     0.28878361       0.40511999       0.03578103       1.44977286      
   10269.500 14.51738854      115.73743195     0.29701082       0.39072555       0.02414732       1.45169009      
   10270.000 16.14929140      113.45089842     0.29636594       0.37630359       0.01174585       1.48241080      
   10270.500 16.92697875      111.03244198     0.29572106       0.36182062       0.01952761       1.56504334      
   10271.000 17.34571614      111.51015938     0.29507618       0.35035105       0.02866847       1.56030584      
   10271.500 17.35073881      112.04666965     0.28919920       0.35719584       0.03615819       1.55038674      
   10272.000 17.37664809      112.01312149     0.28174524       0.36753410       0.03674916       1.54211888      
   10272.500 17.88142422      112.16291777     0.29379530       0.37787237       0.01146992       1.53000477      
   10273.000 17.89484720      110.19510292     0.29464123       0.39247743       0.01055659       1.53817421      
   10273.500 17.89075086      109.16557268     0.28889178       0.39127382       0.00227504       1.55716758      
   10274.000 17.88800754      109.53168206     0.28108697       0.39061512       -0.00239697      1.56331745      
   10274.500 17.88583337      109.86905212     0.27332658       0.39377113       0.00109210       1.56600761      
   10275.000 17.88366094      109.25574177     0.26886402       0.39809428       0.00778166       1.56910802      
   10275.500 17.88148851      109.76855300     0.26691451       0.38606219       0.01167962       1.57589068      
   10276.000 17.87931608      112.87488001     0.26489468       0.37276919       0.01695408       1.57817504      
   10276.500 17.87714365      115.85798538     0.26489468       0.37189888       0.01866186       1.57467685      
   10277.000 17.87497122      116.30838284     0.26609829       0.38228806       0.01288870       1.56686110      
   10277.500 17.87279879      114.62946636     0.26890672       0.39185557       0.00694890       1.56200618      
   10278.000 17.87062636      113.33658831     0.27142227       0.39515547       0.00580895       1.55906949      
   10278.500 17.86845393      112.95818575     0.27244333       0.39770812       0.00689780       1.56187695      
   10279.000 17.86628150      113.28105558     0.27211635       0.39769308       0.00794348       1.56303680      
   10279.500 17.86410907      113.67495658     0.27041154       0.38924132       0.00882991       1.56306613      
   10280.000 17.86193664      113.82695694     0.26978320       0.37848613       0.00885673       1.56306330      
   10280.500 17.85976421      113.92512887     0.26915485       0.36773093       0.00851596       1.56306699      
   10281.000 17.85759178      113.92861707     0.26930792       0.36479438       0.00626092       1.56334377      
   10281.500 17.85541935      113.92799823     0.27109194       0.37326446       0.00590730       1.56812968      
   10282.000 17.85324692      113.92785571     0.27013681       0.37927739       0.01043838       1.57100013      
   10282.500 17.85107449      113.92785571     0.26829890       0.38605817       0.01635652       1.57453926      
   10283.000 17.84890206      113.92785571     0.26483049       0.38164493       0.01799725       1.58102798      
   10283.500 17.84672963      113.92785571     0.26128385       0.37343264       0.01791590       1.58104977      
   10284.000 17.84455720      113.92785571     0.26362487       0.37146160       0.01741533       1.57884674      
   10284.500 17.84238477      113.92785571     0.26719860       0.38190987       0.01125902       1.57057703      
   10285.000 17.84021238      113.92785571     0.27021732       0.39247743       0.00896734       1.56669754      
   10285.500 17.83810622      113.92785571     0.27065998       0.39849549       0.00882891       1.56565342      
   10286.000 17.83642648      113.92785571     0.26875928       0.40371113       0.00884966       1.56888559      
   10286.500 17.83025436      113.92785571     0.26799348       0.39832778       0.00885312       1.56676261      
   10287.000 17.81839772      113.92785571     0.26897091       0.38968461       0.00884593       1.56095949      
   10287.500 17.82839928      113.92785571     0.27141424       0.37480006       0.00879749       1.56244586      
   10288.000 17.82238070      113.92785571     0.27251755       0.37234604       0.00919893       1.56921278      
   10288.500 17.83388053      113.92785571     0.27061133       0.36902758       0.01307744       1.57007175      
   10289.000 17.81396393      113.92785571     0.26880241       0.36800401       0.01662252       1.57014363      
   10289.500 17.81365294      113.92785571     0.26792618       0.36800401       0.01791945       1.56757528      
   10290.000 17.81059509      113.92785571     0.26931127       0.36809293       0.01652916       1.56452606      
   10290.500 17.80637586      113.92785571     0.27152357       0.36826385       0.00873461       1.56254647      
   10291.000 17.80211480      113.92785571     0.27331996       0.36840659       0.00685229       1.56101656      
   10291.500 17.79785822      113.92785571     0.27212839       0.36840513       0.00682750       1.56089829      
   10292.000 17.79360387      113.92785571     0.27046428       0.36840532       0.00746392       1.56614604      
   10292.500 17.78934953      113.92785571     0.27023738       0.36840522       0.00782128       1.56880530      
   10293.000 17.78509519      113.92785571     0.27011033       0.36840522       0.00801588       1.56905897      
   10293.500 17.78084085      113.92785571     0.27051153       0.36840522       0.01056312       1.56906833      
