~Version Information Block
 VERS.                2.00:     CWLS LOG ASCII STANDARD - VERSION 2.000000
 WRAP.                  NO:     One Line Per Depth Step
#
~Well Information Block
#MNEM.UNIT                     Data                         Information
#----------   ------------------------------------------   ----------------
 STRT.FT                                        4.0000:     START DEPTH
 STOP.FT                                    10300.0000:     STOP DEPTH
 STEP.FT                                        0.5000:     STEP
 NULL.                                       -999.2500:     NULL VALUE
 COMP.                            MONSANTO OIL COMPANY:     COMPANY
 WELL.                               UNIVERSITY_6-46-1:     WELL
 FLD .                                         WILDCAT:     FIELD
 LOC .                                                :     LOCATION
 CNTY.                                       CULBERSON:     COUNTY
 STAT.                                           TEXAS:     STATE
 CTRY.                                             USA:     COUNTRY
 SRVC.                                                :     SERVICE COMPANY
 DATE.                                      10/31/2016:     DATE
 API .                                  42109315500000:     API NUMBER
 UWI .                                  42109315500000:     UWI NUMBER
 TVD .                                              NO:     TVD flag
 WSTA.                                             LOC:     Well status
#
~Curve Information Block
#MNEM.UNIT       API CODE      Curve Description
#----------    -------------   -------------------
 DEPT.FT                   :   Depth in Feet
 CALI.IN                   :   Caliper
 GR  .GAPI                 :   Gamma Ray
 DPHI.V/V                  :   Density Porosity
 NPHI.V/V                  :   Neutron Porosity
 DRHO.G/C3                 :   Delta Rho
 RHOB.G/C3                 :   Bulk Density
#
~Parameter Information Block
#MNEM.UNIT            Value               Description
#----------    --------------------    -------------------
 RUN .                         ONE:    Run Number
 PDAT.                          GL:    Permanent Datum
 EPD .FT                          :    Elevation Of Perm. Datum
 LMF .               KELLY BUSHING:    Log Measured From
 EKB .FT                          :    Elevation Of Kelly Bushing
 DF .FT                           :    Elevation Of Derrick Floor
 GL .FT                           :    Elevation Of Ground Level
 TD  .FT                          :    Total Depth
 CSGD.FT                          :    Casing Bottom (Driller) 1
 CSGL.FT                          :    Casing Bottom (Logger) 1
 MUD .                            :    Drilling Fluid Type
 MUDV .CP                         :    Drilling Fluid Viscosity
 MUDD .LB/USG                     :    Drilling Fluid Density
 FL .ML/30MIN                     :    Drilling Fluid Loss
 PH.                              :    Drilling Fluid Ph
 MUDS .                           :    Mud Sample Source
 RM .OHMM                         :    Resistivity Of Mud Sample
 RMT .DEGF                        :    Mud Sample Temperature
 RMF .OHMM                        :    Mud Filtrate Resistivity
 RMFT.DEGF                        :    Mud Filtrate Sample Temperature
 RMC .OHMM                        :    Mud Cake Resistivity
 RMCT.DEGF                        :    Mud Cake Sample Temperature
 RMB .OHMM                        :    Mud Resistivity At Bht
 TMAX .DEGF                       :    Bottom Hole Temperature   
#
~Other Information Block
<DescLogPlotStart>   NEURALOG PLOT DEFINITION
PLOTDEFVERSION: 3
LASFILE: E:\nds\projects\Texas Standard Oil LLC\pdf\Pradeep+Ekta\42109315500000
DEPTHSCALE: 240.000000
RESOLUTION: 200
DEPTHLABELFREQ: 100.000000
HEAVYGRIDFREQ: 100.000000
MEDIUMGRIDFREQ: 50.000000
LIGHTGRIDFREQ: 10.000000
#
#   TRACK 1
#
STARTTRACK: 
 LEFTX: 0.500000 inch
 RIGHTX: 3.000000 inch
 SCALETYPE: Linear
 NUMCHARTDIVISIONS: 10
CURVE: CALI  6.000000   16.000000  (0,0,255)      Solid             2     N    
CURVE: GR    0.000000   100.000000 (0,131,131)    Dot               2     Y    
BACKUP: 100.000000 200.000000 (0,131,131)    Dot               2    
ENDTRACK: 
#
#   TRACK 2
#
STARTTRACK: 
 LEFTX: 3.500000 inch
 RIGHTX: 8.500000 inch
 SCALETYPE: Linear
 NUMCHARTDIVISIONS: 10
CURVE: DPHI  0.300000   -0.100000  (255,0,255)    Solid             2     Y    
BACKUP: 0.700000   0.300000   (255,0,255)    Solid             2    
CURVE: NPHI  0.300000   -0.100000  (255,0,0)      Dot               2     Y    
BACKUP: 0.700000   0.300000   (255,0,0)      Dot               2    
CURVE: DRHO  -0.050000  0.950000   (255,131,0)    Short_Dash        2     N    
ENDTRACK: 
#
#   TRACK 3
#
STARTTRACK: 
 LEFTX: 8.500000 inch
 RIGHTX: 13.500000 inch
 SCALETYPE: Linear
 NUMCHARTDIVISIONS: 10
CURVE: RHOB  2.000000   3.000000   (255,255,0)    Solid             2     Y    
BACKUP: 1.000000   2.000000   (255,255,0)    Solid             2    
ENDTRACK: 
<DescLogPlotEnd>
~A DEPTH     CALI             GR               DPHI             NPHI             DRHO             RHOB            
       4.000 -999.25000000    75.54890220      0.29939759       -0.03192771      -999.25000000    -999.25000000   
       4.500 -999.25000000    75.00343064      0.29939759       -0.03152610      -999.25000000    -999.25000000   
       5.000 -999.25000000    74.95009980      0.29939759       -0.03146386      -999.25000000    -999.25000000   
       5.500 -999.25000000    80.55566385      0.29939759       -0.03112450      -999.25000000    -999.25000000   
       6.000 -999.25000000    91.44987647      0.29939759       -0.03060241      -999.25000000    -999.25000000   
       6.500 -999.25000000    93.96536839      0.29939759       -0.02998494      -999.25000000    -999.25000000   
       7.000 -999.25000000    94.38973940      0.29939759       -0.02950507      -999.25000000    -999.25000000   
       7.500 -999.25000000    91.82284034      0.29939759       -0.02918347      -999.25000000    -999.25000000   
       8.000 -999.25000000    88.04720865      0.29939759       -0.02709378      -999.25000000    -999.25000000   
       8.500 -999.25000000    80.50379065      0.29939759       -0.02303791      -999.25000000    -999.25000000   
       9.000 -999.25000000    70.80757068      0.29939759       -0.00823921      -999.25000000    -999.25000000   
       9.500 -999.25000000    61.09699202      0.29939759       0.01041353       -999.25000000    -999.25000000   
      10.000 -999.25000000    51.57863422      0.29939759       0.02906627       -999.25000000    2.00250250      
      10.500 -999.25000000    49.43470851      0.29939759       0.05780622       -999.25000000    2.00250250      
      11.000 -999.25000000    58.68339351      0.29939759       0.09300201       -999.25000000    2.00250250      
      11.500 -999.25000000    73.48664575      0.29939759       0.21458333       -999.25000000    2.00557343      
      12.000 -999.25000000    103.29334499     0.29939759       0.30833333       -999.25000000    2.00250250      
      12.500 -999.25000000    101.32210108     0.29939759       0.41947791       -999.25000000    2.00250250      
      13.000 -999.25000000    123.85177117     0.29939759       0.55040161       -999.25000000    2.00250250      
      13.500 -999.25000000    88.63176993      0.29939759       0.61024096       -999.25000000    2.00250250      
      14.000 -999.25000000    65.84716495      0.29939759       0.43674699       -999.25000000    2.00250250      
      14.500 -999.25000000    40.53968773      0.29939759       0.27851406       -999.25000000    2.00250250      
      15.000 -999.25000000    19.00315506      0.29939759       0.28917336       -999.25000000    2.00250250      
      15.500 -999.25000000    13.97210769      0.29939759       0.29658635       -999.25000000    2.00250250      
      16.000 -999.25000000    10.95951052      0.29939759       0.32349398       -999.25000000    2.00250250      
      16.500 -999.25000000    10.66048983      0.29939759       0.33530550       -999.25000000    2.00250250      
      17.000 -999.25000000    10.66388070      0.29939759       0.41595693       -999.25000000    2.00250250      
      17.500 -999.25000000    10.58693721      0.29939759       0.50300637       -999.25000000    2.00250250      
      18.000 -999.25000000    10.50504009      0.29939759       0.58975904       -999.25000000    2.00250250      
      18.500 -999.25000000    10.42210295      0.29939759       0.64959839       -999.25000000    2.00222726      
      19.000 -999.25000000    10.34852980      0.29939759       0.63152610       -999.25000000    2.00335634      
      19.500 -999.25000000    10.42873801      0.29939759       0.58012048       -999.25000000    2.00250250      
      20.000 -999.25000000    10.38211254      0.29939759       0.52028112       -999.25000000    2.27708264      
      20.500 -999.25000000    9.84062834       0.29939759       0.30622490       -999.25000000    2.39546213      
      21.000 -999.25000000    8.95756151       0.29939759       0.25461847       -999.25000000    2.39293738      
      21.500 -999.25000000    7.89520095       0.29939759       0.12510040       -999.25000000    2.38888889      
      22.000 -999.25000000    7.10378111       0.29939759       0.02349398       -999.25000000    2.00250250      
      22.500 -999.25000000    5.63797134       0.29939759       0.19979920       -999.25000000    2.00357765      
      23.000 -999.25000000    5.48252843       0.29939759       0.33893072       -999.25000000    2.00319208      
      23.500 -999.25000000    4.83953519       0.29939759       0.49116466       -999.25000000    1.99339339      
      24.000 -999.25000000    4.33261228       0.31867470       0.58177153       -999.25000000    1.76989234      
      24.500 -999.25000000    4.27663356       0.29216867       0.59108964       -999.25000000    1.75884578      
      25.000 -999.25000000    5.13732954       0.33936998       0.60885971       -999.25000000    1.75517384      
      25.500 -999.25000000    6.73856869       0.53680732       0.65075773       -999.25000000    1.75425425      
      26.000 -999.25000000    9.95962005       0.57060710       0.67633143       -999.25000000    1.86633856      
      26.500 -999.25000000    13.74508459      0.47950260       0.62375783       -999.25000000    2.00250250      
      27.000 -999.25000000    17.24859084      0.29738956       0.57201974       -999.25000000    2.08758759      
      27.500 -999.25000000    19.12612420      0.30702811       0.52053213       -999.25000000    2.24934906      
      28.000 -999.25000000    20.05707257      0.26686747       0.46405622       -999.25000000    2.24772244      
      28.500 -999.25000000    21.84204529      0.24628514       0.47218248       -999.25000000    2.26933913      
      29.000 -999.25000000    23.92608635      0.22469880       0.47870226       -999.25000000    2.31848061      
      29.500 -999.25000000    25.63649231      0.21647841       0.46882920       -999.25000000    2.32457663      
      30.000 -999.25000000    22.62770357      0.20850067       0.46403359       -999.25000000    2.33703595      
      30.500 -999.25000000    14.29877483      0.20689982       0.47453803       -999.25000000    2.35542366      
      31.000 -999.25000000    6.31680449       0.20863454       0.49347353       -999.25000000    2.35308189      
      31.500 -999.25000000    1.19150521       0.20943775       0.49961080       -999.25000000    2.35047228      
      32.000 -999.25000000    0.63092207       0.21101549       0.49998401       -999.25000000    2.34624880      
      32.500 -999.25000000    3.78926877       0.21385542       0.45491814       -999.25000000    2.34331675      
      33.000 -999.25000000    11.20135042      0.21184739       0.43337013       -999.25000000    2.34377517      
      33.500 -999.25000000    19.94813646      0.20284641       0.43147758       -999.25000000    2.35482173      
      34.000 -999.25000000    24.37821214      0.19646924       0.43107292       -999.25000000    2.36497318      
      34.500 -999.25000000    26.74237593      0.19301566       0.43111707       -999.25000000    2.37384918      
      35.000 -999.25000000    25.91912560      0.19411850       0.43192771       -999.25000000    2.37762818      
      35.500 -999.25000000    24.03643598      0.19289233       0.43152610       -999.25000000    2.37716535      
      36.000 -999.25000000    22.68440770      0.19719307       0.41353987       -999.25000000    2.37321338      
      36.500 -999.25000000    23.01199384      0.20582329       0.38854085       -999.25000000    2.36280499      
      37.000 -999.25000000    23.83605111      0.21345382       0.37651702       -999.25000000    2.35668221      
      37.500 -999.25000000    24.24751325      0.20270805       0.37859845       -999.25000000    2.35047056      
      38.000 -999.25000000    23.81216269      0.18498438       0.29658635       -999.25000000    2.36225189      
      38.500 -999.25000000    23.45330929      0.16726071       0.17150911       -999.25000000    2.39377817      
