~Version Information Block
 VERS.                2.00:     CWLS LOG ASCII STANDARD - VERSION 2.000000
 WRAP.                  NO:     One Line Per Depth Step
#
~Well Information Block
#MNEM.UNIT                     Data                         Information
#----------   ------------------------------------------   ----------------
 STRT.FT                                      250.0000:     START DEPTH
 STOP.FT                                    10290.0000:     STOP DEPTH
 STEP.FT                                        0.5000:     STEP
 NULL.                                       -999.2500:     NULL VALUE
 COMP.                                                :     COMPANY
 WELL.                                                :     WELL
 FLD .                                                :     FIELD
 LOC .                                                :     LOCATION
 CNTY.                                                :     COUNTY
 STAT.                                                :     STATE
 CTRY.                                                :     COUNTRY
 SRVC.                                                :     SERVICE COMPANY
 DATE.                                                :     DATE
 API .                                                4210931550:     API NUMBER
 UWI .                                                :     UWI NUMBER
 TVD .                                              NO:     TVD flag
 WSTA.                                             LOC:     Well status
#
~Curve Information Block
#MNEM.UNIT       API CODE      Curve Description
#----------    -------------   -------------------
 DEPT.FT                   :   Depth in Feet
 LLS .OHMM                 :   Latero-Log Shallow (Resistivity)
 LLD .OHMM                 :   Latero-Log Deep (Resistivity)
 SFLU.OHMM                 :   SFL Resistivity (Unaveraged)
 ILD .OHMM                 :   Deep Induction Standard Processed Resistivity
 ILM .OHMM                 :   Medium Induction Standard Processed Resistivity
#
~Parameter Information Block
#MNEM.UNIT            Value               Description
#----------    --------------------    -------------------
 RUN .                         ONE:    Run Number
 PDAT.                          GL:    Permanent Datum
 EPD .FT                          :    Elevation Of Perm. Datum
 LMF .               KELLY BUSHING:    Log Measured From
 EKB .FT                          :    Elevation Of Kelly Bushing
 DF .FT                           :    Elevation Of Derrick Floor
 GL .FT                           :    Elevation Of Ground Level
 TD  .FT                          :    Total Depth
 CSGD.FT                          :    Casing Bottom (Driller) 1
 CSGL.FT                          :    Casing Bottom (Logger) 1
 MUD .                            :    Drilling Fluid Type
 MUDV .CP                         :    Drilling Fluid Viscosity
 MUDD .LB/USG                     :    Drilling Fluid Density
 FL .ML/30MIN                     :    Drilling Fluid Loss
 PH.                              :    Drilling Fluid Ph
 MUDS .                           :    Mud Sample Source
 RM .OHMM                         :    Resistivity Of Mud Sample
 RMT .DEGF                        :    Mud Sample Temperature
 RMF .OHMM                        :    Mud Filtrate Resistivity
 RMFT.DEGF                        :    Mud Filtrate Sample Temperature
 RMC .OHMM                        :    Mud Cake Resistivity
 RMCT.DEGF                        :    Mud Cake Sample Temperature
 RMB .OHMM                        :    Mud Resistivity At Bht
 TMAX .DEGF                       :    Bottom Hole Temperature
#
~Other Information Block
<DescLogPlotStart>   NEURALOG PLOT DEFINITION
PLOTDEFVERSION: 3
LASFILE: E:\nds\projects\Texas Standard Oil LLC\pdf\Pradeep+Ekta\42109315500000
DEPTHSCALE: 240.000000
RESOLUTION: 200
DEPTHLABELFREQ: 100.000000
HEAVYGRIDFREQ: 100.000000
MEDIUMGRIDFREQ: 50.000000
LIGHTGRIDFREQ: 10.000000
#
#   TRACK 1
#
STARTTRACK: 
 LEFTX: 1.000000 inch
 RIGHTX: 6.000000 inch
 SCALETYPE: Log
 NUMCYCLES: 4
 STARTCYCLE: 2
CURVE: SFLU  0.200000   2000.000000 (0,0,255)      Solid             2     N   
CURVE: ILD   0.200000   2000.000000 (0,131,131)    Dot               2     N   
CURVE: ILM   0.200000   2000.000000 (255,0,255)    Short_Dash        2     N   
ENDTRACK: 
#
#   TRACK 2
#
STARTTRACK: 
 LEFTX: 1.000000 inch
 RIGHTX: 6.000000 inch
 SCALETYPE: Log
 NUMCYCLES: 4
 STARTCYCLE: 2
CURVE: LLS   0.200000   2000.000000 (255,0,0)      Solid             2     Y   
BACKUP: 2000.000000 20000000.000000 (255,0,0)      Solid             2    
CURVE: LLD   0.200000   2000.000000 (255,131,0)    Dot               2     Y   
BACKUP: 2000.000000 20000000.000000 (255,131,0)    Dot               2    
ENDTRACK: 
<DescLogPlotEnd>
~A DEPTH     LLS              LLD              SFLU             ILD              ILM             
# ...
    5908.000 -999.25000000    -999.25000000    145.75308607     137.89405480     104.51640403    
    5908.500 -999.25000000    -999.25000000    180.25801713     139.17382982     130.45878385    
    5909.000 -999.25000000    -999.25000000    458.25819102     147.10579962     139.17382982    
    5909.500 -999.25000000    -999.25000000    1467.66448794    128.07054376     144.41281141    
    5910.000 -999.25000000    -999.25000000    1414.42082376    110.47313427     144.41281141    
    5910.500 -999.25000000    -999.25000000    981.86034782     105.48640583     81.44407293     
    5911.000 -999.25000000    -999.25000000    347.33548382     109.45727693     70.25332868     
    5911.500 -999.25000000    -999.25000000    128.07054376     112.53322054     67.70469125     
    5912.000 -999.25000000    -999.25000000    108.45076092     112.53322054     97.07070196     
    5912.500 -999.25000000    -999.25000000    511.30343444     107.45350034     97.97160127     
    5913.000 -999.25000000    -999.25000000    1458.07473354    106.46541009     100.72477702    
    5913.500 -999.25000000    -999.25000000    1445.93372739    113.57762527     105.48640583    
    5914.000 -999.25000000    -999.25000000    1525.95863090    147.10579962     125.43319762    
    5914.500 -999.25000000    -999.25000000    1014.25075977    148.01084020     127.03113045    
    5915.000 -999.25000000    -999.25000000    899.47453446     141.96192049     110.32684075    
    5915.500 -999.25000000    -999.25000000    667.30867170     140.47750430     97.02698422     
    5916.000 -999.25000000    -999.25000000    128.59013058     137.89405480     93.47458343     
    5916.500 -999.25000000    -999.25000000    129.66885561     136.62604798     93.47520468     
    5917.000 -999.25000000    -999.25000000    137.50448957     136.62604798     105.48640583    
    5917.500 -999.25000000    -999.25000000    177.78480629     136.62604798     120.05078402    
    5918.000 -999.25000000    -999.25000000    170.64849849     131.66955317     129.25914817    
    5918.500 -999.25000000    -999.25000000    947.52173911     121.16495819     134.12490704    
    5919.000 -999.25000000    -999.25000000    1062.19810489    112.53322054     115.69560361    
    5919.500 -999.25000000    -999.25000000    1143.67284929    102.60307739     84.50990793     
    5920.000 -999.25000000    -999.25000000    125.76198790     97.97160127      76.34405635     
    5920.500 -999.25000000    -999.25000000    137.66799969     96.17808688      70.25332868     
    5921.000 -999.25000000    -999.25000000    107.47987253     89.32640281      62.88143920     
    5921.500 -999.25000000    -999.25000000    98.05283475      72.89790558      58.94381218     
    5922.000 -999.25000000    -999.25000000    106.46541009     64.64851917      52.75866371     
    5922.500 -999.25000000    -999.25000000    88.13783794      59.49086128      47.66080681     
    5923.000 -999.25000000    -999.25000000    79.21790919      58.94381218      44.67629368     
    5923.500 -999.25000000    -999.25000000    90.15542838      58.94381218      47.63287624     
    5924.000 -999.25000000    -999.25000000    111.49841964     62.30321200      53.18379507     
    5924.500 -999.25000000    -999.25000000    130.50011103     68.33304882      54.79756076     
    5925.000 -999.25000000    -999.25000000    140.46548224     73.57446062      57.05040542     
    5925.500 -999.25000000    -999.25000000    154.06002912     79.95311928      62.23262739     
    5926.000 -999.25000000    -999.25000000    190.09198120     82.96282966      71.69333691     
    5926.500 -999.25000000    -999.25000000    233.47027802     82.96282966      76.34405635     
    5927.000 -999.25000000    -999.25000000    237.82399638     76.34405635      76.34405635     
    5927.500 -999.25000000    -999.25000000    195.88578188     72.89790558      70.25332868     
    5928.000 -999.25000000    -999.25000000    153.80406330     70.90533978      64.05404275     
    5928.500 -999.25000000    -999.25000000    120.01593368     68.96723807      56.28310389     
    5929.000 -999.25000000    -999.25000000    114.63172298     67.08211176      49.91390756     
    5929.500 -999.25000000    -999.25000000    112.30234672     63.44724539      48.04614829     
    5930.000 -999.25000000    -999.25000000    127.80322896     63.46323161      48.06205069     
    5930.500 -999.25000000    -999.25000000    121.68988474     62.18212084      48.06228464     
    5931.000 -999.25000000    -999.25000000    106.46541009     62.13341278      53.24830933     
    5931.500 -999.25000000    -999.25000000    121.16495819     74.25729467      74.94646601     
    5932.000 -999.25000000    -999.25000000    227.03099952     82.19994373      83.73279582     
    5932.500 -999.25000000    -999.25000000    475.50860533     91.83663315      103.55532189    
    5933.000 -999.25000000    -999.25000000    874.88861281     104.51640403     114.63172298    
    5933.500 -999.25000000    -999.25000000    1062.19810489    114.63172298     122.28947285    
    5934.000 -999.25000000    -999.25000000    1208.85448957    117.85307769     123.42442397    
    5934.500 -999.25000000    -999.25000000    1102.18289459    104.51640403     72.89790558     
    5935.000 -999.25000000    -999.25000000    633.18628621     90.15542838      62.30321200     
    5935.500 -999.25000000    -999.25000000    121.16495819     77.05259462      49.45492349     
    5936.000 -999.25000000    -999.25000000    98.88086169      64.64851917      41.11201964     
    5936.500 -999.25000000    -999.25000000    72.89790558      55.76555177      38.18321767     
    5937.000 -999.25000000    -999.25000000    74.94646601      48.54957831      36.45963719     
    5937.500 -999.25000000    -999.25000000    78.85284328      46.78830558      36.45963719     
    5938.000 -999.25000000    -999.25000000    87.69115150      46.35806302      37.83210333     
    5938.500 -999.25000000    -999.25000000    100.72477702     48.10313994      43.45512753     
    5939.000 -999.25000000    -999.25000000    130.45878385     52.27352064      46.78830558     
    5939.500 -999.25000000    -999.25000000    185.32358710     56.80545933      53.24830933     
    5940.000 -999.25000000    -999.25000000    210.91098662     60.60023784      55.25275882     
    5940.500 -999.25000000    -999.25000000    227.18329707     61.73030189      50.37715140     
    5941.000 -999.25000000    -999.25000000    192.71498050     61.73030189      51.31657689     
    5941.500 -999.25000000    -999.25000000    129.81219238     60.04298746      50.37715140     
    5942.000 -999.25000000    -999.25000000    107.45350034     57.33266268      45.50941043     
    5942.500 -999.25000000    -999.25000000    93.54918876      54.74468125      43.05553526     
    5943.000 -999.25000000    -999.25000000    82.96282966      52.27352064      38.53759065     
    5943.500 -999.25000000    -999.25000000    78.48945973      50.84469454      38.53759065     
    5944.000 -999.25000000    -999.25000000    78.48945973      50.81792890      39.98827810     
    5944.500 -999.25000000    -999.25000000    96.17808688      55.20900614      44.26547216     
    5945.000 -999.25000000    -999.25000000    128.07054376     57.86475893      51.31657689     
    5945.500 -999.25000000    -999.25000000    249.06680702     57.33266268      55.76555177     
    5946.000 -999.25000000    -999.25000000    316.68594711     62.30321200      60.04298746     
    5946.500 -999.25000000    -999.25000000    417.82062589     67.08211176      56.80545933     
    5947.000 -999.25000000    -999.25000000    194.08451127     70.25332868      56.25982592     
    5947.500 -999.25000000    -999.25000000    154.06002912     74.94646601      70.35532195     
    5948.000 -999.25000000    -999.25000000    125.72602392     75.64203345      69.53458526     
    5948.500 -999.25000000    -999.25000000    144.41281141     76.34405635      67.08211176     
