~VERSION INFORMATION
VERS. 2.0 : CWLS Log ASCII Standard - Version 2.0
WRAP. NO : One line per depth step
#--------------------------------------------------#
#----------------DRILLING INFO, INC.---------------#
#---------------WWW.DRILLINGINFO.COM---------------#
#------------------COPYRIGHT 2015------------------#
#--------------------------------------------------#
#THIS FILE MAY BE USED ONLY IN ACCORDANCE WITH A CURRENT SUBSCRIPTION AGREEMENT BETWEEN
#THE USER AND DRILLING INFO, INC. NO PART OF THIS FILE MAY BE REPRODUCED, USED, COPIED,
#MODIFIED, PROPAGATED, OR DISTRIBUTED EXCEPT IN ACCORDANCE WITH THE SUBSCRIPTION
#AGREEMENT. UNAUTHORIZED USE OR DISTRIBUTION OF ALL OR ANY PART OF THIS FILE MAY VIOLATE
#COPYRIGHT, TRADEMARK, AND/OR OTHER LAWS AND IS SUBJECT TO CIVIL AS WELL AS CRIMINAL
#SANCTIONS.
#--------------------------------------------------#
#THIS FILE IS PROVIDED "AS-IS" AND ALL WARRANTIES ARE EXPRESSLY DISCLAIMED, WHETHER
#EXPRESS, ORAL, IMPLIED, STATUTORY OR OTHERWISE, INCLUDING ANY IMPLIED WARRANTY OF FITNESS
#FOR A PARTICULAR PURPOSE, MERCHANTABILITY, TITLE OR NON-INFRINGEMENT, AND ANY WARRANTIES
#ARISING BY VIRTUE OF CUSTOM OF TRADE OR COURSE OF DEALING.  FURTHER, DRILLING INFO,
#INC. AND ITS LICENSORS DO NOT REPRESENT OR WARRANT THAT THIS FILE WILL MEET USER'S
#REQUIREMENTS OR ARE SUITABLE FOR USER'S NEEDS OR THAT THE DATA OR RESULTS PROVIDED IN
#CONJUNCTION THEREWITH ARE CORRECT, ACCURATE, TIMELY OR RELIABLE. THESE DISCLAIMERS SHALL
#APPLY REGARDLESS OF ANY FAILURE OF ESSENTIAL PURPOSE OF ANY LIMITED REMEDY.  SOME
#JURISDICTIONS DO NOT ALLOW THE EXCLUSION OF CERTAIN WARRANTIES SO SOME OF THE ABOVE
#EXCLUSIONS MAY NOT APPLY. IN NO EVENT SHALL DRILLING INFO, INC. OR ANY OF ITS AFFILIATES
#BE LIABLE UNDER ANY LEGAL THEORY, WHETHER IN TORT (INCLUDING WITHOUT LIMITATION
#NEGLIGENCE), CONTRACT, STRICT LIABILITY, STATUTORY OR OTHERWISE, FOR ANY SPECIAL,
#INCIDENTAL, CONSEQUENTIAL, EXEMPLARY, PUNITIVE OR INDIRECT DAMAGE OF ANY KIND, INCLUDING
#WITHOUT LIMITATION LOSS OF REVENUE, PROFITS, GOODWILL, USE, AND/OR DATA OR THE COST OF
#PROCUREMENT OF SUBSTITUTE GOODS OR SERVICES, EVEN IF APPRISED OF THE POSSIBILITY OF SUCH
#DAMAGES IN ADVANCE.
#--------------------------------------------------#
~WELL INFORMATION
#MNEMONIC     .UNIT              VALUE :DESCRIPTION
#--------------------------------------------------#
STRT       .ft                97.00000 :START DEPTH
STOP       .ft                8647.00000 :STOP DEPTH
STEP       .ft                0.50000 :STEP
NULL       .                -999.25000 :NULL VALUE
COMP       .                 :COMPANY
WELL       .                 :WELL
FLD       .                 :FIELD
LOC       .                 :LOCATION
CNTY       .                 :COUNTY
STAT       .                 :STATE
CTRY       .                 :COUNTRY
SRVC       .                 :SERVICE COMPANY
DATE       .                 :DATE
API       .                42109002030000 :API NUMBER
~CURVE INFORMATION
#MNEMONIC     .UNIT      API CODE :CURVE DESCRIPTION
#--------------------------------------------------#
DEPTH       .ft                      :Measured Depth
DT       .us/ft        UNKNOWN   :DT
GR       .gAPI        UNKNOWN   :GR
ILD       .ohmm        UNKNOWN   :ILD
ILS       .ohmm        UNKNOWN   :ILS
SP       .mV        UNKNOWN   :SP
~A    DEPTH    DT    GR    ILD    ILS    SP
# ...
5299.50000    50.22181    13.29414    477.94090    467.65247    -65.66203
5300.00000    50.52835    13.08445    475.42805    465.61200    -65.95625
5300.50000    50.83488    12.87477    472.91519    463.57154    -66.25048
5301.00000    51.14142    12.66509    470.40234    461.53107    -66.54471
5301.50000    51.44796    12.59325    471.76871    459.49061    -66.83893
5302.00000    51.66172    12.77733    476.85860    457.45014    -67.13316
5302.50000    51.63666    12.96142    481.94849    455.40968    -67.47274
5303.00000    51.61160    13.14550    487.03838    453.36921    -67.84992
5303.50000    51.58654    13.32959    492.12827    451.32875    -68.22710
5304.00000    51.59776    13.51367    494.04847    449.28829    -68.60429
5304.50000    51.63826    13.60433    488.55961    447.24782    -68.98147
5305.00000    51.67875    13.69195    483.07075    445.20736    -69.35865
5305.50000    51.71925    13.77957    477.58189    443.16689    -69.73584
5306.00000    51.75975    13.74992    472.09304    441.12643    -70.11302
5306.50000    51.80024    13.20775    466.60418    439.08596    -70.49020
5307.00000    51.84074    12.66557    477.64236    437.04550    -70.86739
5307.50000    51.45430    12.12339    489.10600    435.00503    -71.24457
5308.00000    50.96307    11.58122    500.56964    432.96457    -71.62175
5308.50000    50.47183    11.03904    512.03328    430.92410    -71.99894
5309.00000    50.19210    10.49687    523.49691    428.88364    -72.37612
5309.50000    50.57658    10.64972    530.13966    426.84318    -72.75330
5310.00000    50.96106    11.44559    515.93971    424.80271    -73.13049
5310.50000    51.40038    12.24146    501.73976    422.76225    -73.50767
5311.00000    52.19445    13.03733    487.53981    420.72178    -73.88485
5311.50000    52.98851    13.83320    473.33985    418.68132    -74.26204
5312.00000    53.78258    14.62907    459.13990    416.64085    -74.63922
5312.50000    54.57664    15.42494    456.13807    414.60039    -75.01640
5313.00000    55.37071    16.22081    456.58242    413.07487    -75.39359
5313.50000    55.46003    16.31269    457.02677    412.84635    -75.63024
5314.00000    54.71942    16.03936    457.47112    412.61782    -75.75678
5314.50000    53.97880    15.76603    457.91546    412.38930    -75.88332
5315.00000    53.23819    15.49270    458.35981    412.16078    -76.00986
5315.50000    53.18194    15.21937    466.73371    411.93226    -76.13640
5316.00000    53.14035    14.94605    476.54311    411.70374    -76.26294
5316.50000    52.43574    14.67272    486.35250    411.47521    -76.38948
5317.00000    51.50707    14.39939    496.16189    411.24669    -76.51602
5317.50000    50.57839    14.12606    505.97129    411.01817    -76.64256
5318.00000    49.64972    13.85274    515.78068    410.78965    -76.76910
5318.50000    48.72104    13.57941    525.59008    410.56112    -76.89564
5319.00000    47.79237    13.30608    535.39947    410.33260    -77.02218
5319.50000    46.86369    13.03275    535.23770    410.77845    -77.14872
5320.00000    47.38770    12.75943    523.42981    413.67248    -77.27526
5320.50000    48.05795    12.48610    511.62191    416.56651    -77.40180
5321.00000    48.72819    12.21277    499.81402    419.46054    -77.52835
5321.50000    49.39843    11.93944    488.00612    422.35456    -77.65489
5322.00000    49.99707    11.66611    476.19823    425.24859    -77.78143
5322.50000    49.99669    11.39279    464.39034    428.14262    -77.90797
5323.00000    49.99630    11.36027    453.17052    431.03665    -78.03451
5323.50000    49.99591    11.62693    456.27142    433.93067    -78.16105
5324.00000    50.09591    11.89359    459.37231    436.82470    -78.28759
5324.50000    50.36530    12.16025    462.47321    439.71873    -78.14465
5325.00000    50.63470    12.42691    465.57410    442.61276    -77.81536
5325.50000    50.90410    12.69357    468.67500    445.50678    -77.48608
5326.00000    51.17350    12.96023    471.77589    448.40081    -77.15680
5326.50000    51.44290    13.22689    474.87679    451.29484    -76.82752
5327.00000    51.50074    13.38531    477.97768    454.18887    -76.49824
5327.50000    50.86170    13.38597    481.07858    457.08289    -76.16895
5328.00000    50.22266    13.38662    484.17947    459.97692    -75.83967
5328.50000    49.58362    13.38728    487.28037    462.87095    -75.51039
5329.00000    48.94459    13.38794    482.60398    465.76498    -75.18111
5329.50000    48.30555    13.38859    477.28097    468.59599    -74.85183
5330.00000    48.23381    13.38925    471.95795    468.32348    -75.31564
5330.50000    48.51892    13.38990    466.63494    468.05097    -75.90222
5331.00000    48.80403    13.28507    461.31193    467.77846    -76.48880
5331.50000    49.08913    13.15646    455.98891    467.50595    -77.07537
5332.00000    49.37424    13.02785    455.31726    467.23344    -77.66195
5332.50000    49.65934    12.89924    454.97728    466.96093    -77.31700
5333.00000    49.94445    12.77063    454.63729    466.68842    -75.99170
5333.50000    50.22955    12.64202    454.29731    466.41591    -74.66640
5334.00000    50.51466    12.51341    453.95732    466.14340    -73.34110
5334.50000    50.79977    12.38480    453.61734    465.87089    -72.01580
5335.00000    50.85201    12.25619    453.27735    465.59838    -70.82542
5335.50000    50.76285    12.12758    453.03896    465.32587    -70.43551
5336.00000    50.67368    11.99897    456.01188    465.05336    -70.04561
5336.50000    50.58452    11.75471    458.98480    464.78085    -69.65571
5337.00000    50.49535    11.30923    461.95772    464.50834    -69.26580
5337.50000    50.47661    10.86375    464.93064    464.23583    -68.87590
5338.00000    50.54761    10.41827    467.90356    463.96332    -68.48600
5338.50000    50.61861    9.97279    470.87648    463.69081    -68.09609
5339.00000    50.68961    10.44351    473.84940    463.41830    -67.70619
5339.50000    50.76060    10.97201    476.82232    463.14579    -67.31629
5340.00000    50.83160    11.50051    479.79524    462.87328    -66.92638
5340.50000    50.90260    12.02901    482.51891    462.60077    -66.53648
5341.00000    50.97360    12.55751    484.35633    462.32826    -66.14658
5341.50000    51.04460    13.08601    486.19375    462.05575    -65.75667
5342.00000    51.05880    13.61451    488.03118    461.78324    -65.36677
5342.50000    50.99274    14.14301    489.86860    461.51073    -64.99123
5343.00000    50.92669    14.67151    491.70603    461.23822    -64.99214
5343.50000    50.86063    15.20001    493.54345    460.96571    -64.99306
5344.00000    50.79457    15.43107    495.33407    460.69320    -64.99397
5344.50000    50.72852    15.10072    491.99228    460.42069    -64.99488
5345.00000    50.66246    14.77037    488.65049    460.14818    -64.99580
5345.50000    50.59640    14.44002    485.30870    459.87567    -64.99671
5346.00000    50.53035    14.10967    481.96691    459.24869    -64.99762
5346.50000    50.46429    13.77932    478.62512    457.96529    -64.99854
5347.00000    50.39823    13.44897    475.28333    456.68188    -64.99945
5347.50000    50.33218    13.11862    471.94154    455.39848    -65.00037
5348.00000    50.26612    12.78828    468.58293    454.11508    -65.00128
5348.50000    50.36749    12.45793    464.94083    452.83167    -65.00219
5349.00000    50.51009    12.12758    461.29873    451.54827    -65.00311
5349.50000    50.65269    11.79723    457.65663    450.26487    -65.00402
5350.00000    50.79529    11.46688    454.01454    448.98146    -65.00493
5350.50000    50.93789    11.13653    450.37244    447.69806    -65.00585
5351.00000    51.08049    10.80618    446.73034    446.41465    -65.00676
5351.50000    51.22309    10.47583    443.08824    445.13125    -65.00767
5352.00000    51.36569    10.45734    441.13222    443.84785    -65.00859
5352.50000    51.50829    10.45799    439.70983    442.56444    -65.00950
5353.00000    51.65090    10.45864    438.28743    441.28104    -65.01041
5353.50000    51.79350    10.45929    436.86504    439.99764    -65.01133
