~VERSION INFORMATION
VERS. 2.0 : CWLS Log ASCII Standard - Version 2.0
WRAP. NO : One line per depth step
#--------------------------------------------------#
#----------------DRILLING INFO, INC.---------------#
#---------------WWW.DRILLINGINFO.COM---------------#
#------------------COPYRIGHT 2015------------------#
#--------------------------------------------------#
#THIS FILE MAY BE USED ONLY IN ACCORDANCE WITH A CURRENT SUBSCRIPTION AGREEMENT BETWEEN
#THE USER AND DRILLING INFO, INC. NO PART OF THIS FILE MAY BE REPRODUCED, USED, COPIED,
#MODIFIED, PROPAGATED, OR DISTRIBUTED EXCEPT IN ACCORDANCE WITH THE SUBSCRIPTION
#AGREEMENT. UNAUTHORIZED USE OR DISTRIBUTION OF ALL OR ANY PART OF THIS FILE MAY VIOLATE
#COPYRIGHT, TRADEMARK, AND/OR OTHER LAWS AND IS SUBJECT TO CIVIL AS WELL AS CRIMINAL
#SANCTIONS.
#--------------------------------------------------#
#THIS FILE IS PROVIDED "AS-IS" AND ALL WARRANTIES ARE EXPRESSLY DISCLAIMED, WHETHER
#EXPRESS, ORAL, IMPLIED, STATUTORY OR OTHERWISE, INCLUDING ANY IMPLIED WARRANTY OF FITNESS
#FOR A PARTICULAR PURPOSE, MERCHANTABILITY, TITLE OR NON-INFRINGEMENT, AND ANY WARRANTIES
#ARISING BY VIRTUE OF CUSTOM OF TRADE OR COURSE OF DEALING.  FURTHER, DRILLING INFO,
#INC. AND ITS LICENSORS DO NOT REPRESENT OR WARRANT THAT THIS FILE WILL MEET USER'S
#REQUIREMENTS OR ARE SUITABLE FOR USER'S NEEDS OR THAT THE DATA OR RESULTS PROVIDED IN
#CONJUNCTION THEREWITH ARE CORRECT, ACCURATE, TIMELY OR RELIABLE. THESE DISCLAIMERS SHALL
#APPLY REGARDLESS OF ANY FAILURE OF ESSENTIAL PURPOSE OF ANY LIMITED REMEDY.  SOME
#JURISDICTIONS DO NOT ALLOW THE EXCLUSION OF CERTAIN WARRANTIES SO SOME OF THE ABOVE
#EXCLUSIONS MAY NOT APPLY. IN NO EVENT SHALL DRILLING INFO, INC. OR ANY OF ITS AFFILIATES
#BE LIABLE UNDER ANY LEGAL THEORY, WHETHER IN TORT (INCLUDING WITHOUT LIMITATION
#NEGLIGENCE), CONTRACT, STRICT LIABILITY, STATUTORY OR OTHERWISE, FOR ANY SPECIAL,
#INCIDENTAL, CONSEQUENTIAL, EXEMPLARY, PUNITIVE OR INDIRECT DAMAGE OF ANY KIND, INCLUDING
#WITHOUT LIMITATION LOSS OF REVENUE, PROFITS, GOODWILL, USE, AND/OR DATA OR THE COST OF
#PROCUREMENT OF SUBSTITUTE GOODS OR SERVICES, EVEN IF APPRISED OF THE POSSIBILITY OF SUCH
#DAMAGES IN ADVANCE.
#--------------------------------------------------#
~WELL INFORMATION
#MNEMONIC     .UNIT              VALUE :DESCRIPTION
#--------------------------------------------------#
STRT       .ft                97.00000 :START DEPTH
STOP       .ft                8647.00000 :STOP DEPTH
STEP       .ft                0.50000 :STEP
NULL       .                -999.25000 :NULL VALUE
COMP       .                 :COMPANY
WELL       .                 :WELL
FLD       .                 :FIELD
LOC       .                 :LOCATION
CNTY       .                 :COUNTY
STAT       .                 :STATE
CTRY       .                 :COUNTRY
SRVC       .                 :SERVICE COMPANY
DATE       .                 :DATE
API       .                42109002030000 :API NUMBER
~CURVE INFORMATION
#MNEMONIC     .UNIT      API CODE :CURVE DESCRIPTION
#--------------------------------------------------#
DEPTH       .ft                      :Measured Depth
DT       .us/ft        UNKNOWN   :DT
GR       .gAPI        UNKNOWN   :GR
ILD       .ohmm        UNKNOWN   :ILD
ILS       .ohmm        UNKNOWN   :ILS
SP       .mV        UNKNOWN   :SP
~A    DEPTH    DT    GR    ILD    ILS    SP
# ...
4210.00000    64.65953    29.65911    285.70339    378.40156    -92.04366
4210.50000    64.13351    29.26066    287.39251    379.44973    -92.04728
4211.00000    63.60748    28.86220    289.08162    380.49790    -91.75136
4211.50000    63.63705    28.46375    291.05852    381.54607    -91.45543
4212.00000    67.65961    27.61881    308.90577    382.59424    -91.15950
4212.50000    71.68217    28.18218    326.75302    383.64241    -90.91340
4213.00000    74.20538    29.11425    337.92423    384.69058    -91.12878
4213.50000    72.16739    29.69867    335.86327    385.73876    -91.34415
4214.00000    70.12940    28.04237    333.80231    386.78693    -91.55953
4214.50000    68.09141    26.38607    331.74135    387.83510    -91.77491
4215.00000    66.05341    24.72977    329.68039    388.88327    -91.99029
4215.50000    64.01542    23.07347    328.11200    389.93144    -92.20567
4216.00000    61.97743    23.24017    333.60147    390.97961    -92.42105
4216.50000    59.93944    24.94634    339.09095    392.02778    -92.63643
4217.00000    60.08015    26.65250    344.58043    393.07596    -92.85180
4217.50000    60.86558    28.35867    350.06991    394.12413    -93.06718
4218.00000    61.65102    29.44034    355.55939    395.17230    -93.28256
4218.50000    62.43646    29.47430    349.87842    396.22047    -93.49794
4219.00000    63.22190    29.50825    340.68146    394.98584    -93.71332
4219.50000    63.66907    29.54221    331.97684    393.73511    -93.92870
4220.00000    63.24542    29.57617    326.25732    392.48437    -94.14408
4220.50000    62.82176    30.07983    320.53780    391.23364    -94.35946
4221.00000    62.39811    31.13957    314.81828    389.98291    -94.57483
4221.50000    63.08414    32.19931    309.09876    388.73218    -94.33727
4222.00000    64.52131    31.67697    303.37924    387.48144    -94.08547
4222.50000    65.95847    30.76909    297.65972    386.23071    -93.83367
4223.00000    66.86612    29.86121    291.94020    384.97998    -93.58188
4223.50000    66.74334    28.95332    286.22068    383.72925    -93.33008
4224.00000    66.53347    28.04544    280.50116    382.47852    -93.07828
4224.50000    65.49661    27.13756    280.48366    381.22778    -92.82649
4225.00000    64.45974    26.23130    294.41560    379.97705    -92.57469
4225.50000    63.42288    25.34772    308.34753    378.72632    -92.32290
4226.00000    62.38601    24.46413    322.27946    376.66676    -92.07110
4226.50000    61.34915    23.58055    336.21140    373.64611    -91.81930
4227.00000    60.31229    22.96946    350.14333    370.62545    -91.56751
4227.50000    59.27542    24.06176    364.07527    367.60480    -91.72752
4228.00000    58.23856    25.15406    365.09295    364.58414    -92.03580
4228.50000    57.20169    26.24636    357.95087    361.56349    -92.34408
4229.00000    56.40546    27.33866    350.80879    358.54283    -92.65236
4229.50000    57.97339    28.43097    311.52772    355.52218    -92.96064
4230.00000    59.54132    29.52327    271.83158    352.50152    -93.26892
4230.50000    61.10925    28.76118    246.03000    349.48087    -93.57721
4231.00000    62.67718    27.46836    238.37043    346.46021    -93.88549
4231.50000    64.35663    26.17554    230.71085    343.43956    -94.19377
4232.00000    66.56012    24.88272    223.05127    340.41890    -94.50205
4232.50000    66.29002    23.58990    215.39169    337.39825    -94.81033
4233.00000    63.20557    23.91842    214.38923    334.18955    -95.11861
4233.50000    60.12112    25.07242    241.94935    330.88690    -95.42689
4234.00000    61.24383    26.22642    268.00968    327.58425    -95.73518
4234.50000    62.94567    27.38042    286.26351    324.28160    -96.04346
4235.00000    61.78296    28.53442    304.51735    320.97895    -96.35174
4235.50000    57.92544    29.68842    322.77119    317.67630    -96.66002
4236.00000    59.59394    30.84242    316.29765    314.37365    -96.96830
4236.50000    61.26243    31.34836    304.02389    311.07100    -97.27658
4237.00000    62.93093    31.67416    291.75013    307.76835    -97.58486
4237.50000    63.99329    31.99997    279.47637    304.46571    -97.89315
4238.00000    65.00835    32.32577    265.62465    301.16306    -98.24005
4238.50000    66.02340    32.65157    251.57757    297.86041    -98.60405
4239.00000    67.03845    32.97738    237.53049    294.55776    -98.96804
4239.50000    68.05350    33.30318    223.48340    291.25511    -99.33204
4240.00000    69.06856    33.62899    215.51466    287.95246    -99.69603
4240.50000    70.08361    34.14450    220.16872    284.64981    -100.06003
4241.00000    71.09866    34.68511    224.82279    281.34716    -100.42403
4241.50000    71.56046    33.51703    229.47685    278.04451    -100.78802
4242.00000    69.06956    32.34895    230.60757    274.74186    -101.15202
4242.50000    66.57867    32.49845    225.16145    271.43921    -101.51601
4243.00000    64.08777    33.02484    219.71532    268.13656    -101.88001
4243.50000    62.24552    33.55122    214.26920    264.83391    -102.24401
4244.00000    63.38944    34.06148    214.30467    260.93877    -102.60800
4244.50000    64.53337    31.67102    222.28955    254.21457    -102.97200
4245.00000    63.84802    29.28056    230.27443    247.49037    -103.33599
4245.50000    62.62100    26.89010    236.52051    240.76617    -103.69999
4246.00000    61.39398    26.43442    224.24784    234.04197    -104.08530
4246.50000    60.16696    28.08914    211.97517    227.31777    -104.82430
4247.00000    58.93994    29.74386    199.70250    220.59357    -105.56329
4247.50000    57.71292    31.39858    187.42983    213.86937    -106.30228
4248.00000    56.48590    33.05329    175.62524    207.14517    -107.04127
4248.50000    55.25888    33.12462    164.26647    200.42097    -107.78027
4249.00000    59.23719    32.75127    152.90771    193.69678    -108.51926
4249.50000    63.25808    31.53436    141.54894    186.97258    -109.25825
4250.00000    66.72160    29.67582    130.19017    180.24838    -109.99724
4250.50000    65.93104    28.37507    118.83140    179.35991    -110.73624
4251.00000    65.14049    28.70226    114.82449    179.32387    -111.47523
4251.50000    64.34994    29.02944    115.15575    179.28783    -111.46149
4252.00000    63.55938    29.35663    115.48700    179.25178    -111.23739
4252.50000    62.76883    29.68382    115.81825    179.21574    -111.01329
4253.00000    61.97827    30.01101    116.14951    179.17970    -110.78919
4253.50000    63.54315    30.33819    116.48076    179.14366    -110.56509
4254.00000    66.58786    30.66538    116.81201    179.10762    -110.34099
4254.50000    69.63256    29.85540    117.85398    179.07158    -110.11689
4255.00000    68.70593    28.47858    120.12085    179.03554    -110.20815
4255.50000    67.34447    27.99350    122.38772    178.99950    -110.32284
4256.00000    65.98302    28.92487    124.65458    178.96346    -110.43752
4256.50000    64.62157    29.85624    126.92145    178.92742    -110.55221
4257.00000    63.26012    30.78761    129.80066    178.89138    -110.66689
4257.50000    61.89866    31.71898    132.89636    177.73501    -110.78158
4258.00000    60.53721    32.65035    135.99205    174.20264    -110.89626
4258.50000    61.68264    33.58172    139.08775    170.67027    -111.01095
4259.00000    63.13715    35.30367    142.18344    167.13790    -111.12563
4259.50000    64.59166    37.03105    145.27914    163.60553    -111.24031
4260.00000    66.04617    38.75842    102.89679    160.07316    -111.35500
4260.50000    67.50067    40.48580    94.79422    156.54079    -111.46968
4261.00000    68.95518    41.35975    89.29876    153.00843    -111.58437
4261.50000    70.40969    40.26294    83.80330    149.47606    -111.69905
4262.00000    71.86420    39.18507    82.51430    145.94369    -111.73328
4262.50000    73.31870    38.54270    81.22851    142.41132    -111.52602
4263.00000    74.77321    37.90032    79.94272    138.87895    -111.31876
4263.50000    75.55354    37.25795    78.65694    135.34658    -111.11150
