~VERSION INFORMATION
VERS. 2.0 : CWLS Log ASCII Standard - Version 2.0
WRAP. NO : One line per depth step
#--------------------------------------------------#
#----------------DRILLING INFO, INC.---------------#
#---------------WWW.DRILLINGINFO.COM---------------#
#------------------COPYRIGHT 2015------------------#
#--------------------------------------------------#
#THIS FILE MAY BE USED ONLY IN ACCORDANCE WITH A CURRENT SUBSCRIPTION AGREEMENT BETWEEN
#THE USER AND DRILLING INFO, INC. NO PART OF THIS FILE MAY BE REPRODUCED, USED, COPIED,
#MODIFIED, PROPAGATED, OR DISTRIBUTED EXCEPT IN ACCORDANCE WITH THE SUBSCRIPTION
#AGREEMENT. UNAUTHORIZED USE OR DISTRIBUTION OF ALL OR ANY PART OF THIS FILE MAY VIOLATE
#COPYRIGHT, TRADEMARK, AND/OR OTHER LAWS AND IS SUBJECT TO CIVIL AS WELL AS CRIMINAL
#SANCTIONS.
#--------------------------------------------------#
#THIS FILE IS PROVIDED "AS-IS" AND ALL WARRANTIES ARE EXPRESSLY DISCLAIMED, WHETHER
#EXPRESS, ORAL, IMPLIED, STATUTORY OR OTHERWISE, INCLUDING ANY IMPLIED WARRANTY OF FITNESS
#FOR A PARTICULAR PURPOSE, MERCHANTABILITY, TITLE OR NON-INFRINGEMENT, AND ANY WARRANTIES
#ARISING BY VIRTUE OF CUSTOM OF TRADE OR COURSE OF DEALING.  FURTHER, DRILLING INFO,
#INC. AND ITS LICENSORS DO NOT REPRESENT OR WARRANT THAT THIS FILE WILL MEET USER'S
#REQUIREMENTS OR ARE SUITABLE FOR USER'S NEEDS OR THAT THE DATA OR RESULTS PROVIDED IN
#CONJUNCTION THEREWITH ARE CORRECT, ACCURATE, TIMELY OR RELIABLE. THESE DISCLAIMERS SHALL
#APPLY REGARDLESS OF ANY FAILURE OF ESSENTIAL PURPOSE OF ANY LIMITED REMEDY.  SOME
#JURISDICTIONS DO NOT ALLOW THE EXCLUSION OF CERTAIN WARRANTIES SO SOME OF THE ABOVE
#EXCLUSIONS MAY NOT APPLY. IN NO EVENT SHALL DRILLING INFO, INC. OR ANY OF ITS AFFILIATES
#BE LIABLE UNDER ANY LEGAL THEORY, WHETHER IN TORT (INCLUDING WITHOUT LIMITATION
#NEGLIGENCE), CONTRACT, STRICT LIABILITY, STATUTORY OR OTHERWISE, FOR ANY SPECIAL,
#INCIDENTAL, CONSEQUENTIAL, EXEMPLARY, PUNITIVE OR INDIRECT DAMAGE OF ANY KIND, INCLUDING
#WITHOUT LIMITATION LOSS OF REVENUE, PROFITS, GOODWILL, USE, AND/OR DATA OR THE COST OF
#PROCUREMENT OF SUBSTITUTE GOODS OR SERVICES, EVEN IF APPRISED OF THE POSSIBILITY OF SUCH
#DAMAGES IN ADVANCE.
#--------------------------------------------------#
~WELL INFORMATION
#MNEMONIC     .UNIT              VALUE :DESCRIPTION
#--------------------------------------------------#
STRT       .ft                97.00000 :START DEPTH
STOP       .ft                8647.00000 :STOP DEPTH
STEP       .ft                0.50000 :STEP
NULL       .                -999.25000 :NULL VALUE
COMP       .                 :COMPANY
WELL       .                 :WELL
FLD       .                 :FIELD
LOC       .                 :LOCATION
CNTY       .                 :COUNTY
STAT       .                 :STATE
CTRY       .                 :COUNTRY
SRVC       .                 :SERVICE COMPANY
DATE       .                 :DATE
API       .                42109002030000 :API NUMBER
~CURVE INFORMATION
#MNEMONIC     .UNIT      API CODE :CURVE DESCRIPTION
#--------------------------------------------------#
DEPTH       .ft                      :Measured Depth
DT       .us/ft        UNKNOWN   :DT
GR       .gAPI        UNKNOWN   :GR
ILD       .ohmm        UNKNOWN   :ILD
ILS       .ohmm        UNKNOWN   :ILS
SP       .mV        UNKNOWN   :SP
~A    DEPTH    DT    GR    ILD    ILS    SP
# ...
3138.00000    67.90031    26.41993    199.52963    278.28870    -124.33403
3138.50000    67.96178    29.56271    208.16000    277.64814    -124.51191
3139.00000    67.87555    32.70549    216.79036    277.00759    -124.51703
3139.50000    67.31049    32.80803    225.42073    276.36704    -124.52215
3140.00000    66.74544    32.50196    234.05109    275.72648    -124.52727
3140.50000    66.18038    32.19590    239.62898    275.32710    -124.53239
3141.00000    65.61532    31.88984    244.86992    275.01717    -124.53752
3141.50000    65.22383    31.58377    250.11086    274.70724    -124.54264
3142.00000    65.55466    31.27771    255.35181    274.39732    -124.54776
3142.50000    65.88548    30.97164    260.59275    274.08739    -124.55288
3143.00000    66.13320    31.76367    265.83369    273.77746    -124.55800
3143.50000    65.84687    32.88123    264.39906    273.46753    -124.56312
3144.00000    65.56054    33.99878    249.83842    273.15761    -124.94269
3144.50000    65.27420    33.76556    235.27777    272.84768    -125.38386
3145.00000    64.98787    32.74055    220.71713    272.53775    -125.82502
3145.50000    64.70109    31.71554    206.15648    273.08971    -126.26619
3146.00000    64.08633    30.69054    202.58017    274.50167    -126.70736
3146.50000    63.47157    30.24092    206.86807    275.91363    -127.14853
3147.00000    62.85681    30.02165    211.15596    277.32559    -127.58969
3147.50000    62.76380    29.80239    215.44386    278.73755    -128.03086
3148.00000    63.41071    29.58312    219.73176    280.14951    -128.47203
3148.50000    64.05763    28.62408    224.01966    281.56147    -128.91320
3149.00000    64.70454    28.70111    228.30756    282.97343    -129.35436
3149.50000    65.35146    28.77813    232.59545    284.38539    -129.71563
3150.00000    65.90873    28.85515    236.88335    285.79736    -129.43838
3150.50000    66.43150    28.60093    241.17125    287.20932    -129.16113
3151.00000    66.95426    28.06914    247.40376    288.62128    -128.88388
3151.50000    67.47702    27.53736    254.39048    290.03324    -128.60664
3152.00000    67.40952    27.00558    261.37721    291.44520    -128.32939
3152.50000    67.23869    26.55703    268.36394    292.85716    -128.05214
3153.00000    67.06787    26.61857    275.35067    294.26912    -127.77489
3153.50000    66.89704    26.68010    282.33740    295.68108    -127.49765
3154.00000    66.72621    26.74164    289.32413    297.09304    -127.22040
3154.50000    66.55538    26.80318    289.40074    298.50500    -127.07415
3155.00000    67.37861    26.86472    283.02287    299.91696    -127.16591
3155.50000    68.26624    26.78663    276.64499    300.33992    -127.25768
3156.00000    68.09131    26.65821    270.26711    291.83520    -127.34944
3156.50000    67.06919    26.52979    263.88924    283.33048    -127.44121
3157.00000    66.04706    26.40138    257.51136    274.82576    -127.53297
3157.50000    65.02493    26.27296    251.13349    266.32104    -127.62474
3158.00000    64.00280    26.14454    245.20182    257.81633    -127.71650
3158.50000    62.98067    25.62241    239.36642    249.31161    -127.80827
3159.00000    62.43174    23.64824    233.53102    240.80689    -127.90003
3159.50000    63.21810    21.67408    227.69562    232.30217    -127.99180
3160.00000    64.00445    20.15673    221.86022    223.79745    -128.08356
3160.50000    64.67535    19.55019    216.02482    215.29274    -128.17533
3161.00000    64.35228    19.03208    210.18942    212.59380    -128.26709
3161.50000    64.02920    19.11630    204.35401    212.03297    -128.30084
3162.00000    63.70612    19.20052    199.06796    211.47214    -128.30641
3162.50000    63.38304    19.28474    197.50207    210.91131    -128.31197
3163.00000    63.05996    19.36896    195.93619    210.35048    -128.31753
3163.50000    63.97716    19.45318    194.37031    209.78965    -128.32310
3164.00000    64.91242    19.87501    192.80442    209.22882    -128.32866
3164.50000    65.84768    21.74283    191.23854    208.66799    -128.33423
3165.00000    66.78294    23.61066    189.67265    208.10716    -128.33979
3165.50000    67.71820    25.47848    188.10677    207.54633    -128.34535
3166.00000    68.65346    27.34630    186.54088    206.98551    -128.35092
3166.50000    69.58872    29.21412    182.61682    206.42468    -128.54369
3167.00000    70.48837    31.08194    176.29960    205.86385    -128.75602
3167.50000    69.75160    32.94976    169.98239    205.30302    -128.96834
3168.00000    69.01484    34.81759    163.66517    204.74219    -129.18067
3168.50000    68.27808    36.68541    157.34795    204.18136    -129.39300
3169.00000    67.54131    38.87805    151.03074    203.62053    -129.60533
3169.50000    66.84919    39.86086    144.71352    203.05970    -129.81766
3170.00000    67.52578    39.38243    138.39631    202.49887    -130.02999
3170.50000    68.20237    38.90399    135.18298    201.93804    -130.24232
3171.00000    68.87896    38.42555    135.52159    201.37721    -130.45465
3171.50000    68.69745    37.58900    135.86019    200.81638    -130.66698
3172.00000    68.42628    36.52204    136.19880    202.84253    -130.87930
3172.50000    68.15511    35.45508    136.53740    205.50207    -131.09163
3173.00000    67.88394    34.38812    136.87601    208.16160    -131.30396
3173.50000    69.47051    33.32116    137.21461    210.82113    -131.51629
3174.00000    69.16390    32.25420    138.34433    213.48067    -131.72862
3174.50000    68.85729    31.18725    142.93772    216.14020    -131.94095
3175.00000    68.55068    30.12029    147.53111    218.79973    -132.15328
3175.50000    68.24407    29.87821    152.12450    221.45927    -132.36561
3176.00000    67.93747    29.87793    156.71790    224.43375    -132.35090
3176.50000    67.63086    29.87765    166.12145    231.24141    -132.29219
3177.00000    67.75843    29.74824    178.96843    238.04907    -132.23347
3177.50000    68.00095    29.50273    191.81541    244.85674    -132.17476
3178.00000    68.24347    29.25722    204.66239    251.66440    -132.11604
3178.50000    68.48600    29.01172    217.32140    258.47206    -132.05733
3179.00000    68.59936    28.76621    225.42274    265.27972    -131.99861
3179.50000    68.29840    28.56514    233.52408    272.08738    -131.93990
3180.00000    67.99744    28.91613    241.62542    278.89505    -131.88118
3180.50000    67.69648    29.26712    248.79742    285.70271    -131.82247
3181.00000    67.81461    29.61811    248.76994    292.51037    -131.76375
3181.50000    68.24226    29.96910    248.74245    299.31803    -131.70504
3182.00000    68.66991    29.79916    248.71497    306.12569    -131.34803
3182.50000    69.09756    29.49284    248.68749    312.93336    -130.81494
3183.00000    69.52521    29.18652    248.66000    319.74102    -130.28186
3183.50000    69.66280    28.88021    248.63252    326.54868    -129.74877
3184.00000    68.62568    28.57389    248.60504    333.35634    -129.21569
3184.50000    67.58855    28.26758    248.57755    340.16400    -128.68260
3185.00000    66.55142    27.96126    248.55007    346.97167    -128.14951
3185.50000    65.51430    27.50319    259.98255    353.77933    -127.61643
3186.00000    64.47717    26.16885    273.61311    360.58699    -127.08334
3186.50000    63.44004    24.83451    287.24368    367.39465    -126.55026
3187.00000    64.56253    23.50017    300.87424    374.20232    -126.01717
3187.50000    65.90931    24.55877    316.64063    381.00998    -125.48409
3188.00000    67.25609    26.35061    332.52798    387.81764    -124.95100
3188.50000    68.60286    28.14245    348.41533    394.62530    -124.41792
3189.00000    68.08307    29.93429    364.30268    396.21922    -123.88405
3189.50000    67.12404    31.72612    380.19003    396.30570    -123.28341
3190.00000    68.16834    33.51796    375.95689    396.39218    -122.68276
3190.50000    70.06645    35.16787    365.65689    396.47866    -122.08212
3191.00000    71.96457    36.72733    355.35690    396.56514    -121.48147
