~Version Information Block
 VERS.                2.00:     CWLS LOG ASCII STANDARD - VERSION 2.000000
 WRAP.                  NO:     One Line Per Depth Step
#
~Well Information Block
#MNEM.UNIT                     Data                         Information
#----------   ------------------------------------------   ----------------
 STRT.FT                                      250.0000:     START DEPTH
 STOP.FT                                    10290.0000:     STOP DEPTH
 STEP.FT                                        0.5000:     STEP
 NULL.                                       -999.2500:     NULL VALUE
 COMP.                                                :     COMPANY
 WELL.                                                :     WELL
 FLD .                                                :     FIELD
 LOC .                                                :     LOCATION
 CNTY.                                                :     COUNTY
 STAT.                                                :     STATE
 CTRY.                                                :     COUNTRY
 SRVC.                                                :     SERVICE COMPANY
 DATE.                                                :     DATE
 API .                                                4210931550:     API NUMBER
 UWI .                                                :     UWI NUMBER
 TVD .                                              NO:     TVD flag
 WSTA.                                             LOC:     Well status
#
~Curve Information Block
#MNEM.UNIT       API CODE      Curve Description
#----------    -------------   -------------------
 DEPT.FT                   :   Depth in Feet
 LLS .OHMM                 :   Latero-Log Shallow (Resistivity)
 LLD .OHMM                 :   Latero-Log Deep (Resistivity)
 SFLU.OHMM                 :   SFL Resistivity (Unaveraged)
 ILD .OHMM                 :   Deep Induction Standard Processed Resistivity
 ILM .OHMM                 :   Medium Induction Standard Processed Resistivity
#
~Parameter Information Block
#MNEM.UNIT            Value               Description
#----------    --------------------    -------------------
 RUN .                         ONE:    Run Number
 PDAT.                          GL:    Permanent Datum
 EPD .FT                          :    Elevation Of Perm. Datum
 LMF .               KELLY BUSHING:    Log Measured From
 EKB .FT                          :    Elevation Of Kelly Bushing
 DF .FT                           :    Elevation Of Derrick Floor
 GL .FT                           :    Elevation Of Ground Level
 TD  .FT                          :    Total Depth
 CSGD.FT                          :    Casing Bottom (Driller) 1
 CSGL.FT                          :    Casing Bottom (Logger) 1
 MUD .                            :    Drilling Fluid Type
 MUDV .CP                         :    Drilling Fluid Viscosity
 MUDD .LB/USG                     :    Drilling Fluid Density
 FL .ML/30MIN                     :    Drilling Fluid Loss
 PH.                              :    Drilling Fluid Ph
 MUDS .                           :    Mud Sample Source
 RM .OHMM                         :    Resistivity Of Mud Sample
 RMT .DEGF                        :    Mud Sample Temperature
 RMF .OHMM                        :    Mud Filtrate Resistivity
 RMFT.DEGF                        :    Mud Filtrate Sample Temperature
 RMC .OHMM                        :    Mud Cake Resistivity
 RMCT.DEGF                        :    Mud Cake Sample Temperature
 RMB .OHMM                        :    Mud Resistivity At Bht
 TMAX .DEGF                       :    Bottom Hole Temperature
#
~Other Information Block
<DescLogPlotStart>   NEURALOG PLOT DEFINITION
PLOTDEFVERSION: 3
LASFILE: E:\nds\projects\Texas Standard Oil LLC\pdf\Pradeep+Ekta\42109315500000
DEPTHSCALE: 240.000000
RESOLUTION: 200
DEPTHLABELFREQ: 100.000000
HEAVYGRIDFREQ: 100.000000
MEDIUMGRIDFREQ: 50.000000
LIGHTGRIDFREQ: 10.000000
#
#   TRACK 1
#
STARTTRACK: 
 LEFTX: 1.000000 inch
 RIGHTX: 6.000000 inch
 SCALETYPE: Log
 NUMCYCLES: 4
 STARTCYCLE: 2
CURVE: SFLU  0.200000   2000.000000 (0,0,255)      Solid             2     N   
CURVE: ILD   0.200000   2000.000000 (0,131,131)    Dot               2     N   
CURVE: ILM   0.200000   2000.000000 (255,0,255)    Short_Dash        2     N   
ENDTRACK: 
#
#   TRACK 2
#
STARTTRACK: 
 LEFTX: 1.000000 inch
 RIGHTX: 6.000000 inch
 SCALETYPE: Log
 NUMCYCLES: 4
 STARTCYCLE: 2
CURVE: LLS   0.200000   2000.000000 (255,0,0)      Solid             2     Y   
BACKUP: 2000.000000 20000000.000000 (255,0,0)      Solid             2    
CURVE: LLD   0.200000   2000.000000 (255,131,0)    Dot               2     Y   
BACKUP: 2000.000000 20000000.000000 (255,131,0)    Dot               2    
ENDTRACK: 
<DescLogPlotEnd>
~A DEPTH     LLS              LLD              SFLU             ILD              ILM             
# ...
    2997.000 2027.96355730    27783.13613154   -999.25000000    -999.25000000    -999.25000000   
    2997.500 2027.96355730    30270.16245342   -999.25000000    -999.25000000    -999.25000000   
    2998.000 2027.96355730    33593.36235757   -999.25000000    -999.25000000    -999.25000000   
    2998.500 2027.96355730    35650.47823157   -999.25000000    -999.25000000    -999.25000000   
    2999.000 2027.96355730    34712.57050701   -999.25000000    -999.25000000    -999.25000000   
    2999.500 2027.96355730    34712.57050701   -999.25000000    -999.25000000    -999.25000000   
    3000.000 2027.96355730    34712.57050701   0.44470409       39.62056530      1954.33903004   
    3000.500 -999.25000000    -999.25000000    0.44470409       39.25623380      1954.33903004   
    3001.000 -999.25000000    -999.25000000    0.44470409       37.83210333      1954.33903004   
    3001.500 -999.25000000    -999.25000000    0.44527123       39.25623380      1983.44936314   
    3002.000 -999.25000000    -999.25000000    0.44470409       43.85842835      1954.34427470   
    3002.500 -999.25000000    -999.25000000    0.44470409       98.88086169      1955.53532888   
    3003.000 -999.25000000    -999.25000000    0.45299686       137.89405480     1958.34077414   
    3003.500 -999.25000000    -999.25000000    0.45299686       141.76912230     1866.12067648   
    3004.000 -999.25000000    -999.25000000    0.45299686       143.08486126     1685.80496144   
    3004.500 -999.25000000    -999.25000000    0.45722761       151.23973349     604.60442257    
    3005.000 -999.25000000    -999.25000000    0.45700530       175.33090767     907.82242904    
    3005.500 -999.25000000    -999.25000000    0.45723971       195.88578188     835.39636925    
    3006.000 -999.25000000    -999.25000000    0.45720594       167.41651628     38.89525252     
    3006.500 -999.25000000    -999.25000000    0.45720106       108.45076092     39.62056530     
    3007.000 -999.25000000    -999.25000000    0.45720106       88.50500055      37.13953098     
    3007.500 -999.25000000    -999.25000000    0.46572687       92.68895581      44.67629368     
    3008.000 -999.25000000    -999.25000000    0.46144428       97.97160127      43.45512753     
    3008.500 -999.25000000    -999.25000000    0.46474910       104.51640403     42.65961745     
    3009.000 -999.25000000    -999.25000000    0.46572687       111.49841964     40.73397345     
    3009.500 -999.25000000    -999.25000000    0.47939962       112.53322054     40.24143901     
    3010.000 -999.25000000    -999.25000000    0.47833187       115.69560361     35.10907129     
    3010.500 -999.25000000    -999.25000000    0.47894881       126.89286918     22.27750694     
    3011.000 -999.25000000    -999.25000000    0.48325844       131.66955317     22.61065725     
    3011.500 -999.25000000    -999.25000000    0.47881463       134.12490704     22.34469489     
    3012.000 -999.25000000    -999.25000000    0.48195660       141.76912230     22.80117043     
    3012.500 -999.25000000    -999.25000000    0.48797418       181.61381822     22.60896371     
    3013.000 -999.25000000    -999.25000000    0.48755970       244.23141409     20.94547319     
    3013.500 -999.25000000    -999.25000000    0.48775406       283.80212765     21.33606120     
    3014.000 -999.25000000    -999.25000000    0.48774299       253.86245691     19.17056047     
    3014.500 -999.25000000    -999.25000000    0.48774349       205.34405307     17.67049240     
    3015.000 -999.25000000    -999.25000000    0.48774349       154.06002912     16.32169287     
    3015.500 -999.25000000    -999.25000000    0.48774349       141.57020713     15.01954845     
    3016.000 -999.25000000    -999.25000000    0.48774349       131.93647384     15.45430966     
    3016.500 -999.25000000    -999.25000000    0.48774349       124.02065514     16.27485067     
    3017.000 -999.25000000    -999.25000000    0.48774349       118.97981900     16.93609752     
    3017.500 -999.25000000    -999.25000000    0.48774349       116.73713166     16.78036138     
    3018.000 -999.25000000    -999.25000000    0.48774349       119.45078764     16.83597794     
    3018.500 -999.25000000    -999.25000000    0.48774349       123.40749021     16.90739076     
    3019.000 -999.25000000    -999.25000000    0.48774349       120.43012245     17.09327902     
    3019.500 -999.25000000    -999.25000000    0.48774349       115.40192739     16.78036138     
    3020.000 -999.25000000    -999.25000000    0.48774349       107.00798422     17.17818565     
    3020.500 -999.25000000    -999.25000000    0.48775202       97.05276872      17.84520207     
    3021.000 -999.25000000    -999.25000000    0.48769523       89.32640281      18.40440030     
    3021.500 -999.25000000    -999.25000000    0.48758603       89.32640281      19.81608970     
    3022.000 -999.25000000    -999.25000000    0.48325844       95.58021645      19.81608970     
    3022.500 -999.25000000    -999.25000000    0.48774349       101.30802228     18.92159659     
    3023.000 -999.25000000    -999.25000000    0.48325844       108.45076092     19.63387056     
    3023.500 -999.25000000    -999.25000000    0.48774349       101.65958927     20.56203547     
    3024.000 -999.25000000    -999.25000000    0.48774349       103.95789525     20.37295697     
    3024.500 -999.25000000    -999.25000000    0.48325844       108.91260359     21.83393404     
    3025.000 -999.25000000    -999.25000000    0.48325564       113.33064496     21.91227297     
    3025.500 -999.25000000    -999.25000000    0.48380250       119.92152896     21.99042417     
    3026.000 -999.25000000    -999.25000000    0.48395950       124.87201891     22.13922392     
    3026.500 -999.25000000    -999.25000000    0.48750005       129.75728666     20.32258002     
    3027.000 -999.25000000    -999.25000000    0.48774349       134.53441849     19.27444365     
    3027.500 -999.25000000    -999.25000000    0.48325844       135.36970113     18.23516236     
    3028.000 -999.25000000    -999.25000000    0.48324984       131.77420260     17.97167056     
    3028.500 -999.25000000    -999.25000000    0.48780100       125.19519723     17.33250233     
    3029.000 -999.25000000    -999.25000000    0.48770185       121.16495819     16.78036138     
    3029.500 -999.25000000    -999.25000000    0.48774117       122.77621720     16.32169287     
    3030.000 -999.25000000    -999.25000000    0.48774349       123.42442397     17.00193693     
    3030.500 -999.25000000    -999.25000000    0.48774349       113.55454442     18.48824095     
    3031.000 -999.25000000    -999.25000000    0.48773944       104.70784571     19.47735602     
    3031.500 -999.25000000    -999.25000000    0.48770873       103.35308487     19.42148132     
    3032.000 -999.25000000    -999.25000000    0.48762889       112.00222752     21.95014682     
    3032.500 -999.25000000    -999.25000000    0.48325844       125.58883491     25.19595931     
    3033.000 -999.25000000    -999.25000000    0.45299686       134.12490704     25.19595931     
    3033.500 -999.25000000    -999.25000000    0.42857119       110.47313427     22.13922392     
    3034.000 -999.25000000    -999.25000000    0.42072557       102.76665587     20.56203547     
    3034.500 -999.25000000    -999.25000000    0.43356600       95.80212078      21.33606120     
    3035.000 -999.25000000    -999.25000000    0.44470409       89.81753499      21.93564236     
    3035.500 -999.25000000    -999.25000000    0.44883132       84.59076371      22.13922392     
    3036.000 -999.25000000    -999.25000000    0.42857119       64.64851917      23.18582606     
    3036.500 -999.25000000    -999.25000000    0.41222308       46.78830558      24.50726179     
    3037.000 -999.25000000    -999.25000000    0.40922560       49.00016000      27.38036437     
    3037.500 -999.25000000    -999.25000000    0.43455128       54.74468125      46.06114796     
