~Version Information Block
 VERS.                2.00:     CWLS LOG ASCII STANDARD - VERSION 2.000000
 WRAP.                  NO:     One Line Per Depth Step
#
~Well Information Block
#MNEM.UNIT                     Data                         Information
#----------   ------------------------------------------   ----------------
 STRT.FT                                      250.0000:     START DEPTH
 STOP.FT                                    10290.0000:     STOP DEPTH
 STEP.FT                                        0.5000:     STEP
 NULL.                                       -999.2500:     NULL VALUE
 COMP.                                                :     COMPANY
 WELL.                                                :     WELL
 FLD .                                                :     FIELD
 LOC .                                                :     LOCATION
 CNTY.                                                :     COUNTY
 STAT.                                                :     STATE
 CTRY.                                                :     COUNTRY
 SRVC.                                                :     SERVICE COMPANY
 DATE.                                                :     DATE
 API .                                                4210931550:     API NUMBER
 UWI .                                                :     UWI NUMBER
 TVD .                                              NO:     TVD flag
 WSTA.                                             LOC:     Well status
#
~Curve Information Block
#MNEM.UNIT       API CODE      Curve Description
#----------    -------------   -------------------
 DEPT.FT                   :   Depth in Feet
 LLS .OHMM                 :   Latero-Log Shallow (Resistivity)
 LLD .OHMM                 :   Latero-Log Deep (Resistivity)
 SFLU.OHMM                 :   SFL Resistivity (Unaveraged)
 ILD .OHMM                 :   Deep Induction Standard Processed Resistivity
 ILM .OHMM                 :   Medium Induction Standard Processed Resistivity
#
~Parameter Information Block
#MNEM.UNIT            Value               Description
#----------    --------------------    -------------------
 RUN .                         ONE:    Run Number
 PDAT.                          GL:    Permanent Datum
 EPD .FT                          :    Elevation Of Perm. Datum
 LMF .               KELLY BUSHING:    Log Measured From
 EKB .FT                          :    Elevation Of Kelly Bushing
 DF .FT                           :    Elevation Of Derrick Floor
 GL .FT                           :    Elevation Of Ground Level
 TD  .FT                          :    Total Depth
 CSGD.FT                          :    Casing Bottom (Driller) 1
 CSGL.FT                          :    Casing Bottom (Logger) 1
 MUD .                            :    Drilling Fluid Type
 MUDV .CP                         :    Drilling Fluid Viscosity
 MUDD .LB/USG                     :    Drilling Fluid Density
 FL .ML/30MIN                     :    Drilling Fluid Loss
 PH.                              :    Drilling Fluid Ph
 MUDS .                           :    Mud Sample Source
 RM .OHMM                         :    Resistivity Of Mud Sample
 RMT .DEGF                        :    Mud Sample Temperature
 RMF .OHMM                        :    Mud Filtrate Resistivity
 RMFT.DEGF                        :    Mud Filtrate Sample Temperature
 RMC .OHMM                        :    Mud Cake Resistivity
 RMCT.DEGF                        :    Mud Cake Sample Temperature
 RMB .OHMM                        :    Mud Resistivity At Bht
 TMAX .DEGF                       :    Bottom Hole Temperature
#
~Other Information Block
<DescLogPlotStart>   NEURALOG PLOT DEFINITION
PLOTDEFVERSION: 3
LASFILE: E:\nds\projects\Texas Standard Oil LLC\pdf\Pradeep+Ekta\42109315500000
DEPTHSCALE: 240.000000
RESOLUTION: 200
DEPTHLABELFREQ: 100.000000
HEAVYGRIDFREQ: 100.000000
MEDIUMGRIDFREQ: 50.000000
LIGHTGRIDFREQ: 10.000000
#
#   TRACK 1
#
STARTTRACK: 
 LEFTX: 1.000000 inch
 RIGHTX: 6.000000 inch
 SCALETYPE: Log
 NUMCYCLES: 4
 STARTCYCLE: 2
CURVE: SFLU  0.200000   2000.000000 (0,0,255)      Solid             2     N   
CURVE: ILD   0.200000   2000.000000 (0,131,131)    Dot               2     N   
CURVE: ILM   0.200000   2000.000000 (255,0,255)    Short_Dash        2     N   
ENDTRACK: 
#
#   TRACK 2
#
STARTTRACK: 
 LEFTX: 1.000000 inch
 RIGHTX: 6.000000 inch
 SCALETYPE: Log
 NUMCYCLES: 4
 STARTCYCLE: 2
CURVE: LLS   0.200000   2000.000000 (255,0,0)      Solid             2     Y   
BACKUP: 2000.000000 20000000.000000 (255,0,0)      Solid             2    
CURVE: LLD   0.200000   2000.000000 (255,131,0)    Dot               2     Y   
BACKUP: 2000.000000 20000000.000000 (255,131,0)    Dot               2    
ENDTRACK: 
<DescLogPlotEnd>
~A DEPTH     LLS              LLD              SFLU             ILD              ILM             
# ...
    4924.000 -999.25000000    -999.25000000    1477.34978931    1954.66501316    1467.66448794   
    4924.500 -999.25000000    -999.25000000    1288.48373177    1918.45354538    1350.57423706   
    4925.000 -999.25000000    -999.25000000    1197.73845022    1917.82758337    1225.72228442   
    4925.500 -999.25000000    -999.25000000    1052.43064650    1954.33903004    1133.15618867   
    4926.000 -999.25000000    -999.25000000    1197.73845022    1972.47697123    1154.28711353   
    4926.500 -999.25000000    -999.25000000    1467.66448794    1972.24308849    1551.31146685   
    4927.000 -999.25000000    -999.25000000    1676.77268350    1972.88353657    1594.90607035   
    4927.500 -999.25000000    -999.25000000    1562.79500232    1935.96105886    1594.90607035   
    4928.000 -999.25000000    -999.25000000    1417.37531403    1936.73525073    1414.42082376   
    4928.500 -999.25000000    -999.25000000    1326.19069228    1900.91981201    1164.99988724   
    4929.000 -999.25000000    -999.25000000    1297.97204189    1954.33903004    1350.57423706   
    4929.500 -999.25000000    -999.25000000    1436.60732392    1954.33903004    1580.24008796   
    4930.000 -999.25000000    -999.25000000    1900.91981201    1954.33903004    1580.24008796   
    4930.500 -999.25000000    -999.25000000    1990.78324807    1954.33903004    1580.24008796   
    4931.000 -999.25000000    -999.25000000    1993.02222058    1936.36787656    1624.64763702   
    4931.500 -999.25000000    -999.25000000    1971.38034338    1938.48135965    1749.26445787   
    4932.000 -999.25000000    -999.25000000    1886.01053173    1850.37225511    1733.17907065   
    4932.500 -999.25000000    -999.25000000    1751.07060558    1545.84258428    1798.42189149   
    4933.000 -999.25000000    -999.25000000    1537.04635929    1639.72575951    1935.33685561   
    4933.500 -999.25000000    -999.25000000    941.99598739     1798.42189149    2010.91407362   
    4934.000 -999.25000000    -999.25000000    827.71446957     1954.33903004    1957.27844859   
    4934.500 -999.25000000    -999.25000000    1090.31968473    1973.79231651    1717.24159685   
    4935.000 -999.25000000    -999.25000000    1289.60966862    1973.92592096    1624.64763702   
    4935.500 -999.25000000    -999.25000000    1313.65811426    1955.34404098    1624.64763702   
    4936.000 -999.25000000    -999.25000000    1401.41449614    1955.65001513    1580.24008796   
    4936.500 -999.25000000    -999.25000000    1654.94381991    1798.42189149    1350.57423706   
    4937.000 -999.25000000    -999.25000000    1781.88447636    1580.24008796    866.84356162    
    4937.500 -999.25000000    -999.25000000    1998.76569437    1463.23232395    554.65646659    
    4938.000 -999.25000000    -999.25000000    2024.03274147    1302.78276499    425.48377756    
    4938.500 -999.25000000    -999.25000000    1104.06664376    985.74670184     312.16960849    
    4939.000 -999.25000000    -999.25000000    716.19618233     940.12711879     288.74098320    
    4939.500 -999.25000000    -999.25000000    507.27403524     907.82242904     302.39082614    
    4940.000 -999.25000000    -999.25000000    979.78066243     883.00832897     313.77385680    
    4940.500 -999.25000000    -999.25000000    1551.31146685    850.64710359     325.58538387    
    4941.000 -999.25000000    -999.25000000    1609.70816562    850.96384636     322.59145866    
    4941.500 -999.25000000    -999.25000000    1639.72575951    842.06372278     331.65685077    
    4942.000 -999.25000000    -999.25000000    1481.28567227    868.58340162     344.14155524    
    4942.500 -999.25000000    -999.25000000    1440.48582345    950.73851750     363.75530324    
    4943.000 -999.25000000    -999.25000000    1558.17064204    1014.25075977    388.05527060    
    4943.500 -999.25000000    -999.25000000    1654.94381991    1062.19810489    410.17180425    
    4944.000 -999.25000000    -999.25000000    1624.86205950    1082.00581416    429.56212649    
    4944.500 -999.25000000    -999.25000000    1537.04635929    1014.25075977    445.73232225    
    4945.000 -999.25000000    -999.25000000    1414.42082376    883.00832897     462.51121978    
    4945.500 -999.25000000    -999.25000000    1375.08772680    924.75136411     475.50860533    
    4946.000 -999.25000000    -999.25000000    1548.78715864    950.73851750     507.27403524    
    4946.500 -999.25000000    -999.25000000    1703.57039839    986.52758500     582.67069378    
    4947.000 -999.25000000    -999.25000000    1765.49913127    1042.75300490    650.97994382    
    4947.500 -999.25000000    -999.25000000    1639.72575951    1186.72462857    688.08141087    
    4948.000 -999.25000000    -999.25000000    1522.91242674    1375.75954074    561.53267279    
    4948.500 -999.25000000    -999.25000000    1815.11278800    1522.91242674    644.99384811    
    4949.000 -999.25000000    -999.25000000    1831.95859034    1749.26445787    995.68340651    
    4949.500 -999.25000000    -999.25000000    1848.96073617    1831.95859034    1375.75954074   
    4950.000 -999.25000000    -999.25000000    1831.95859034    1840.44002995    1565.70896684   
    4950.500 -999.25000000    -999.25000000    1815.11278800    1866.12067648    1701.45067632   
    4951.000 -999.25000000    -999.25000000    1866.12067648    1866.12067648    1781.88447636   
    4951.500 -999.25000000    -999.25000000    1918.56197708    1866.12067648    1866.12067648   
    4952.000 -999.25000000    -999.25000000    1918.56197708    1848.96073617    1798.42189149   
    4952.500 -999.25000000    -999.25000000    1866.12067648    1831.95859034    1717.24159685   
    4953.000 -999.25000000    -999.25000000    1740.48501019    1733.17907065    1594.90607035   
    4953.500 -999.25000000    -999.25000000    1438.60753092    1454.16855741    1042.75300490   
    4954.000 -999.25000000    -999.25000000    704.63354253     695.62315173     669.27363476    
    4954.500 -999.25000000    -999.25000000    456.73669334     456.73669334     111.49841964    
    4955.000 -999.25000000    -999.25000000    175.33090767     175.33090767     98.88086169     
    4955.500 -999.25000000    -999.25000000    132.89155947     132.89155947     85.29423231     
    4956.000 -999.25000000    -999.25000000    96.67693523      81.69774002      80.69515275     
    4956.500 -999.25000000    -999.25000000    88.50500055      82.44454741      79.21790919     
    4957.000 -999.25000000    -999.25000000    95.29367986      79.92551429      83.73279582     
    4957.500 -999.25000000    -999.25000000    137.89405480     79.17824698      86.08583588     
    4958.000 -999.25000000    -999.25000000    227.08868328     79.21790919      86.08583588     
    4958.500 -999.25000000    -999.25000000    240.03120690     84.50990793      79.95311928     
    4959.000 -999.25000000    -999.25000000    251.37836046     88.50500055      78.46611606     
    4959.500 -999.25000000    -999.25000000    185.32358710     97.97160127      78.50443102     
    4960.000 -999.25000000    -999.25000000    164.76977107     104.51640403     76.99181222     
    4960.500 -999.25000000    -999.25000000    151.23973349     106.46541009     77.00530133     
    4961.000 -999.25000000    -999.25000000    136.23579818     110.47313427     77.72432305     
    4961.500 -999.25000000    -999.25000000    117.90382113     117.85307769     86.83484598     
    4962.000 -999.25000000    -999.25000000    146.65605223     131.66955317     85.96057535     
    4962.500 -999.25000000    -999.25000000    227.08868328     152.64336784     145.75308607    
    4963.000 -999.25000000    -999.25000000    507.27403524     170.53847410     161.34301049    
    4963.500 -999.25000000    -999.25000000    1363.10872351    208.97155152     178.60045187    
    4964.000 -999.25000000    -999.25000000    1414.42082376    244.50727246     185.42299153    
    4964.500 -999.25000000    -999.25000000    663.11931915     296.85511692     195.89579414    
