~Version Information Block
 VERS.                2.00:     CWLS LOG ASCII STANDARD - VERSION 2.000000
 WRAP.                  NO:     One Line Per Depth Step
#
~Well Information Block
#MNEM.UNIT                     Data                         Information
#----------   ------------------------------------------   ----------------
 STRT.FT                                        4.0000:     START DEPTH
 STOP.FT                                    10300.0000:     STOP DEPTH
 STEP.FT                                        0.5000:     STEP
 NULL.                                       -999.2500:     NULL VALUE
 COMP.                            MONSANTO OIL COMPANY:     COMPANY
 WELL.                               UNIVERSITY_6-46-1:     WELL
 FLD .                                         WILDCAT:     FIELD
 LOC .                                                :     LOCATION
 CNTY.                                       CULBERSON:     COUNTY
 STAT.                                           TEXAS:     STATE
 CTRY.                                             USA:     COUNTRY
 SRVC.                                                :     SERVICE COMPANY
 DATE.                                      10/31/2016:     DATE
 API .                                  42109315500000:     API NUMBER
 UWI .                                  42109315500000:     UWI NUMBER
 TVD .                                              NO:     TVD flag
 WSTA.                                             LOC:     Well status
#
~Curve Information Block
#MNEM.UNIT       API CODE      Curve Description
#----------    -------------   -------------------
 DEPT.FT                   :   Depth in Feet
 CALI.IN                   :   Caliper
 GR  .GAPI                 :   Gamma Ray
 DPHI.V/V                  :   Density Porosity
 NPHI.V/V                  :   Neutron Porosity
 DRHO.G/C3                 :   Delta Rho
 RHOB.G/C3                 :   Bulk Density
#
~Parameter Information Block
#MNEM.UNIT            Value               Description
#----------    --------------------    -------------------
 RUN .                         ONE:    Run Number
 PDAT.                          GL:    Permanent Datum
 EPD .FT                          :    Elevation Of Perm. Datum
 LMF .               KELLY BUSHING:    Log Measured From
 EKB .FT                          :    Elevation Of Kelly Bushing
 DF .FT                           :    Elevation Of Derrick Floor
 GL .FT                           :    Elevation Of Ground Level
 TD  .FT                          :    Total Depth
 CSGD.FT                          :    Casing Bottom (Driller) 1
 CSGL.FT                          :    Casing Bottom (Logger) 1
 MUD .                            :    Drilling Fluid Type
 MUDV .CP                         :    Drilling Fluid Viscosity
 MUDD .LB/USG                     :    Drilling Fluid Density
 FL .ML/30MIN                     :    Drilling Fluid Loss
 PH.                              :    Drilling Fluid Ph
 MUDS .                           :    Mud Sample Source
 RM .OHMM                         :    Resistivity Of Mud Sample
 RMT .DEGF                        :    Mud Sample Temperature
 RMF .OHMM                        :    Mud Filtrate Resistivity
 RMFT.DEGF                        :    Mud Filtrate Sample Temperature
 RMC .OHMM                        :    Mud Cake Resistivity
 RMCT.DEGF                        :    Mud Cake Sample Temperature
 RMB .OHMM                        :    Mud Resistivity At Bht
 TMAX .DEGF                       :    Bottom Hole Temperature   
#
~Other Information Block
<DescLogPlotStart>   NEURALOG PLOT DEFINITION
PLOTDEFVERSION: 3
LASFILE: E:\nds\projects\Texas Standard Oil LLC\pdf\Pradeep+Ekta\42109315500000
DEPTHSCALE: 240.000000
RESOLUTION: 200
DEPTHLABELFREQ: 100.000000
HEAVYGRIDFREQ: 100.000000
MEDIUMGRIDFREQ: 50.000000
LIGHTGRIDFREQ: 10.000000
#
#   TRACK 1
#
STARTTRACK: 
 LEFTX: 0.500000 inch
 RIGHTX: 3.000000 inch
 SCALETYPE: Linear
 NUMCHARTDIVISIONS: 10
CURVE: CALI  6.000000   16.000000  (0,0,255)      Solid             2     N    
CURVE: GR    0.000000   100.000000 (0,131,131)    Dot               2     Y    
BACKUP: 100.000000 200.000000 (0,131,131)    Dot               2    
ENDTRACK: 
#
#   TRACK 2
#
STARTTRACK: 
 LEFTX: 3.500000 inch
 RIGHTX: 8.500000 inch
 SCALETYPE: Linear
 NUMCHARTDIVISIONS: 10
CURVE: DPHI  0.300000   -0.100000  (255,0,255)    Solid             2     Y    
BACKUP: 0.700000   0.300000   (255,0,255)    Solid             2    
CURVE: NPHI  0.300000   -0.100000  (255,0,0)      Dot               2     Y    
BACKUP: 0.700000   0.300000   (255,0,0)      Dot               2    
CURVE: DRHO  -0.050000  0.950000   (255,131,0)    Short_Dash        2     N    
ENDTRACK: 
#
#   TRACK 3
#
STARTTRACK: 
 LEFTX: 8.500000 inch
 RIGHTX: 13.500000 inch
 SCALETYPE: Linear
 NUMCHARTDIVISIONS: 10
CURVE: RHOB  2.000000   3.000000   (255,255,0)    Solid             2     Y    
BACKUP: 1.000000   2.000000   (255,255,0)    Solid             2    
ENDTRACK: 
<DescLogPlotEnd>
~A DEPTH     CALI             GR               DPHI             NPHI             DRHO             RHOB            
# ...
    9559.000 8.33546503       75.32471470      0.01355266       0.01374122       0.06240427       2.68818928      
    9559.500 8.35502480       74.04651700      0.00932798       0.01455848       0.06782912       2.69796703      
    9560.000 8.35479148       70.21208623      0.00432631       0.01493701       0.07599576       2.70581692      
    9560.500 8.35449960       67.19406046      -0.00068205      0.01493630       0.08150544       2.70806859      
    9561.000 8.37074208       65.20957855      -0.00270812      0.01457545       0.07787331       2.70922442      
    9561.500 8.39949215       65.41965963      0.00692076       0.01454363       0.07285436       2.70433389      
    9562.000 8.41448982       66.97948286      0.01158389       0.01334002       0.03118781       2.69637101      
    9562.500 8.41473648       68.43982315      0.01391317       0.01354062       0.02858475       2.68787514      
    9563.000 8.44592314       67.67581867      0.01467249       0.01454363       0.04115445       2.68523566      
    9563.500 8.43967300       65.68067267      0.01049909       0.01494483       0.05889143       2.70554251      
    9564.000 8.45913717       65.30648707      -0.01661578      0.01494483       0.05234522       2.72361608      
    9564.500 8.47012976       68.72842525      -0.02397192      0.01534604       0.19136805       2.72803657      
    9565.000 8.47326850       76.47651752      -0.00273105      0.01977074       0.14730196       2.71007449      
    9565.500 8.49383772       82.91642325      0.03059178       0.02501161       0.10608244       2.68366981      
    9566.000 8.52770445       78.75013614      0.03623091       0.03016026       0.07045359       2.65991084      
    9566.500 8.54939399       66.23776132      0.04062187       0.02377102       0.02923530       2.67811009      
    9567.000 8.55903984       54.07361640      0.00932798       0.01728841       0.01430235       2.69663470      
    9567.500 8.58526565       42.39908616      -0.00295264      0.01145394       0.02096031       2.71617648      
    9568.000 8.61046210       33.56325741      -0.00463824      0.01031148       0.02816800       2.72274666      
    9568.500 8.63507621       30.61950409      -0.00681159      0.01008016       0.03604453       2.72971923      
    9569.000 8.65975776       27.13689271      -0.01434303      0.01092029       0.05023824       2.72876204      
    9569.500 8.68434587       25.84052381      -0.01675025      0.01212063       0.05790430       2.76756799      
    9570.000 8.70926657       31.47372747      -0.01462387      0.02382126       0.20222564       2.76537233      
    9570.500 8.72009780       39.40569306      -0.01849147      0.03674916       0.19376338       2.76417043      
    9571.000 8.75181484       56.67140619      -0.02637914      0.05452185       0.21095746       2.73791218      
    9571.500 8.86143084       90.03737247      -0.01033099      0.13662874       0.21471497       2.74476707      
    9572.000 8.96977229       108.13306613     0.09317954       0.21873564       0.21860828       2.55715478      
    9572.500 9.07809942       122.58917836     0.08595787       0.27223671       0.11190153       2.56422240      
    9573.000 9.07728209       127.15430862     0.08956871       0.28615848       0.05585931       2.65895339      
    9573.500 8.90859428       128.32617231     0.04033746       0.28535607       0.06912636       2.68052992      
    9574.000 8.83979159       127.27406476     0.02255281       0.27839920       0.08414202       2.68795758      
    9574.500 8.84263111       126.28832477     0.01777504       0.27636108       0.10538017       2.69180183      
    9575.000 8.84711825       125.75876358     0.01354062       0.28056625       0.12656631       2.69268353      
    9575.500 8.85162897       126.75888277     0.01419325       0.29358280       0.14754598       2.68194518      
    9576.000 8.85599198       128.66920883     0.02688867       0.29598040       0.14829133       2.64709044      
    9576.500 8.86035500       130.51555532     0.04343029       0.29780195       0.12083204       2.64096386      
    9577.000 8.86471801       131.63796821     0.04022066       0.29618857       0.07516250       2.64730345      
    9577.500 8.86908102       132.44912456     0.03500502       0.28495486       0.05986473       2.65854653      
    9578.000 8.87344403       130.12394408     0.02833166       0.27845637       0.04460981       2.66494800      
    9578.500 8.87780704       126.45534994     0.02489565       0.27295939       0.04689286       2.66221891      
    9579.000 8.88217005       123.10881610     0.02985357       0.27145585       0.05217977       2.63364284      
    9579.500 8.88649756       121.91174349     0.04434608       0.28970346       0.06187514       2.61552261      
    9580.000 8.89115314       106.44765064     0.05551362       0.29618857       0.05488842       2.59804493      
    9580.500 8.89681153       92.15127114      0.05807307       0.27622066       0.04656262       2.63319838      
    9581.000 8.88044949       71.22762499      0.02699317       0.20862320       0.03830473       2.71818250      
    9581.500 8.81493309       62.45666015      -0.01265038      0.14102574       0.03502764       2.73274915      
    9582.000 8.82088228       60.02171194      -0.00960153      0.07342828       0.03632316       2.73360202      
    9582.500 8.82946010       96.28744464      -0.01555877      0.05546640       0.03644818       2.73774245      
    9583.000 8.83518913       108.05332609     -0.01678756      0.10359609       0.03932080       2.73737694      
    9583.500 8.85946274       125.37839355     -0.01715321      0.19245879       0.04621444       2.72927233      
    9584.000 8.89072698       136.16615485     -0.00884649      0.27424095       0.05998215       2.71783001      
    9584.500 8.92212829       137.13605749     0.00035715       0.30621866       0.06908503       2.69511306      
    9585.000 8.95344250       136.74199650     0.00901455       0.30312939       0.07282437       2.69621158      
    9585.500 8.98507315       136.96227846     0.00600752       0.30060181       0.06837389       2.69859111      
    9586.000 8.99586665       138.06151987     0.00160101       0.30100301       0.07236295       2.70787196      
    9586.500 8.99611244       138.15693894     0.00282058       0.30541625       0.08449989       2.70735294      
    9587.000 8.99615381       136.32715119     0.01403280       0.30100301       0.10257884       2.69598162      
    9587.500 8.99245263       133.75942096     0.02843054       0.31685055       0.11722848       2.65286451      
    9588.000 8.95817154       131.83683972     0.03964611       0.29979940       0.12333147       2.63198295      
    9588.500 8.92346623       130.34263237     0.04557281       0.29746239       0.09533401       2.63226468      
    9589.000 8.88886452       129.09671231     0.04463390       0.29057172       0.06324135       2.63491701      
    9589.500 8.85428971       128.56821553     0.04343029       0.28575727       0.04693429       2.62999386      
    9590.000 8.81971490       127.95314254     0.04607378       0.28836911       0.03837999       2.62292920      
    9590.500 8.78514009       127.22398919     0.04992355       0.29224152       0.03084287       2.62092452      
    9591.000 8.75056528       127.85257261     0.05065196       0.29338014       0.02328023       2.62150715      
    9591.500 8.71595360       129.28424486     0.04383149       0.29458375       0.02439801       2.63970968      
    9592.000 8.68158596       131.09412062     0.03391775       0.29489669       0.02613629       2.65298563      
    9592.500 8.64618045       132.74683813     0.02337011       0.29285858       0.02941691       2.66926019      
    9593.000 8.64655579       134.34910438     0.01614845       0.28856570       0.03453322       2.68202464      
    9593.500 8.65810174       136.13754050     0.01374122       0.28335005       0.03966154       2.68549382      
