~Version Information Block
 VERS.                2.00:     CWLS LOG ASCII STANDARD - VERSION 2.000000
 WRAP.                  NO:     One Line Per Depth Step
#
~Well Information Block
#MNEM.UNIT                     Data                         Information
#----------   ------------------------------------------   ----------------
 STRT.FT                                      250.0000:     START DEPTH
 STOP.FT                                    10290.0000:     STOP DEPTH
 STEP.FT                                        0.5000:     STEP
 NULL.                                       -999.2500:     NULL VALUE
 COMP.                                                :     COMPANY
 WELL.                                                :     WELL
 FLD .                                                :     FIELD
 LOC .                                                :     LOCATION
 CNTY.                                                :     COUNTY
 STAT.                                                :     STATE
 CTRY.                                                :     COUNTRY
 SRVC.                                                :     SERVICE COMPANY
 DATE.                                                :     DATE
 API .                                                4210931550:     API NUMBER
 UWI .                                                :     UWI NUMBER
 TVD .                                              NO:     TVD flag
 WSTA.                                             LOC:     Well status
#
~Curve Information Block
#MNEM.UNIT       API CODE      Curve Description
#----------    -------------   -------------------
 DEPT.FT                   :   Depth in Feet
 LLS .OHMM                 :   Latero-Log Shallow (Resistivity)
 LLD .OHMM                 :   Latero-Log Deep (Resistivity)
 SFLU.OHMM                 :   SFL Resistivity (Unaveraged)
 ILD .OHMM                 :   Deep Induction Standard Processed Resistivity
 ILM .OHMM                 :   Medium Induction Standard Processed Resistivity
#
~Parameter Information Block
#MNEM.UNIT            Value               Description
#----------    --------------------    -------------------
 RUN .                         ONE:    Run Number
 PDAT.                          GL:    Permanent Datum
 EPD .FT                          :    Elevation Of Perm. Datum
 LMF .               KELLY BUSHING:    Log Measured From
 EKB .FT                          :    Elevation Of Kelly Bushing
 DF .FT                           :    Elevation Of Derrick Floor
 GL .FT                           :    Elevation Of Ground Level
 TD  .FT                          :    Total Depth
 CSGD.FT                          :    Casing Bottom (Driller) 1
 CSGL.FT                          :    Casing Bottom (Logger) 1
 MUD .                            :    Drilling Fluid Type
 MUDV .CP                         :    Drilling Fluid Viscosity
 MUDD .LB/USG                     :    Drilling Fluid Density
 FL .ML/30MIN                     :    Drilling Fluid Loss
 PH.                              :    Drilling Fluid Ph
 MUDS .                           :    Mud Sample Source
 RM .OHMM                         :    Resistivity Of Mud Sample
 RMT .DEGF                        :    Mud Sample Temperature
 RMF .OHMM                        :    Mud Filtrate Resistivity
 RMFT.DEGF                        :    Mud Filtrate Sample Temperature
 RMC .OHMM                        :    Mud Cake Resistivity
 RMCT.DEGF                        :    Mud Cake Sample Temperature
 RMB .OHMM                        :    Mud Resistivity At Bht
 TMAX .DEGF                       :    Bottom Hole Temperature
#
~Other Information Block
<DescLogPlotStart>   NEURALOG PLOT DEFINITION
PLOTDEFVERSION: 3
LASFILE: E:\nds\projects\Texas Standard Oil LLC\pdf\Pradeep+Ekta\42109315500000
DEPTHSCALE: 240.000000
RESOLUTION: 200
DEPTHLABELFREQ: 100.000000
HEAVYGRIDFREQ: 100.000000
MEDIUMGRIDFREQ: 50.000000
LIGHTGRIDFREQ: 10.000000
#
#   TRACK 1
#
STARTTRACK: 
 LEFTX: 1.000000 inch
 RIGHTX: 6.000000 inch
 SCALETYPE: Log
 NUMCYCLES: 4
 STARTCYCLE: 2
CURVE: SFLU  0.200000   2000.000000 (0,0,255)      Solid             2     N   
CURVE: ILD   0.200000   2000.000000 (0,131,131)    Dot               2     N   
CURVE: ILM   0.200000   2000.000000 (255,0,255)    Short_Dash        2     N   
ENDTRACK: 
#
#   TRACK 2
#
STARTTRACK: 
 LEFTX: 1.000000 inch
 RIGHTX: 6.000000 inch
 SCALETYPE: Log
 NUMCYCLES: 4
 STARTCYCLE: 2
CURVE: LLS   0.200000   2000.000000 (255,0,0)      Solid             2     Y   
BACKUP: 2000.000000 20000000.000000 (255,0,0)      Solid             2    
CURVE: LLD   0.200000   2000.000000 (255,131,0)    Dot               2     Y   
BACKUP: 2000.000000 20000000.000000 (255,131,0)    Dot               2    
ENDTRACK: 
<DescLogPlotEnd>
~A DEPTH     LLS              LLD              SFLU             ILD              ILM             
# ...
    6851.000 -999.25000000    -999.25000000    237.73613137     67.08211176      58.94381218     
    6851.500 -999.25000000    -999.25000000    249.06680702     63.46503285      54.24127573     
    6852.000 -999.25000000    -999.25000000    210.91098662     64.64851917      52.27352064     
    6852.500 -999.25000000    -999.25000000    180.25801713     65.85407495      57.86475893     
    6853.000 -999.25000000    -999.25000000    176.95812877     64.05404275      64.05404275     
    6853.500 -999.25000000    -999.25000000    190.53150858     60.60023784      65.24851283     
    6854.000 -999.25000000    -999.25000000    167.58672907     56.28310389      57.86475893     
    6854.500 -999.25000000    -999.25000000    124.56990840     52.75866371      50.84469454     
    6855.000 -999.25000000    -999.25000000    88.50500055      49.00016000      44.67629368     
    6855.500 -999.25000000    -999.25000000    70.90533978      46.35806302      38.18321767     
    6856.000 -999.25000000    -999.25000000    68.33304882      43.05553526      35.46306225     
    6856.500 -999.25000000    -999.25000000    79.94820215      39.98827810      35.13696114     
    6857.000 -999.25000000    -999.25000000    87.86126359      37.48421766      34.81385869     
    6857.500 -999.25000000    -999.25000000    85.39667210      35.79218986      34.49372734     
    6858.000 -999.25000000    -999.25000000    81.26011324      35.81782641      33.86226888     
    6858.500 -999.25000000    -999.25000000    80.01580071      34.79723661      33.55088788     
    6859.000 -999.25000000    -999.25000000    85.29847635      33.29581260      31.16073757     
    6859.500 -999.25000000    -999.25000000    89.32640281      28.41105545      28.94086051     
    6860.000 -999.25000000    -999.25000000    78.65536967      27.12858783      24.50726179     
    6860.500 -999.25000000    -999.25000000    61.73030189      26.87912650      22.13922392     
    6861.000 -999.25000000    -999.25000000    37.58227760      29.48054529      20.71233832     
    6861.500 -999.25000000    -999.25000000    37.82319961      32.03640956      22.89098409     
    6862.000 -999.25000000    -999.25000000    41.05703394      34.81385869      30.92257916     
    6862.500 -999.25000000    -999.25000000    76.34405635      37.48421766      36.19915249     
    6863.000 -999.25000000    -999.25000000    639.06279763     42.26734030      55.25275882     
    6863.500 -999.25000000    -999.25000000    1467.66448794    49.91390756      65.85407495     
    6864.000 -999.25000000    -999.25000000    1765.49913127    81.44407293      81.44407293     
    6864.500 -999.25000000    -999.25000000    1978.50462385    164.13804333     164.35171049    
    6865.000 -999.25000000    -999.25000000    1957.29041981    253.38276038     188.77947327    
    6865.500 -999.25000000    -999.25000000    1436.55847974    227.91833180     192.29980427    
    6866.000 -999.25000000    -999.25000000    1112.41209650    156.93291719     168.97028504    
    6866.500 -999.25000000    -999.25000000    331.65685077     98.88086169      135.36970113    
    6867.000 -999.25000000    -999.25000000    118.31905163     72.89790558      96.17808688     
    6867.500 -999.25000000    -999.25000000    118.37955545     56.28310389      38.41154026     
    6868.000 -999.25000000    -999.25000000    115.38358969     39.98827810      36.00687432     
    6868.500 -999.25000000    -999.25000000    49.77556725      32.63381967      24.30833684     
    6869.000 -999.25000000    -999.25000000    42.58455006      30.50405784      24.50726179     
    6869.500 -999.25000000    -999.25000000    37.11187443      27.87028235      24.50726179     
    6870.000 -999.25000000    -999.25000000    50.84983917      27.91339533      24.73471019     
    6870.500 -999.25000000    -999.25000000    55.76555177      25.66580974      25.66580974     
    6871.000 -999.25000000    -999.25000000    56.80545933      25.66580974      27.38036437     
    6871.500 -999.25000000    -999.25000000    57.33266268      27.38036437      30.03029403     
    6872.000 -999.25000000    -999.25000000    69.72959731      29.48054529      31.74324983     
    6872.500 -999.25000000    -999.25000000    91.83663315      33.24237020      33.31082397     
    6873.000 -999.25000000    -999.25000000    104.51640403     36.12437206      33.14342620     
    6873.500 -999.25000000    -999.25000000    98.98803003      39.25623380      39.82977272     
    6874.000 -999.25000000    -999.25000000    98.98299449      52.75866371      47.22254115     
    6874.500 -999.25000000    -999.25000000    157.45130885     61.16265999      47.66080681     
    6875.000 -999.25000000    -999.25000000    334.73491059     55.76555177      47.22254115     
    6875.500 -999.25000000    -999.25000000    334.73491059     44.67629368      44.67629368     
    6876.000 -999.25000000    -999.25000000    328.60709528     43.85842835      41.87867035     
    6876.500 -999.25000000    -999.25000000    108.46522181     46.78830558      38.53759065     
    6877.000 -999.25000000    -999.25000000    65.43559939      49.91390756      37.83210333     
    6877.500 -999.25000000    -999.25000000    70.49155147      52.27352064      43.45512753     
    6878.000 -999.25000000    -999.25000000    188.64000840     53.24830933      52.75866371     
    6878.500 -999.25000000    -999.25000000    637.52967835     68.33304882      57.33266268     
    6879.000 -999.25000000    -999.25000000    1197.73845022    73.57446062      62.30321200     
    6879.500 -999.25000000    -999.25000000    1242.82544465    74.25729467      62.88143920     
    6880.000 -999.25000000    -999.25000000    353.81254328     74.94646601      61.73030189     
    6880.500 -999.25000000    -999.25000000    188.77947327     77.05259462      61.73030189     
    6881.000 -999.25000000    -999.25000000    161.34301049     77.05259462      60.02038505     
    6881.500 -999.25000000    -999.25000000    155.48983823     70.25332868      60.06492866     
    6882.000 -999.25000000    -999.25000000    165.87703522     68.33304882      56.22777661     
    6882.500 -999.25000000    -999.25000000    172.12121730     65.24851283      55.72403010     
    6883.000 -999.25000000    -999.25000000    167.41651628     68.33304882      59.49086128     
    6883.500 -999.25000000    -999.25000000    159.85937844     72.22757181      65.85407495     
    6884.000 -999.25000000    -999.25000000    173.70260223     77.05259462      70.90533978     
    6884.500 -999.25000000    -999.25000000    199.53863025     81.44407293      75.64203345     
    6885.000 -999.25000000    -999.25000000    229.19626089     82.96282966      80.69515275     
    6885.500 -999.25000000    -999.25000000    235.63708230     82.96282966      70.25332868     
    6886.000 -999.25000000    -999.25000000    166.18379474     79.21790919      60.04298746     
    6886.500 -999.25000000    -999.25000000    124.56990840     77.05259462      55.76555177     
    6887.000 -999.25000000    -999.25000000    101.65958927     74.25729467      56.28310389     
    6887.500 -999.25000000    -999.25000000    97.07070196      65.85407495      53.24830933     
    6888.000 -999.25000000    -999.25000000    99.79856084      62.30321200      50.37715140     
    6888.500 -999.25000000    -999.25000000    104.51640403     58.94381218      43.85842835     
    6889.000 -999.25000000    -999.25000000    113.57762527     57.86475893      43.85842835     
    6889.500 -999.25000000    -999.25000000    125.72602392     57.33266268      45.50941043     
    6890.000 -999.25000000    -999.25000000    144.83270718     54.24127573      50.84469454     
    6890.500 -999.25000000    -999.25000000    147.10579962     50.84469454      49.00016000     
    6891.000 -999.25000000    -999.25000000    139.17382982     45.93177676      44.67629368     
    6891.500 -999.25000000    -999.25000000    114.63172298     43.45512753      39.62056530     
