~VERSION INFORMATION
VERS. 2.0 : CWLS Log ASCII Standard - Version 2.0
WRAP. NO : One line per depth step
#--------------------------------------------------#
#----------------DRILLING INFO, INC.---------------#
#---------------WWW.DRILLINGINFO.COM---------------#
#------------------COPYRIGHT 2015------------------#
#--------------------------------------------------#
#THIS FILE MAY BE USED ONLY IN ACCORDANCE WITH A CURRENT SUBSCRIPTION AGREEMENT BETWEEN
#THE USER AND DRILLING INFO, INC. NO PART OF THIS FILE MAY BE REPRODUCED, USED, COPIED,
#MODIFIED, PROPAGATED, OR DISTRIBUTED EXCEPT IN ACCORDANCE WITH THE SUBSCRIPTION
#AGREEMENT. UNAUTHORIZED USE OR DISTRIBUTION OF ALL OR ANY PART OF THIS FILE MAY VIOLATE
#COPYRIGHT, TRADEMARK, AND/OR OTHER LAWS AND IS SUBJECT TO CIVIL AS WELL AS CRIMINAL
#SANCTIONS.
#--------------------------------------------------#
#THIS FILE IS PROVIDED "AS-IS" AND ALL WARRANTIES ARE EXPRESSLY DISCLAIMED, WHETHER
#EXPRESS, ORAL, IMPLIED, STATUTORY OR OTHERWISE, INCLUDING ANY IMPLIED WARRANTY OF FITNESS
#FOR A PARTICULAR PURPOSE, MERCHANTABILITY, TITLE OR NON-INFRINGEMENT, AND ANY WARRANTIES
#ARISING BY VIRTUE OF CUSTOM OF TRADE OR COURSE OF DEALING.  FURTHER, DRILLING INFO,
#INC. AND ITS LICENSORS DO NOT REPRESENT OR WARRANT THAT THIS FILE WILL MEET USER'S
#REQUIREMENTS OR ARE SUITABLE FOR USER'S NEEDS OR THAT THE DATA OR RESULTS PROVIDED IN
#CONJUNCTION THEREWITH ARE CORRECT, ACCURATE, TIMELY OR RELIABLE. THESE DISCLAIMERS SHALL
#APPLY REGARDLESS OF ANY FAILURE OF ESSENTIAL PURPOSE OF ANY LIMITED REMEDY.  SOME
#JURISDICTIONS DO NOT ALLOW THE EXCLUSION OF CERTAIN WARRANTIES SO SOME OF THE ABOVE
#EXCLUSIONS MAY NOT APPLY. IN NO EVENT SHALL DRILLING INFO, INC. OR ANY OF ITS AFFILIATES
#BE LIABLE UNDER ANY LEGAL THEORY, WHETHER IN TORT (INCLUDING WITHOUT LIMITATION
#NEGLIGENCE), CONTRACT, STRICT LIABILITY, STATUTORY OR OTHERWISE, FOR ANY SPECIAL,
#INCIDENTAL, CONSEQUENTIAL, EXEMPLARY, PUNITIVE OR INDIRECT DAMAGE OF ANY KIND, INCLUDING
#WITHOUT LIMITATION LOSS OF REVENUE, PROFITS, GOODWILL, USE, AND/OR DATA OR THE COST OF
#PROCUREMENT OF SUBSTITUTE GOODS OR SERVICES, EVEN IF APPRISED OF THE POSSIBILITY OF SUCH
#DAMAGES IN ADVANCE.
#--------------------------------------------------#
~WELL INFORMATION
#MNEMONIC     .UNIT              VALUE :DESCRIPTION
#--------------------------------------------------#
STRT       .ft                97.00000 :START DEPTH
STOP       .ft                8647.00000 :STOP DEPTH
STEP       .ft                0.50000 :STEP
NULL       .                -999.25000 :NULL VALUE
COMP       .                 :COMPANY
WELL       .                 :WELL
FLD       .                 :FIELD
LOC       .                 :LOCATION
CNTY       .                 :COUNTY
STAT       .                 :STATE
CTRY       .                 :COUNTRY
SRVC       .                 :SERVICE COMPANY
DATE       .                 :DATE
API       .                42109002030000 :API NUMBER
~CURVE INFORMATION
#MNEMONIC     .UNIT      API CODE :CURVE DESCRIPTION
#--------------------------------------------------#
DEPTH       .ft                      :Measured Depth
DT       .us/ft        UNKNOWN   :DT
GR       .gAPI        UNKNOWN   :GR
ILD       .ohmm        UNKNOWN   :ILD
ILS       .ohmm        UNKNOWN   :ILS
SP       .mV        UNKNOWN   :SP
~A    DEPTH    DT    GR    ILD    ILS    SP
# ...
6393.00000    66.36774    47.66196    62.63763    118.37132    -46.28443
6393.50000    65.88919    47.05317    62.72211    116.96588    -46.29490
6394.00000    64.94517    46.44439    62.80659    115.56044    -46.30538
6394.50000    64.00114    45.83560    62.89107    114.15501    -46.31585
6395.00000    63.84440    45.22682    62.97555    112.74957    -46.32632
6395.50000    64.11825    44.61803    63.06004    111.34413    -46.33679
6396.00000    64.39210    44.01540    62.87228    109.30453    -46.34726
6396.50000    64.66596    43.42710    61.77190    102.74295    -46.35774
6397.00000    64.93981    42.83880    60.67151    99.61814    -46.36821
6397.50000    65.21366    42.25049    59.57113    98.96198    -46.37868
6398.00000    65.48751    41.66219    58.34754    98.30582    -46.38915
6398.50000    65.76136    41.75466    56.28332    97.14397    -46.39963
6399.00000    65.00732    41.97071    54.21910    95.73484    -46.41010
6399.50000    63.89408    42.18677    52.15489    94.32570    -46.42057
6400.00000    64.37964    42.44717    50.09067    92.91656    -46.43104
6400.50000    64.86520    43.26208    49.11874    91.50743    -46.44151
6401.00000    65.35076    44.07698    48.29954    90.09829    -46.45199
6401.50000    65.83632    44.89188    47.48033    88.68916    -46.46246
6402.00000    66.32188    45.70679    46.66113    87.28002    -46.55780
6402.50000    66.80743    45.68852    45.84193    85.87089    -46.78813
6403.00000    67.29299    45.53817    45.02273    84.46175    -47.01845
6403.50000    67.62987    45.38783    44.20353    83.05262    -47.24878
6404.00000    66.85778    45.23749    44.02350    81.64348    -47.47911
6404.50000    66.08570    44.92610    44.68928    80.23435    -47.70943
6405.00000    65.31362    44.44578    45.35506    78.82521    -47.93976
6405.50000    64.54153    43.96547    46.02084    79.10914    -48.17009
6406.00000    63.93844    43.48516    46.68662    79.48160    -48.40041
6406.50000    64.56527    43.07744    47.35239    79.85406    -48.63074
6407.00000    65.19209    43.93846    48.01817    80.22652    -48.86106
6407.50000    65.81892    44.79948    46.85879    80.59898    -49.09139
6408.00000    66.44575    45.66051    45.69649    80.97144    -49.32172
6408.50000    67.07258    46.52153    44.53419    81.34390    -49.55204
6409.00000    67.69940    47.38255    43.37190    80.47162    -49.78237
6409.50000    68.32623    48.24357    42.20960    79.26776    -50.01270
6410.00000    68.95306    48.58111    41.04731    78.06390    -50.24302
6410.50000    69.57989    47.08129    39.88501    76.86004    -50.26218
6411.00000    68.19987    45.58148    38.72272    75.65618    -50.21491
6411.50000    66.07029    44.08166    38.95967    74.45232    -50.16764
6412.00000    64.15239    42.58184    39.60675    73.24846    -50.12037
6412.50000    64.23410    41.08202    40.25383    74.42552    -50.07310
6413.00000    64.31582    40.58754    40.90091    75.65294    -50.02583
6413.50000    64.39753    41.37672    41.54799    76.88036    -49.97856
6414.00000    64.47925    42.16589    42.19507    78.10777    -49.93129
6414.50000    65.03881    42.95507    43.16860    79.33519    -49.88402
6415.00000    65.95994    43.74424    44.14835    80.56261    -49.83675
6415.50000    66.66086    44.53342    45.12811    81.77330    -49.78948
6416.00000    66.31055    44.30096    45.93827    82.23659    -49.74221
6416.50000    65.96025    43.49933    45.87430    82.69987    -49.69494
6417.00000    65.60994    42.72561    45.81032    83.16316    -49.64767
6417.50000    65.25963    41.99451    45.74635    83.62644    -49.60040
6418.00000    64.90932    41.26341    45.85775    84.08973    -49.55313
6418.50000    64.55901    40.53231    46.64684    84.55302    -49.50586
6419.00000    64.20870    39.80121    47.43593    85.01630    -49.45859
6419.50000    64.59773    39.87858    48.22503    85.47959    -49.41132
6420.00000    65.13015    40.02913    49.01412    85.94287    -49.36405
6420.50000    65.66257    40.17969    49.80322    86.40616    -49.31678
6421.00000    66.19499    40.33024    49.75758    86.86944    -49.26951
6421.50000    66.72741    40.48080    48.66352    87.33273    -49.22224
6422.00000    67.25983    40.63135    47.56947    86.68926    -49.17497
6422.50000    67.66119    40.78190    46.47542    85.90487    -49.12770
6423.00000    67.98146    40.70374    45.38136    85.12048    -49.08043
6423.50000    67.76413    40.20393    44.28731    84.33609    -49.03316
6424.00000    66.39761    39.70412    43.19326    83.55170    -48.98589
6424.50000    65.03110    39.20432    42.09920    82.76731    -48.93862
6425.00000    64.50182    38.70452    42.74561    81.98292    -48.89135
6425.50000    64.62381    38.20471    43.54336    81.19853    -48.84408
6426.00000    64.75754    37.70491    44.34111    82.23634    -48.79681
6426.50000    64.91958    37.44800    45.13886    84.10853    -48.74954
6427.00000    65.08089    38.65541    45.93661    84.63563    -48.70227
6427.50000    65.29561    39.86283    46.73436    84.41588    -48.65500
6428.00000    65.77070    41.02999    47.53211    84.19612    -48.60773
6428.50000    66.24580    40.84256    47.33084    83.97637    -48.56046
6429.00000    66.61238    40.65513    46.99136    83.75662    -48.51319
6429.50000    66.42702    40.46771    46.65188    83.53686    -48.46592
6430.00000    65.68279    40.28028    46.31241    83.41328    -48.41865
6430.50000    64.67693    39.93517    46.32255    84.64835    -48.37138
6431.00000    63.67107    39.50431    48.35272    85.88342    -48.32411
6431.50000    62.66521    39.07344    49.95910    87.11849    -48.27683
6432.00000    61.65935    38.64258    51.56547    88.35356    -48.22957
6432.50000    62.23052    38.21171    53.17185    89.58863    -48.18230
6433.00000    63.32596    37.78085    54.77822    90.82370    -48.13502
6433.50000    64.42141    38.91726    54.60907    92.05877    -48.08775
6434.00000    65.51685    41.26300    53.35410    93.29384    -48.04048
6434.50000    66.61229    43.60874    52.09913    92.33020    -47.96106
6435.00000    67.70773    45.85206    50.84417    90.51265    -47.85345
6435.50000    68.40181    46.91687    49.58920    88.69509    -47.74585
6436.00000    68.10741    47.98167    48.14009    86.87754    -47.63824
6436.50000    67.81301    48.41580    45.23221    85.05999    -47.53063
6437.00000    67.51860    48.14229    42.32433    83.24243    -47.42301
6437.50000    67.22420    47.86879    40.25211    81.42488    -47.31540
6438.00000    66.92980    47.59528    41.74615    79.60733    -47.20779
6438.50000    66.63540    47.32177    43.24020    80.07704    -47.10018
6439.00000    66.34099    47.04826    44.48026    80.59593    -46.99257
6439.50000    66.17370    46.77475    45.60530    81.11482    -46.88496
6440.00000    66.55636    46.16255    46.73034    81.63371    -46.77735
6440.50000    66.93902    45.50250    47.85538    82.15260    -46.71400
6441.00000    67.32167    45.41860    47.68688    82.67149    -46.65847
6441.50000    67.70433    45.65392    47.35687    83.19038    -46.60293
6442.00000    68.08699    45.88923    47.02687    83.70927    -46.54739
6442.50000    68.46964    46.12455    46.69686    83.65147    -46.49185
6443.00000    68.85230    46.35986    45.95976    82.83246    -46.43631
6443.50000    68.66404    45.73902    45.17575    82.01345    -46.38077
6444.00000    67.89370    44.89780    44.39173    81.19444    -46.32524
6444.50000    67.12335    44.05658    43.60772    80.37544    -46.26970
6445.00000    66.95751    43.21537    42.82371    79.55643    -46.21416
6445.50000    67.13946    42.37415    42.75564    78.73742    -46.15862
6446.00000    67.32142    42.55964    43.45019    77.91841    -46.10308
6446.50000    67.50337    43.11178    44.14475    77.50853    -46.04754
6447.00000    67.68533    43.66391    44.83930    78.56151    -45.99201
6447.50000    67.86728    44.21605    45.53386    79.61449    -45.93647
6448.00000    68.04923    44.76819    46.22841    80.66748    -45.88093
