~Version Information Block
 VERS.                2.00:     CWLS LOG ASCII STANDARD - VERSION 2.000000
 WRAP.                  NO:     One Line Per Depth Step
#
~Well Information Block
#MNEM.UNIT                     Data                         Information
#----------   ------------------------------------------   ----------------
 STRT.FT                                      250.0000:     START DEPTH
 STOP.FT                                    10290.0000:     STOP DEPTH
 STEP.FT                                        0.5000:     STEP
 NULL.                                       -999.2500:     NULL VALUE
 COMP.                                                :     COMPANY
 WELL.                                                :     WELL
 FLD .                                                :     FIELD
 LOC .                                                :     LOCATION
 CNTY.                                                :     COUNTY
 STAT.                                                :     STATE
 CTRY.                                                :     COUNTRY
 SRVC.                                                :     SERVICE COMPANY
 DATE.                                                :     DATE
 API .                                                4210931550:     API NUMBER
 UWI .                                                :     UWI NUMBER
 TVD .                                              NO:     TVD flag
 WSTA.                                             LOC:     Well status
#
~Curve Information Block
#MNEM.UNIT       API CODE      Curve Description
#----------    -------------   -------------------
 DEPT.FT                   :   Depth in Feet
 LLS .OHMM                 :   Latero-Log Shallow (Resistivity)
 LLD .OHMM                 :   Latero-Log Deep (Resistivity)
 SFLU.OHMM                 :   SFL Resistivity (Unaveraged)
 ILD .OHMM                 :   Deep Induction Standard Processed Resistivity
 ILM .OHMM                 :   Medium Induction Standard Processed Resistivity
#
~Parameter Information Block
#MNEM.UNIT            Value               Description
#----------    --------------------    -------------------
 RUN .                         ONE:    Run Number
 PDAT.                          GL:    Permanent Datum
 EPD .FT                          :    Elevation Of Perm. Datum
 LMF .               KELLY BUSHING:    Log Measured From
 EKB .FT                          :    Elevation Of Kelly Bushing
 DF .FT                           :    Elevation Of Derrick Floor
 GL .FT                           :    Elevation Of Ground Level
 TD  .FT                          :    Total Depth
 CSGD.FT                          :    Casing Bottom (Driller) 1
 CSGL.FT                          :    Casing Bottom (Logger) 1
 MUD .                            :    Drilling Fluid Type
 MUDV .CP                         :    Drilling Fluid Viscosity
 MUDD .LB/USG                     :    Drilling Fluid Density
 FL .ML/30MIN                     :    Drilling Fluid Loss
 PH.                              :    Drilling Fluid Ph
 MUDS .                           :    Mud Sample Source
 RM .OHMM                         :    Resistivity Of Mud Sample
 RMT .DEGF                        :    Mud Sample Temperature
 RMF .OHMM                        :    Mud Filtrate Resistivity
 RMFT.DEGF                        :    Mud Filtrate Sample Temperature
 RMC .OHMM                        :    Mud Cake Resistivity
 RMCT.DEGF                        :    Mud Cake Sample Temperature
 RMB .OHMM                        :    Mud Resistivity At Bht
 TMAX .DEGF                       :    Bottom Hole Temperature
#
~Other Information Block
<DescLogPlotStart>   NEURALOG PLOT DEFINITION
PLOTDEFVERSION: 3
LASFILE: E:\nds\projects\Texas Standard Oil LLC\pdf\Pradeep+Ekta\42109315500000
DEPTHSCALE: 240.000000
RESOLUTION: 200
DEPTHLABELFREQ: 100.000000
HEAVYGRIDFREQ: 100.000000
MEDIUMGRIDFREQ: 50.000000
LIGHTGRIDFREQ: 10.000000
#
#   TRACK 1
#
STARTTRACK: 
 LEFTX: 1.000000 inch
 RIGHTX: 6.000000 inch
 SCALETYPE: Log
 NUMCYCLES: 4
 STARTCYCLE: 2
CURVE: SFLU  0.200000   2000.000000 (0,0,255)      Solid             2     N   
CURVE: ILD   0.200000   2000.000000 (0,131,131)    Dot               2     N   
CURVE: ILM   0.200000   2000.000000 (255,0,255)    Short_Dash        2     N   
ENDTRACK: 
#
#   TRACK 2
#
STARTTRACK: 
 LEFTX: 1.000000 inch
 RIGHTX: 6.000000 inch
 SCALETYPE: Log
 NUMCYCLES: 4
 STARTCYCLE: 2
CURVE: LLS   0.200000   2000.000000 (255,0,0)      Solid             2     Y   
BACKUP: 2000.000000 20000000.000000 (255,0,0)      Solid             2    
CURVE: LLD   0.200000   2000.000000 (255,131,0)    Dot               2     Y   
BACKUP: 2000.000000 20000000.000000 (255,131,0)    Dot               2    
ENDTRACK: 
<DescLogPlotEnd>
~A DEPTH     LLS              LLD              SFLU             ILD              ILM             
# ...
    7835.000 -999.25000000    -999.25000000    395.19559269     183.61944131     180.25801713    
    7835.500 -999.25000000    -999.25000000    459.51536068     183.61944131     190.53150858    
    7836.000 -999.25000000    -999.25000000    744.48612980     167.41426317     192.29980427    
    7836.500 -999.25000000    -999.25000000    604.56032888     151.54702134     154.06002912    
    7837.000 -999.25000000    -999.25000000    508.70486613     140.18870878     145.75308607    
    7837.500 -999.25000000    -999.25000000    415.89515136     127.48034654     132.89155947    
    7838.000 -999.25000000    -999.25000000    387.73992973     104.51640403     97.07070196     
    7838.500 -999.25000000    -999.25000000    325.58538387     94.41740541      72.22757181     
    7839.000 -999.25000000    -999.25000000    199.53863025     82.00959342      58.26968084     
    7839.500 -999.25000000    -999.25000000    88.50500055      76.26274176      58.42740379     
    7840.000 -999.25000000    -999.25000000    100.72477702     74.16344309      58.34898964     
    7840.500 -999.25000000    -999.25000000    205.14601964     68.46076628      65.85407495     
    7841.000 -999.25000000    -999.25000000    273.17202013     62.30321200      62.30321200     
    7841.500 -999.25000000    -999.25000000    334.73491059     60.04298746      55.76555177     
    7842.000 -999.25000000    -999.25000000    149.84900628     60.04298746      50.84469454     
    7842.500 -999.25000000    -999.25000000    90.15542838      70.25332868      53.24830933     
    7843.000 -999.25000000    -999.25000000    90.15542838      71.56340210      60.60023784     
    7843.500 -999.25000000    -999.25000000    118.94685526     72.89790558      66.46525721     
    7844.000 -999.25000000    -999.25000000    244.50727246     72.78652120      74.25729467     
    7844.500 -999.25000000    -999.25000000    273.17202013     78.30274983      67.70469125     
    7845.000 -999.25000000    -999.25000000    208.97155152     84.44718553      62.30321200     
    7845.500 -999.25000000    -999.25000000    149.84900628     86.88478622      64.56853789     
    7846.000 -999.25000000    -999.25000000    115.69560361     104.51640403     74.36049059     
    7846.500 -999.25000000    -999.25000000    161.36536947     114.63172298     110.24250317    
    7847.000 -999.25000000    -999.25000000    408.69667926     126.89286918     109.88265207    
    7847.500 -999.25000000    -999.25000000    1143.67284929    134.12490704     119.06568809    
    7848.000 -999.25000000    -999.25000000    1883.43987574    145.75308607     124.54995918    
    7848.500 -999.25000000    -999.25000000    1817.83184563    175.33090767     132.89155947    
    7849.000 -999.25000000    -999.25000000    1623.52960609    178.60045187     134.12490704    
    7849.500 -999.25000000    -999.25000000    1294.05343296    178.60045187     126.89286918    
    7850.000 -999.25000000    -999.25000000    785.71899575     169.75256869     115.16243477    
    7850.500 -999.25000000    -999.25000000    483.10829421     143.08486126     95.29367986     
    7851.000 -999.25000000    -999.25000000    258.44253821     106.46541009     86.08583588     
    7851.500 -999.25000000    -999.25000000    183.61944131     95.29367986      75.64203345     
    7852.000 -999.25000000    -999.25000000    130.52508588     92.68895581      70.90533978     
    7852.500 -999.25000000    -999.25000000    105.48640583     94.41740541      68.96723807     
    7853.000 -999.25000000    -999.25000000    111.96979291     98.88086169      73.57446062     
    7853.500 -999.25000000    -999.25000000    167.41651628     103.55532189     93.54918876     
    7854.000 -999.25000000    -999.25000000    473.84227755     111.49841964     120.05078402    
    7854.500 -999.25000000    -999.25000000    1197.38751281    116.76935797     131.66955317    
    7855.000 -999.25000000    -999.25000000    1519.06392374    114.63172298     129.25914817    
    7855.500 -999.25000000    -999.25000000    1280.50132697    110.47313427     125.72602392    
    7856.000 -999.25000000    -999.25000000    973.31266437     108.45076092     101.65958927    
    7856.500 -999.25000000    -999.25000000    175.35191881     107.45350034     75.64203345     
    7857.000 -999.25000000    -999.25000000    119.61131280     111.49841964     78.48945973     
    7857.500 -999.25000000    -999.25000000    120.50314705     113.57762527     82.19994373     
    7858.000 -999.25000000    -999.25000000    439.18037729     113.70159674     87.69115150     
    7858.500 -999.25000000    -999.25000000    453.94173657     113.76915065     116.76935797    
    7859.000 -999.25000000    -999.25000000    994.28697299     102.30032102     123.42442397    
    7859.500 -999.25000000    -999.25000000    1467.66448794    98.88086169      112.42823311    
    7860.000 -999.25000000    -999.25000000    1313.65811426    97.07070196      84.58423335     
    7860.500 -999.25000000    -999.25000000    310.88854465     93.54918876      75.83051270     
    7861.000 -999.25000000    -999.25000000    246.77650951     90.99214803      66.46525721     
    7861.500 -999.25000000    -999.25000000    129.25914817     86.08583588      64.05404275     
    7862.000 -999.25000000    -999.25000000    118.94685526     81.44407293      64.64851917     
    7862.500 -999.25000000    -999.25000000    113.49807729     76.34405635      70.90533978     
    7863.000 -999.25000000    -999.25000000    141.81325920     79.95311928      76.34405635     
    7863.500 -999.25000000    -999.25000000    253.46096209     83.73279582      82.19994373     
    7864.000 -999.25000000    -999.25000000    584.40959299     86.89748155      86.88478622     
    7864.500 -999.25000000    -999.25000000    583.35599777     91.00944091      86.88478622     
    7865.000 -999.25000000    -999.25000000    454.55853645     90.94648078      86.88478622     
    7865.500 -999.25000000    -999.25000000    288.74098320     98.88086169      86.96177092     
    7866.000 -999.25000000    -999.25000000    212.86842134     102.60307739     85.38226262     
    7866.500 -999.25000000    -999.25000000    189.04124786     101.65958927     84.67152740     
    7867.000 -999.25000000    -999.25000000    173.71864972     105.48640583     84.30719390     
    7867.500 -999.25000000    -999.25000000    195.88578188     106.46541009     92.68895581     
    7868.000 -999.25000000    -999.25000000    263.26193549     107.45350034     100.72477702    
    7868.500 -999.25000000    -999.25000000    313.77385680     107.48215384     105.48640583    
    7869.000 -999.25000000    -999.25000000    406.40006335     107.49159963     108.45076092    
    7869.500 -999.25000000    -999.25000000    421.69835940     99.75247530      102.60307739    
    7870.000 -999.25000000    -999.25000000    287.13624253     89.32640281      90.15542838     
    7870.500 -999.25000000    -999.25000000    176.23500042     83.73279582      68.96723807     
    7871.000 -999.25000000    -999.25000000    116.23809834     79.95311928      61.73030189     
    7871.500 -999.25000000    -999.25000000    102.57042453     76.34405635      58.40179348     
    7872.000 -999.25000000    -999.25000000    94.41740541      71.56340210      56.80545933     
    7872.500 -999.25000000    -999.25000000    92.68895581      57.86475893      54.74468125     
    7873.000 -999.25000000    -999.25000000    103.55532189     54.24127573      50.37715140     
    7873.500 -999.25000000    -999.25000000    110.47313427     52.75866371      47.57530766     
    7874.000 -999.25000000    -999.25000000    116.76935797     55.25275882      46.79603724     
    7874.500 -999.25000000    -999.25000000    115.19080832     59.56234957      46.32029768     
    7875.000 -999.25000000    -999.25000000    106.46541009     66.15896032      47.39085173     
    7875.500 -999.25000000    -999.25000000    102.60307739     77.05259462      51.81820300     
