~Version Information Block
 VERS.                2.00:     CWLS LOG ASCII STANDARD - VERSION 2.000000
 WRAP.                  NO:     One Line Per Depth Step
#
~Well Information Block
#MNEM.UNIT                     Data                         Information
#----------   ------------------------------------------   ----------------
 STRT.FT                                        4.0000:     START DEPTH
 STOP.FT                                    10300.0000:     STOP DEPTH
 STEP.FT                                        0.5000:     STEP
 NULL.                                       -999.2500:     NULL VALUE
 COMP.                            MONSANTO OIL COMPANY:     COMPANY
 WELL.                               UNIVERSITY_6-46-1:     WELL
 FLD .                                         WILDCAT:     FIELD
 LOC .                                                :     LOCATION
 CNTY.                                       CULBERSON:     COUNTY
 STAT.                                           TEXAS:     STATE
 CTRY.                                             USA:     COUNTRY
 SRVC.                                                :     SERVICE COMPANY
 DATE.                                      10/31/2016:     DATE
 API .                                  42109315500000:     API NUMBER
 UWI .                                  42109315500000:     UWI NUMBER
 TVD .                                              NO:     TVD flag
 WSTA.                                             LOC:     Well status
#
~Curve Information Block
#MNEM.UNIT       API CODE      Curve Description
#----------    -------------   -------------------
 DEPT.FT                   :   Depth in Feet
 CALI.IN                   :   Caliper
 GR  .GAPI                 :   Gamma Ray
 DPHI.V/V                  :   Density Porosity
 NPHI.V/V                  :   Neutron Porosity
 DRHO.G/C3                 :   Delta Rho
 RHOB.G/C3                 :   Bulk Density
#
~Parameter Information Block
#MNEM.UNIT            Value               Description
#----------    --------------------    -------------------
 RUN .                         ONE:    Run Number
 PDAT.                          GL:    Permanent Datum
 EPD .FT                          :    Elevation Of Perm. Datum
 LMF .               KELLY BUSHING:    Log Measured From
 EKB .FT                          :    Elevation Of Kelly Bushing
 DF .FT                           :    Elevation Of Derrick Floor
 GL .FT                           :    Elevation Of Ground Level
 TD  .FT                          :    Total Depth
 CSGD.FT                          :    Casing Bottom (Driller) 1
 CSGL.FT                          :    Casing Bottom (Logger) 1
 MUD .                            :    Drilling Fluid Type
 MUDV .CP                         :    Drilling Fluid Viscosity
 MUDD .LB/USG                     :    Drilling Fluid Density
 FL .ML/30MIN                     :    Drilling Fluid Loss
 PH.                              :    Drilling Fluid Ph
 MUDS .                           :    Mud Sample Source
 RM .OHMM                         :    Resistivity Of Mud Sample
 RMT .DEGF                        :    Mud Sample Temperature
 RMF .OHMM                        :    Mud Filtrate Resistivity
 RMFT.DEGF                        :    Mud Filtrate Sample Temperature
 RMC .OHMM                        :    Mud Cake Resistivity
 RMCT.DEGF                        :    Mud Cake Sample Temperature
 RMB .OHMM                        :    Mud Resistivity At Bht
 TMAX .DEGF                       :    Bottom Hole Temperature   
#
~Other Information Block
<DescLogPlotStart>   NEURALOG PLOT DEFINITION
PLOTDEFVERSION: 3
LASFILE: E:\nds\projects\Texas Standard Oil LLC\pdf\Pradeep+Ekta\42109315500000
DEPTHSCALE: 240.000000
RESOLUTION: 200
DEPTHLABELFREQ: 100.000000
HEAVYGRIDFREQ: 100.000000
MEDIUMGRIDFREQ: 50.000000
LIGHTGRIDFREQ: 10.000000
#
#   TRACK 1
#
STARTTRACK: 
 LEFTX: 0.500000 inch
 RIGHTX: 3.000000 inch
 SCALETYPE: Linear
 NUMCHARTDIVISIONS: 10
CURVE: CALI  6.000000   16.000000  (0,0,255)      Solid             2     N    
CURVE: GR    0.000000   100.000000 (0,131,131)    Dot               2     Y    
BACKUP: 100.000000 200.000000 (0,131,131)    Dot               2    
ENDTRACK: 
#
#   TRACK 2
#
STARTTRACK: 
 LEFTX: 3.500000 inch
 RIGHTX: 8.500000 inch
 SCALETYPE: Linear
 NUMCHARTDIVISIONS: 10
CURVE: DPHI  0.300000   -0.100000  (255,0,255)    Solid             2     Y    
BACKUP: 0.700000   0.300000   (255,0,255)    Solid             2    
CURVE: NPHI  0.300000   -0.100000  (255,0,0)      Dot               2     Y    
BACKUP: 0.700000   0.300000   (255,0,0)      Dot               2    
CURVE: DRHO  -0.050000  0.950000   (255,131,0)    Short_Dash        2     N    
ENDTRACK: 
#
#   TRACK 3
#
STARTTRACK: 
 LEFTX: 8.500000 inch
 RIGHTX: 13.500000 inch
 SCALETYPE: Linear
 NUMCHARTDIVISIONS: 10
CURVE: RHOB  2.000000   3.000000   (255,255,0)    Solid             2     Y    
BACKUP: 1.000000   2.000000   (255,255,0)    Solid             2    
ENDTRACK: 
<DescLogPlotEnd>
~A DEPTH     CALI             GR               DPHI             NPHI             DRHO             RHOB            
# ...
    2069.000 13.19584421      46.62389395      0.11265060       0.10702811       0.02706339       2.52301620      
    2069.500 13.20341620      45.46696824      0.11626506       0.10188025       0.03467700       2.51674914      
    2070.000 13.21028667      42.85864005      0.11626506       0.09350128       0.03648984       2.50565727      
    2070.500 13.19873220      39.97851932      0.10983936       0.08775100       0.03706062       2.51519577      
    2071.000 13.14102733      36.65559515      0.10582329       0.08775100       0.03740945       2.52299996      
    2071.500 13.13155041      35.63976779      0.09457831       0.09497992       0.04441221       2.54072443      
    2072.000 13.15860731      36.77783030      0.08247992       0.09498566       0.06130046       2.56692731      
    2072.500 13.18236492      38.50393539      0.07690763       0.10020080       0.07049019       2.58387991      
    2073.000 13.19952910      40.55431032      0.08694779       0.10502008       0.05349483       2.56239060      
    2073.500 13.21440745      41.61530561      0.10418732       0.10783133       0.03345686       2.55031156      
    2074.000 13.19146629      42.63501224      0.11968605       0.10942169       0.02234472       2.52502567      
    2074.500 13.16730918      41.92160128      0.12996564       0.10783133       0.01023121       2.50177682      
    2075.000 13.13346508      40.98155973      0.13594378       0.10261044       0.00296889       2.48868628      
    2075.500 13.08639516      40.01316917      0.13514056       0.08654618       0.00002023       2.48990194      
    2076.000 13.07590025      38.10039762      0.12207740       0.08110843       0.00478847       2.48403058      
    2076.500 13.07570182      36.76727451      0.10271267       0.07611169       0.01894206       2.50479486      
    2077.000 13.07582926      38.30369330      0.09016064       0.08000476       0.03374123       2.54631906      
    2077.500 13.07584830      43.01633480      0.08895582       0.09128759       0.03932594       2.54565167      
    2078.000 13.07584830      49.41558139      0.09626983       0.10251825       0.02241571       2.54552086      
    2078.500 13.07589226      55.73972250      0.10173751       0.11390066       0.01340002       2.54583533      
    2079.000 13.07574018      58.57464937      0.10072696       0.12370551       0.00970451       2.53738120      
    2079.500 13.07653477      58.22294323      0.10261044       0.11948045       0.01084168       2.53143615      
    2080.000 13.03079798      57.36590140      0.10666667       0.11250868       0.01234748       2.53019189      
    2080.500 12.96652278      57.63377881      0.10863454       0.10845607       0.01156333       2.53383413      
    2081.000 12.96588131      59.72790057      0.09698795       0.12338153       0.01617943       2.53966676      
    2081.500 13.02042588      60.47351440      0.08373494       0.14236948       0.02512140       2.55814048      
    2082.000 13.07330951      57.34489749      0.07254618       0.13453564       0.03518121       2.57579565      
    2082.500 13.04953875      48.51830110      0.06204819       0.11674197       0.04832091       2.58808170      
    2083.000 13.02168101      43.80940041      0.05843373       0.09894829       0.04844052       2.60074257      
    2083.500 12.99414926      41.35939397      0.05883534       0.08413655       0.03865782       2.60521350      
    2084.000 12.96667830      44.01484755      0.06204819       0.07449799       0.03688803       2.60403964      
    2084.500 12.93952049      48.42571614      0.06646586       0.08074010       0.03678539       2.60004206      
    2085.000 12.92591686      53.36822600      0.06867470       0.10441767       0.03930516       2.59514459      
    2085.500 12.92020529      57.09450553      0.07208835       0.12791165       0.03935670       2.58929515      
    2086.000 12.95765186      57.16083392      0.07969035       0.12825301       0.03198591       2.57498752      
    2086.500 12.99474602      57.52749079      0.08896241       0.11867470       0.02674505       2.56280352      
    2087.000 12.99629500      59.31514059      0.09694397       0.11345382       0.01881873       2.55018884      
    2087.500 12.97498761      60.01190217      0.10190000       0.11586345       0.01136623       2.53841824      
    2088.000 12.93994332      58.20972078      0.10864382       0.11941480       0.00120653       2.52742528      
    2088.500 12.85072576      56.13802548      0.11184355       0.11912220       0.00463865       2.52041246      
    2089.000 12.82061346      57.26224958      0.10502008       0.11907631       0.00874710       2.53145358      
    2089.500 12.82847529      60.71360959      0.09618474       0.12148594       0.01561576       2.54295021      
    2090.000 12.83709573      63.66124975      0.09176707       0.12442269       0.01466239       2.54152785      
    2090.500 12.85568939      64.71293850      0.09698795       0.13031124       0.00988466       2.53719229      
    2091.000 12.88480547      61.62706217      0.09979920       0.13554217       0.00843741       2.54240672      
    2091.500 12.91456414      54.23980020      0.09658635       0.13433735       0.00714317       2.55609992      
    2092.000 12.89396424      45.91067684      0.08559707       0.12203313       0.02350180       2.56174602      
    2092.500 12.87010264      39.25400014      0.07980835       0.10180723       0.04065504       2.56530634      
    2093.000 12.84468346      36.04178119      0.08634869       0.09297189       0.05737957       2.56640264      
    2093.500 12.81709668      34.81317638      0.10530964       0.09658635       0.05348570       2.53085668      
    2094.000 12.80529802      33.80397228      0.12027290       0.09819277       0.04954854       2.51293278      
    2094.500 12.84984493      32.59621712      0.12262772       0.09436412       0.04723964       2.50040751      
    2095.000 12.89408385      32.90125557      0.12188755       0.09277108       0.03865734       2.49451255      
    2095.500 12.91504205      34.30350050      0.13473896       0.09819277       0.02881316       2.48282709      
    2096.000 12.93534454      36.03644386      0.14558233       0.10341365       0.02416288       2.46913981      
    2096.500 12.93680303      37.84389759      0.15120482       0.10598394       0.02127914       2.45668290      
    2097.000 12.91492002      38.41425838      0.15120482       0.10381526       0.02869262       2.45027828      
    2097.500 12.88722835      38.25530840      0.14678715       0.10020080       0.03131033       2.45472373      
    2098.000 12.85539069      38.69445054      0.14156627       0.09935036       0.02970304       2.46137778      
    2098.500 12.82127178      41.07747262      0.13634538       0.09870777       0.02113324       2.47572360      
    2099.000 12.81691266      42.87805308      0.12590361       0.10050813       0.01927681       2.50784033      
    2099.500 12.85347213      42.41441706      0.11675579       0.10823293       0.02089399       2.50902666      
    2100.000 12.89711271      38.23403485      0.11425757       0.10659190       0.02579991       2.51047557      
    2100.500 12.93875047      34.56136454      0.11627536       0.10473207       0.03056872       2.51319050      
    2101.000 12.96693447      34.59437214      0.11781343       0.09698795       0.03496863       2.51033139      
    2101.500 12.97537429      36.03519880      0.11907631       0.09115051       0.04483617       2.50672130      
    2102.000 12.95029713      37.03799664      0.12590361       0.09750122       0.05358931       2.49854829      
    2102.500 12.90268479      37.04346109      0.13594378       0.11365591       0.06059678       2.48431446      
    2103.000 12.96727312      36.76462673      0.13881157       0.12686034       0.06258568       2.47682819      
    2103.500 13.05876405      36.88087353      0.14070999       0.13197761       0.05224608       2.46806147      
