~Version Information Block
 VERS.                2.00:     CWLS LOG ASCII STANDARD - VERSION 2.000000
 WRAP.                  NO:     One Line Per Depth Step
#
~Well Information Block
#MNEM.UNIT                     Data                         Information
#----------   ------------------------------------------   ----------------
 STRT.FT                                      250.0000:     START DEPTH
 STOP.FT                                    10290.0000:     STOP DEPTH
 STEP.FT                                        0.5000:     STEP
 NULL.                                       -999.2500:     NULL VALUE
 COMP.                                                :     COMPANY
 WELL.                                                :     WELL
 FLD .                                                :     FIELD
 LOC .                                                :     LOCATION
 CNTY.                                                :     COUNTY
 STAT.                                                :     STATE
 CTRY.                                                :     COUNTRY
 SRVC.                                                :     SERVICE COMPANY
 DATE.                                                :     DATE
 API .                                                4210931550:     API NUMBER
 UWI .                                                :     UWI NUMBER
 TVD .                                              NO:     TVD flag
 WSTA.                                             LOC:     Well status
#
~Curve Information Block
#MNEM.UNIT       API CODE      Curve Description
#----------    -------------   -------------------
 DEPT.FT                   :   Depth in Feet
 LLS .OHMM                 :   Latero-Log Shallow (Resistivity)
 LLD .OHMM                 :   Latero-Log Deep (Resistivity)
 SFLU.OHMM                 :   SFL Resistivity (Unaveraged)
 ILD .OHMM                 :   Deep Induction Standard Processed Resistivity
 ILM .OHMM                 :   Medium Induction Standard Processed Resistivity
#
~Parameter Information Block
#MNEM.UNIT            Value               Description
#----------    --------------------    -------------------
 RUN .                         ONE:    Run Number
 PDAT.                          GL:    Permanent Datum
 EPD .FT                          :    Elevation Of Perm. Datum
 LMF .               KELLY BUSHING:    Log Measured From
 EKB .FT                          :    Elevation Of Kelly Bushing
 DF .FT                           :    Elevation Of Derrick Floor
 GL .FT                           :    Elevation Of Ground Level
 TD  .FT                          :    Total Depth
 CSGD.FT                          :    Casing Bottom (Driller) 1
 CSGL.FT                          :    Casing Bottom (Logger) 1
 MUD .                            :    Drilling Fluid Type
 MUDV .CP                         :    Drilling Fluid Viscosity
 MUDD .LB/USG                     :    Drilling Fluid Density
 FL .ML/30MIN                     :    Drilling Fluid Loss
 PH.                              :    Drilling Fluid Ph
 MUDS .                           :    Mud Sample Source
 RM .OHMM                         :    Resistivity Of Mud Sample
 RMT .DEGF                        :    Mud Sample Temperature
 RMF .OHMM                        :    Mud Filtrate Resistivity
 RMFT.DEGF                        :    Mud Filtrate Sample Temperature
 RMC .OHMM                        :    Mud Cake Resistivity
 RMCT.DEGF                        :    Mud Cake Sample Temperature
 RMB .OHMM                        :    Mud Resistivity At Bht
 TMAX .DEGF                       :    Bottom Hole Temperature
#
~Other Information Block
<DescLogPlotStart>   NEURALOG PLOT DEFINITION
PLOTDEFVERSION: 3
LASFILE: E:\nds\projects\Texas Standard Oil LLC\pdf\Pradeep+Ekta\42109315500000
DEPTHSCALE: 240.000000
RESOLUTION: 200
DEPTHLABELFREQ: 100.000000
HEAVYGRIDFREQ: 100.000000
MEDIUMGRIDFREQ: 50.000000
LIGHTGRIDFREQ: 10.000000
#
#   TRACK 1
#
STARTTRACK: 
 LEFTX: 1.000000 inch
 RIGHTX: 6.000000 inch
 SCALETYPE: Log
 NUMCYCLES: 4
 STARTCYCLE: 2
CURVE: SFLU  0.200000   2000.000000 (0,0,255)      Solid             2     N   
CURVE: ILD   0.200000   2000.000000 (0,131,131)    Dot               2     N   
CURVE: ILM   0.200000   2000.000000 (255,0,255)    Short_Dash        2     N   
ENDTRACK: 
#
#   TRACK 2
#
STARTTRACK: 
 LEFTX: 1.000000 inch
 RIGHTX: 6.000000 inch
 SCALETYPE: Log
 NUMCYCLES: 4
 STARTCYCLE: 2
CURVE: LLS   0.200000   2000.000000 (255,0,0)      Solid             2     Y   
BACKUP: 2000.000000 20000000.000000 (255,0,0)      Solid             2    
CURVE: LLD   0.200000   2000.000000 (255,131,0)    Dot               2     Y   
BACKUP: 2000.000000 20000000.000000 (255,131,0)    Dot               2    
ENDTRACK: 
<DescLogPlotEnd>
~A DEPTH     LLS              LLD              SFLU             ILD              ILM             
# ...
    8327.000 -999.25000000    -999.25000000    113.51186170     106.46541009     99.79856084     
    8327.500 -999.25000000    -999.25000000    117.85307769     111.60582250     99.79856084     
    8328.000 -999.25000000    -999.25000000    124.56990840     118.78757278     99.79856084     
    8328.500 -999.25000000    -999.25000000    141.76912230     124.75657590     95.29367986     
    8329.000 -999.25000000    -999.25000000    156.93291719     132.82325370     90.99214803     
    8329.500 -999.25000000    -999.25000000    175.33090767     139.27698586     86.88478622     
    8330.000 -999.25000000    -999.25000000    187.04354883     139.35105585     97.07070196     
    8330.500 -999.25000000    -999.25000000    223.27111531     133.15834015     103.55532189    
    8331.000 -999.25000000    -999.25000000    262.09286761     122.26675734     93.54918876     
    8331.500 -999.25000000    -999.25000000    221.53805898     117.97790781     82.96282966     
    8332.000 -999.25000000    -999.25000000    185.32358710     114.63172298     78.48945973     
    8332.500 -999.25000000    -999.25000000    89.32640281      114.63172298     82.96282966     
    8333.000 -999.25000000    -999.25000000    84.50990793      115.69560361     87.69115150     
    8333.500 -999.25000000    -999.25000000    100.82516754     115.59097794     95.29367986     
    8334.000 -999.25000000    -999.25000000    133.11746986     108.57798414     93.54918876     
    8334.500 -999.25000000    -999.25000000    179.49565318     102.44130428     87.69115150     
    8335.000 -999.25000000    -999.25000000    210.87260053     94.22824839      79.21790919     
    8335.500 -999.25000000    -999.25000000    218.19193213     94.41740541      69.60731315     
    8336.000 -999.25000000    -999.25000000    152.71630333     107.45350034     62.88143920     
    8336.500 -999.25000000    -999.25000000    82.19994373      115.69560361     65.85407495     
    8337.000 -999.25000000    -999.25000000    83.73279582      121.23565070     88.50500055     
    8337.500 -999.25000000    -999.25000000    89.32640281      121.14012216     110.47313427    
    8338.000 -999.25000000    -999.25000000    99.79856084      121.23384493     120.05078402    
    8338.500 -999.25000000    -999.25000000    194.08451127     114.59393287     120.05078402    
    8339.000 -999.25000000    -999.25000000    322.59145866     117.69831219     114.63172298    
    8339.500 -999.25000000    -999.25000000    441.63358408     120.72285285     108.45076092    
    8340.000 -999.25000000    -999.25000000    416.47076733     149.65741391     106.36492558    
    8340.500 -999.25000000    -999.25000000    256.42272105     164.45052973     106.39602258    
    8341.000 -999.25000000    -999.25000000    233.51561982     177.63347600     106.44382184    
    8341.500 -999.25000000    -999.25000000    195.88578188     176.95812877     105.46930609    
    8342.000 -999.25000000    -999.25000000    178.60045187     155.48983823     103.70240999    
    8342.500 -999.25000000    -999.25000000    151.23973349     140.46548224     102.47950526    
    8343.000 -999.25000000    -999.25000000    147.10579962     132.89155947     97.97160127     
    8343.500 -999.25000000    -999.25000000    158.38938916     124.56990840     90.99214803     
    8344.000 -999.25000000    -999.25000000    159.85937844     120.05078402     80.69515275     
    8344.500 -999.25000000    -999.25000000    146.17069699     113.40335074     80.69515275     
    8345.000 -999.25000000    -999.25000000    126.01361839     110.67733792     79.21790919     
    8345.500 -999.25000000    -999.25000000    115.70558556     107.39345651     79.21790919     
    8346.000 -999.25000000    -999.25000000    112.53322054     107.45350034     79.21790919     
    8346.500 -999.25000000    -999.25000000    111.49841964     106.46541009     81.44407293     
    8347.000 -999.25000000    -999.25000000    114.63172298     110.47313427     86.88478622     
    8347.500 -999.25000000    -999.25000000    123.42442397     117.85307769     94.33034376     
    8348.000 -999.25000000    -999.25000000    167.41651628     123.42442397     99.78877033     
    8348.500 -999.25000000    -999.25000000    207.04995053     128.07054376     101.66991277    
    8349.000 -999.25000000    -999.25000000    235.63708230     132.89155947     103.61122825    
    8349.500 -999.25000000    -999.25000000    273.17202013     137.89405480     103.55532189    
    8350.000 -999.25000000    -999.25000000    296.85511692     140.46548224     102.60307739    
    8350.500 -999.25000000    -999.25000000    258.44253821     148.47106752     101.65958927    
    8351.000 -999.25000000    -999.25000000    233.47027802     141.76912230     101.73447997    
    8351.500 -999.25000000    -999.25000000    210.91098662     135.36970113     95.54317856     
    8352.000 -999.25000000    -999.25000000    197.70376982     128.07054376     89.82046202     
    8352.500 -999.25000000    -999.25000000    181.93096602     115.27236488     75.21796177     
    8353.000 -999.25000000    -999.25000000    159.85937844     109.74153953     75.31729876     
    8353.500 -999.25000000    -999.25000000    139.17382982     103.54016841     65.86733761     
    8354.000 -999.25000000    -999.25000000    113.57762527     100.74442444     62.88143920     
    8354.500 -999.25000000    -999.25000000    93.54918876      98.84678162      61.73030189     
    8355.000 -999.25000000    -999.25000000    100.72477702     98.87673525      61.73030189     
    8355.500 -999.25000000    -999.25000000    96.68040797      98.88086169      62.30321200     
    8356.000 -999.25000000    -999.25000000    101.99352602     98.88086169      64.05404275     
    8356.500 -999.25000000    -999.25000000    102.70431808     99.79856084      65.24851283     
    8357.000 -999.25000000    -999.25000000    104.51640403     99.79856084      67.70469125     
    8357.500 -999.25000000    -999.25000000    105.48640583     100.72477702     68.33304882     
    8358.000 -999.25000000    -999.25000000    104.51640403     102.60307739     65.85407495     
    8358.500 -999.25000000    -999.25000000    110.54498930     103.55532189     65.91889095     
    8359.000 -999.25000000    -999.25000000    119.08442640     103.55532189     65.84052271     
    8359.500 -999.25000000    -999.25000000    118.88467796     96.17808688      68.43406075     
    8360.000 -999.25000000    -999.25000000    118.94750659     93.54918876      62.18507688     
    8360.500 -999.25000000    -999.25000000    115.79316767     90.99214803      62.39651360     
    8361.000 -999.25000000    -999.25000000    106.40643794     89.32640281      58.87459555     
    8361.500 -999.25000000    -999.25000000    91.16351774      89.32640281      62.88143920     
    8362.000 -999.25000000    -999.25000000    82.13947655      90.15542838      72.22757181     
    8362.500 -999.25000000    -999.25000000    82.14923910      94.41740541      72.22757181     
    8363.000 -999.25000000    -999.25000000    89.32640281      96.17808688      72.22757181     
    8363.500 -999.25000000    -999.25000000    97.07070196      97.97160127      71.56340210     
    8364.000 -999.25000000    -999.25000000    100.72477702     98.88086169      70.90533978     
    8364.500 -999.25000000    -999.25000000    103.92862369     98.88086169      68.33304882     
    8365.000 -999.25000000    -999.25000000    115.71950899     92.68895581      64.05404275     
    8365.500 -999.25000000    -999.25000000    113.31738453     89.32640281      58.94381218     
    8366.000 -999.25000000    -999.25000000    95.83346069      88.50500055      53.27732373     
    8366.500 -999.25000000    -999.25000000    79.95311928      83.73279582      48.09176024     
    8367.000 -999.25000000    -999.25000000    64.64851917      79.21790919      47.67555018     
    8367.500 -999.25000000    -999.25000000    57.33266268      69.60731315      46.51420587     
