~Version Information Block
 VERS.                2.00:     CWLS LOG ASCII STANDARD - VERSION 2.000000
 WRAP.                  NO:     One Line Per Depth Step
#
~Well Information Block
#MNEM.UNIT                     Data                         Information
#----------   ------------------------------------------   ----------------
 STRT.FT                                      250.0000:     START DEPTH
 STOP.FT                                    10290.0000:     STOP DEPTH
 STEP.FT                                        0.5000:     STEP
 NULL.                                       -999.2500:     NULL VALUE
 COMP.                                                :     COMPANY
 WELL.                                                :     WELL
 FLD .                                                :     FIELD
 LOC .                                                :     LOCATION
 CNTY.                                                :     COUNTY
 STAT.                                                :     STATE
 CTRY.                                                :     COUNTRY
 SRVC.                                                :     SERVICE COMPANY
 DATE.                                                :     DATE
 API .                                                4210931550:     API NUMBER
 UWI .                                                :     UWI NUMBER
 TVD .                                              NO:     TVD flag
 WSTA.                                             LOC:     Well status
#
~Curve Information Block
#MNEM.UNIT       API CODE      Curve Description
#----------    -------------   -------------------
 DEPT.FT                   :   Depth in Feet
 LLS .OHMM                 :   Latero-Log Shallow (Resistivity)
 LLD .OHMM                 :   Latero-Log Deep (Resistivity)
 SFLU.OHMM                 :   SFL Resistivity (Unaveraged)
 ILD .OHMM                 :   Deep Induction Standard Processed Resistivity
 ILM .OHMM                 :   Medium Induction Standard Processed Resistivity
#
~Parameter Information Block
#MNEM.UNIT            Value               Description
#----------    --------------------    -------------------
 RUN .                         ONE:    Run Number
 PDAT.                          GL:    Permanent Datum
 EPD .FT                          :    Elevation Of Perm. Datum
 LMF .               KELLY BUSHING:    Log Measured From
 EKB .FT                          :    Elevation Of Kelly Bushing
 DF .FT                           :    Elevation Of Derrick Floor
 GL .FT                           :    Elevation Of Ground Level
 TD  .FT                          :    Total Depth
 CSGD.FT                          :    Casing Bottom (Driller) 1
 CSGL.FT                          :    Casing Bottom (Logger) 1
 MUD .                            :    Drilling Fluid Type
 MUDV .CP                         :    Drilling Fluid Viscosity
 MUDD .LB/USG                     :    Drilling Fluid Density
 FL .ML/30MIN                     :    Drilling Fluid Loss
 PH.                              :    Drilling Fluid Ph
 MUDS .                           :    Mud Sample Source
 RM .OHMM                         :    Resistivity Of Mud Sample
 RMT .DEGF                        :    Mud Sample Temperature
 RMF .OHMM                        :    Mud Filtrate Resistivity
 RMFT.DEGF                        :    Mud Filtrate Sample Temperature
 RMC .OHMM                        :    Mud Cake Resistivity
 RMCT.DEGF                        :    Mud Cake Sample Temperature
 RMB .OHMM                        :    Mud Resistivity At Bht
 TMAX .DEGF                       :    Bottom Hole Temperature
#
~Other Information Block
<DescLogPlotStart>   NEURALOG PLOT DEFINITION
PLOTDEFVERSION: 3
LASFILE: E:\nds\projects\Texas Standard Oil LLC\pdf\Pradeep+Ekta\42109315500000
DEPTHSCALE: 240.000000
RESOLUTION: 200
DEPTHLABELFREQ: 100.000000
HEAVYGRIDFREQ: 100.000000
MEDIUMGRIDFREQ: 50.000000
LIGHTGRIDFREQ: 10.000000
#
#   TRACK 1
#
STARTTRACK: 
 LEFTX: 1.000000 inch
 RIGHTX: 6.000000 inch
 SCALETYPE: Log
 NUMCYCLES: 4
 STARTCYCLE: 2
CURVE: SFLU  0.200000   2000.000000 (0,0,255)      Solid             2     N   
CURVE: ILD   0.200000   2000.000000 (0,131,131)    Dot               2     N   
CURVE: ILM   0.200000   2000.000000 (255,0,255)    Short_Dash        2     N   
ENDTRACK: 
#
#   TRACK 2
#
STARTTRACK: 
 LEFTX: 1.000000 inch
 RIGHTX: 6.000000 inch
 SCALETYPE: Log
 NUMCYCLES: 4
 STARTCYCLE: 2
CURVE: LLS   0.200000   2000.000000 (255,0,0)      Solid             2     Y   
BACKUP: 2000.000000 20000000.000000 (255,0,0)      Solid             2    
CURVE: LLD   0.200000   2000.000000 (255,131,0)    Dot               2     Y   
BACKUP: 2000.000000 20000000.000000 (255,131,0)    Dot               2    
ENDTRACK: 
<DescLogPlotEnd>
~A DEPTH     LLS              LLD              SFLU             ILD              ILM             
# ...
   10254.000 -999.25000000    -999.25000000    17.41203190      9.29032696       9.37654916      
   10254.500 -999.25000000    -999.25000000    10.37947607      10.97103621      11.38402375     
   10255.000 -999.25000000    -999.25000000    12.37098038      13.56827006      11.70393501     
   10255.500 -999.25000000    -999.25000000    15.93195402      14.20969184      11.81255755     
   10256.000 -999.25000000    -999.25000000    16.74363513      13.31988290      9.37654916      
   10256.500 -999.25000000    -999.25000000    16.33804734      11.17562243      8.31546549      
   10257.000 -999.25000000    -999.25000000    17.90942729      12.17967843      10.30332304     
   10257.500 -999.25000000    -999.25000000    18.41525732      13.53268886      12.30640047     
   10258.000 -999.25000000    -999.25000000    19.64460809      13.19501183      13.37396023     
   10258.500 -999.25000000    -999.25000000    19.65962625      13.20126540      10.28819320     
   10259.000 -999.25000000    -999.25000000    17.57363048      12.95836508      8.23900050      
   10259.500 -999.25000000    -999.25000000    15.58493591      12.94849881      7.04157672      
   10260.000 -999.25000000    -999.25000000    14.88143597      13.84580627      6.66189370      
   10260.500 -999.25000000    -999.25000000    16.32169287      14.34156996      8.31546549      
   10261.000 -999.25000000    -999.25000000    17.73672883      11.48967725      10.28403144     
   10261.500 -999.25000000    -999.25000000    14.47467202      10.97103621      8.31546549      
   10262.000 -999.25000000    -999.25000000    11.27934179      10.97103621      7.65205777      
   10262.500 -999.25000000    -999.25000000    11.48525550      11.92218821      8.17267065      
   10263.000 -999.25000000    -999.25000000    12.25722284      12.48579368      9.46357157      
   10263.500 -999.25000000    -999.25000000    13.69419524      12.71862687      9.81981295      
   10264.000 -999.25000000    -999.25000000    15.87556144      12.14451137      9.12025385      
   10264.500 -999.25000000    -999.25000000    19.65655600      10.67115776      6.30268326      
   10265.000 -999.25000000    -999.25000000    25.60630585      10.18946448      5.72885428      
   10265.500 -999.25000000    -999.25000000    29.39503626      10.57303097      5.69368039      
   10266.000 -999.25000000    -999.25000000    23.92485262      11.27934179      6.44993848      
   10266.500 -999.25000000    -999.25000000    20.29537863      11.48967725      8.54914481      
   10267.000 -999.25000000    -999.25000000    17.44638183      11.48967725      8.62848821      
   10267.500 -999.25000000    -999.25000000    16.75144715      11.48967725      8.95329418      
   10268.000 -999.25000000    -999.25000000    16.57796219      11.48773942      11.07285683     
   10268.500 -999.25000000    -999.25000000    19.98900534      11.50033357      75.64203345     
   10269.000 -999.25000000    -999.25000000    23.83738889      11.37347520      57.33266268     
   10269.500 -999.25000000    -999.25000000    23.95314531      11.38247067      20.94547319     
   10270.000 -999.25000000    -999.25000000    20.13717580      11.38390020      7.37445782      
   10270.500 -999.25000000    -999.25000000    18.19710645      11.38402375      5.48712610      
   10271.000 -999.25000000    -999.25000000    17.40442823      11.38402375      5.45664862      
   10271.500 -999.25000000    -999.25000000    17.57363048      11.38419300      5.47003773      
   10272.000 -999.25000000    -999.25000000    19.45332701      11.38317363      5.48491380      
   10272.500 -999.25000000    -999.25000000    17.54405116      11.38604127      5.48749314      
   10273.000 -999.25000000    -999.25000000    17.56564353      11.27934179      5.48879044      
   10273.500 -999.25000000    -999.25000000    17.56824200      11.27934179      5.43242517      
   10274.000 -999.25000000    -999.25000000    17.56724412      11.17562243      5.43968343      
   10274.500 -999.25000000    -999.25000000    17.57363048      11.17562243      5.43620957      
   10275.000 -999.25000000    -999.25000000    17.09327902      11.07285683      5.43666915      
   10275.500 -999.25000000    -999.25000000    17.09327902      11.06440805      5.43666915      
   10276.000 -999.25000000    -999.25000000    17.09327902      11.18452885      5.43666915      
   10276.500 -999.25000000    -999.25000000    17.09327902      11.17494332      5.43666915      
   10277.000 -999.25000000    -999.25000000    17.09327902      11.17544690      5.43666915      
   10277.500 -999.25000000    -999.25000000    17.09327902      11.17562243      5.43666915      
   10278.000 -999.25000000    -999.25000000    17.09327902      11.17562243      5.43666915      
   10278.500 -999.25000000    -999.25000000    17.09327902      11.17562243      5.43666915      
   10279.000 -999.25000000    -999.25000000    17.09327902      11.17562243      5.43666915      
   10279.500 -999.25000000    -999.25000000    17.09327902      11.17562243      5.43666915      
   10280.000 -999.25000000    -999.25000000    17.09327902      11.17562243      5.43666915      
   10280.500 -999.25000000    -999.25000000    17.09327902      11.17562243      5.43666915      
   10281.000 -999.25000000    -999.25000000    17.09327902      11.17562243      5.43674997      
   10281.500 -999.25000000    -999.25000000    17.09327902      11.17562243      5.43615111      
   10282.000 -999.25000000    -999.25000000    17.09327902      11.17562243      5.43831819      
   10282.500 -999.25000000    -999.25000000    17.09327902      11.17562243      5.44091644      
   10283.000 -999.25000000    -999.25000000    17.09327902      11.17545629      5.38966274      
   10283.500 -999.25000000    -999.25000000    17.09327902      11.17467773      5.38726134      
   10284.000 -999.25000000    -999.25000000    17.09327902      11.18040941      5.38667617      
   10284.500 -999.25000000    -999.25000000    17.09327902      11.16526699      5.38667617      
   10285.000 -999.25000000    -999.25000000    17.09327902      11.27451245      5.38667617      
   10285.500 -999.25000000    -999.25000000    17.09327902      11.27811661      5.38676335      
   10286.000 -999.25000000    -999.25000000    17.09327902      11.27934179      5.38555447      
   10286.500 -999.25000000    -999.25000000    17.09327902      11.27934179      5.38252293      
   10287.000 -999.25000000    -999.25000000    17.09292672      11.27934179      5.44159297      
   10287.500 -999.25000000    -999.25000000    17.09518458      11.27917410      5.43117654      
   10288.000 -999.25000000    -999.25000000    17.09877028      11.27934179      5.48964668      
   10288.500 -999.25000000    -999.25000000    17.09327902      11.27934179      5.53805133      
   10289.000 -999.25000000    -999.25000000    17.41203190      11.48967725      5.64132407      
   10289.500 -999.25000000    -999.25000000    17.41203190      11.48967725      5.64132407      
   10290.000 -999.25000000    -999.25000000    17.41203190      11.48967725      5.64132407      
