###############################################
##         ENVERUS                           ##
##         ESS - Open Hole                   ##
##         PERMIAN / DELAWARE                ##
##         Nov 03 2023  V4.0                 ##
##         42-109-32599-00-00                ##
###############################################
## Copyright 2017-2023  ENVERUS.  All Rights Reserved. 
## Confidential - Property of ENVERUS, use governed by terms and 
## conditions found within the existing Information Services Subscription Agreement 
## (as may be amended, the “ISSA”) between Customer and ENVERUS. 
## 
~VERSION INFORMATION
# MNEM.UNIT                               DATA : DESCRIPTION OF MNEMONIC
#-----.-----     ----------------------------- : -----------------------------
VERS.                                     2.00 : CWLS LOG ASCII STANDARD - VERSION 2.00
WRAP.                                       NO : MULTIPLE LINES PER DEPTH STEP
VEND.                                  ENVERUS : VENDOR
TYPE.                          ESS - OPEN HOLE : ENVERUS ESSENTIAL CURVES – ACCESSIBLE THROUGH ENVERUS PRISM(TM)
DOC.                                  21933172 : ENVERUS HEADER RAW DOCUMENT ID
#___________________________________________________________________________________________________ 
~WELL INFORMATION 
# uOzh0bdZpl++Qd8K/evm6vwbqlxLNv7zXaBwNvlB7bYnaXF7FEkKOyKwz7AUW0q8cTh4whY6gpezG6wl1Vx46w== 
# MNEM.UNIT                                              DATA : DESCRIPTION OF MNEMONIC 
#-----.-----                    ----------------------------- : ----------------------------- 
CNTY.                                               CULBERSON : COUNTY 
STATE.                                                  TEXAS : STATE 
CNTRY.                                                    USA : COUNTRY 
API.                                             42-109-32599 : API (10 Digit) 
API_14.                                    42-109-32599-00-00 : API (14 Digits) 
API_14_std.                                 42-109-32599-0000 : API (14 Digits Standard) 
UWI.                                           42109325990000 : UNIQUE WELL ID 
WELL.                                           COMANCHE 46 6 : WELL NAME
STRT.FT                                                 190.0 : START DEPTH
STOP.FT                                                5230.0 : STOP DEPTH
STEP.FT                                                   0.5 : STEP BETWEEN DEPTHS
NULL.                                                 -999.25 : NULL VALUE
SRVC.                                             HALLIBURTON :  
DATE.                                  12/31/2013 12-00-00 AM : 
#___________________________________________________________________________________________________ 
~PARAMETER INFORMATION 
# MNEM.UNIT                                              DATA : DESCRIPTION OF MNEMONIC 
#-----.-----                    ----------------------------- : -----------------------------
#___________________________________________________________________________________________________ 
~CURVE INFORMATION 
# MNEM.UNIT           : CURVE DESCRIPTION 
#-----.-----          : ----------------------------- 
 DEPT.FT               : MEASURED DEPTH 
 CALI.IN               : CALIPER (CALD) 
 GR.API                : GAMMA RAY (GRD) 
 PE.B/E                : PHOTOELECTRIC EFFECT/FACTOR 
 RESS_LL.OHMM          : SHALLOW LATEROLOG (LLS) 
 RESD_LL.OHMM          : DEEP LATEROLOG (LLD) 
 DPHI_LS.V/V           : DENSITY POROSITY - LIMESTONE 
 NPHI_LS.V/V           : NEUTRON POROSITY - LIMESTONE 
 RHOB.G/CC             : BULK DENSITY 
 #___________________________________________________________________________________________________ 
~A         DEPT           CALI             GR             PE        RESS_LL        RESD_LL        DPHI_LS        NPHI_LS           RHOB
# ...
         2284.5         13.825         12.038      -999.2500      -999.2500      -999.2500     -999.25000        0.11930      -999.2500
         2285.0         13.979         11.289      -999.2500      -999.2500      -999.2500     -999.25000        0.11950      -999.2500
         2285.5         13.979         11.315      -999.2500      -999.2500      -999.2500     -999.25000        0.15190      -999.2500
         2286.0         13.979         11.254      -999.2500      -999.2500      -999.2500     -999.25000        0.14250      -999.2500
         2286.5         13.846         10.946      -999.2500      -999.2500      -999.2500     -999.25000        0.12680      -999.2500
         2287.0         13.819          9.544      -999.2500      -999.2500      -999.2500     -999.25000        0.12900      -999.2500
         2287.5         13.793          8.911      -999.2500      -999.2500      -999.2500     -999.25000        0.13570      -999.2500
         2288.0         13.766          8.587      -999.2500      -999.2500      -999.2500     -999.25000        0.13710      -999.2500
         2288.5         13.713          8.882      -999.2500      -999.2500      -999.2500     -999.25000        0.12970      -999.2500
         2289.0         13.579         10.230      -999.2500      -999.2500      -999.2500     -999.25000        0.12040      -999.2500
         2289.5         13.459         11.099      -999.2500      -999.2500      -999.2500     -999.25000        0.11300      -999.2500
         2290.0         13.459         11.620         4.5421      -999.2500     38888.5796        0.01650        0.11300         2.9987
         2290.5         13.443         11.225         4.5539      -999.2500     38806.2030        0.01860        0.12110         2.9992
         2291.0         13.502         10.236         4.5608      -999.2500     38816.0819        0.02210        0.11570         2.9994
         2291.5         13.194          9.941         4.5188      -999.2500     38825.9607        0.02260        0.12030         2.9994
         2292.0         13.106         10.259         4.4800      -999.2500     38835.8395        0.01940        0.11430         2.9994
         2292.5         13.513         10.854         4.4763      -999.2500     38845.7184        0.01740        0.11090         2.9994
         2293.0         13.656         11.199         4.4803      -999.2500     38855.5972        0.01730        0.11150         2.9995
         2293.5         13.553         10.361         4.4862      -999.2500     38865.4760        0.01360        0.11980         2.9995
         2294.0         13.504         10.036         4.5590      -999.2500     38875.3549        0.00730        0.11950         2.9995
         2294.5         13.440         10.471         4.5936      -999.2500     38885.2337       -0.00010        0.11700         2.9995
         2295.0         13.494         11.011         4.6006      -999.2500     38895.1125        0.00430        0.10720         2.9997
         2295.5         13.564         10.475         4.5828      -999.2500     38904.9914        0.01020        0.11590         2.9999
         2296.0         13.502         10.751         4.4870      -999.2500     38914.8702        0.01480        0.12600         3.0002
         2296.5         13.441         11.650         4.3913      -999.2500     38924.7490        0.00980        0.13620         3.0003
         2297.0         13.270         12.485         4.3802      -999.2500     38934.6279        0.01090        0.12210         3.0002
         2297.5         13.080         13.655         4.3783      -999.2500     38944.5067        0.01850        0.10850         3.0001
         2298.0         13.096         13.505         4.1623      -999.2500     38954.3855        0.02240        0.11580         3.0008
         2298.5         13.121         11.372         4.0379      -999.2500     38964.2644        0.02150        0.12160         3.0008
         2299.0         13.300         10.491         4.0814      -999.2500     38974.1432        0.02020        0.10640         3.0008
         2299.5         13.649         10.493         4.1238      -999.2500     38984.0220        0.02130        0.10700         2.9945
         2300.0         13.747         10.976         4.1297      -999.2500     38993.9009        0.03230        0.11110         2.9930
         2300.5         13.675         12.742         4.1607      -999.2500     39003.7797        0.04170        0.10600         2.9939
         2301.0         13.598         14.213         4.2206      -999.2500     39013.6585        0.04310        0.11720         2.9972
         2301.5         13.486         14.217         4.2623      -999.2500     39023.5373        0.03640        0.11120         2.9989
         2302.0         13.492         14.773         4.3517      -999.2500     39033.4162        0.03650        0.10550         2.9998
         2302.5         13.547         12.535         4.3513      -999.2500     39043.2950        0.03830        0.11110         3.0006
         2303.0         13.515         13.226         4.3622      -999.2500     39053.1738        0.03550        0.11830         3.0008
         2303.5         13.569         14.172         4.3535      -999.2500     39063.0527        0.03230        0.11030         3.0011
         2304.0         13.627         12.808         4.2667      -999.2500     39072.9315        0.02680        0.09870         3.0013
         2304.5         13.711          9.350         4.2768      -999.2500     39082.8103        0.01970        0.09040         3.0015
         2305.0         13.808          8.991         4.4731      -999.2500     39092.6892        0.01470        0.09660         3.0015
         2305.5         13.678         10.565         4.5094      -999.2500     39102.5680        0.01730        0.11020         3.0015
         2306.0         13.568         13.714         4.5255      -999.2500     39112.4468        0.02680        0.12540         3.0015
         2306.5         13.787         14.514         4.5416      -999.2500     39122.3257        0.04100        0.11970         2.9878
         2307.0         14.038         13.240         4.5578      -999.2500     39132.2045        0.05530        0.13290         2.9706
         2307.5         14.619         11.966         4.5739      -999.2500     39142.0833        0.06400        0.15240         2.9657
         2308.0         15.169         10.542         4.5956     38991.3085     39151.9622        0.06680        0.19650         2.9471
         2308.5         15.720          9.560         4.6948     38985.2209     39161.8410        0.09710        0.19980         2.8772
         2309.0         15.814          9.889         4.5294     39221.2270     39171.7198        0.15440        0.17490         2.8073
         2309.5         11.383          9.315         4.3640     39460.4955     39181.5987        0.13170        0.14360         2.7788
         2310.0          8.070         11.413         4.3505     39460.4955     39191.4775        0.01150        0.11090         2.8488
         2310.5          8.042         13.532         4.7664     39460.4955     39201.3563       -0.06850        0.03340         2.9620
         2311.0          8.002         14.967         5.2166     39460.4955     39209.2594       -0.14850       -0.00340         2.9846
         2311.5          8.022         13.714         5.1613     39460.4955     39209.2594       -0.17100       -0.00800         2.9755
         2312.0          8.062         13.661         5.0416     39460.4955     39209.2594       -0.15720       -0.01130         2.9602
         2312.5          8.039         14.471         4.9937     39460.4955     39240.4058       -0.14650       -0.01450         2.9450
         2313.0          8.010         16.411         4.9937     39460.4955     39271.5521       -0.14330       -0.01640         2.9412
         2313.5          7.981         16.411         4.9937     39460.4955     39302.6985       -0.14660       -0.01640         2.9470
