~Version Information Block
 VERS.                2.00:     CWLS LOG ASCII STANDARD - VERSION 2.000000
 WRAP.                  NO:     One Line Per Depth Step
#
~Well Information Block
#MNEM.UNIT                     Data                         Information
#----------   ------------------------------------------   ----------------
 STRT.FT                                        4.0000:     START DEPTH
 STOP.FT                                    10300.0000:     STOP DEPTH
 STEP.FT                                        0.5000:     STEP
 NULL.                                       -999.2500:     NULL VALUE
 COMP.                            MONSANTO OIL COMPANY:     COMPANY
 WELL.                               UNIVERSITY_6-46-1:     WELL
 FLD .                                         WILDCAT:     FIELD
 LOC .                                                :     LOCATION
 CNTY.                                       CULBERSON:     COUNTY
 STAT.                                           TEXAS:     STATE
 CTRY.                                             USA:     COUNTRY
 SRVC.                                                :     SERVICE COMPANY
 DATE.                                      10/31/2016:     DATE
 API .                                  42109315500000:     API NUMBER
 UWI .                                  42109315500000:     UWI NUMBER
 TVD .                                              NO:     TVD flag
 WSTA.                                             LOC:     Well status
#
~Curve Information Block
#MNEM.UNIT       API CODE      Curve Description
#----------    -------------   -------------------
 DEPT.FT                   :   Depth in Feet
 CALI.IN                   :   Caliper
 GR  .GAPI                 :   Gamma Ray
 DPHI.V/V                  :   Density Porosity
 NPHI.V/V                  :   Neutron Porosity
 DRHO.G/C3                 :   Delta Rho
 RHOB.G/C3                 :   Bulk Density
#
~Parameter Information Block
#MNEM.UNIT            Value               Description
#----------    --------------------    -------------------
 RUN .                         ONE:    Run Number
 PDAT.                          GL:    Permanent Datum
 EPD .FT                          :    Elevation Of Perm. Datum
 LMF .               KELLY BUSHING:    Log Measured From
 EKB .FT                          :    Elevation Of Kelly Bushing
 DF .FT                           :    Elevation Of Derrick Floor
 GL .FT                           :    Elevation Of Ground Level
 TD  .FT                          :    Total Depth
 CSGD.FT                          :    Casing Bottom (Driller) 1
 CSGL.FT                          :    Casing Bottom (Logger) 1
 MUD .                            :    Drilling Fluid Type
 MUDV .CP                         :    Drilling Fluid Viscosity
 MUDD .LB/USG                     :    Drilling Fluid Density
 FL .ML/30MIN                     :    Drilling Fluid Loss
 PH.                              :    Drilling Fluid Ph
 MUDS .                           :    Mud Sample Source
 RM .OHMM                         :    Resistivity Of Mud Sample
 RMT .DEGF                        :    Mud Sample Temperature
 RMF .OHMM                        :    Mud Filtrate Resistivity
 RMFT.DEGF                        :    Mud Filtrate Sample Temperature
 RMC .OHMM                        :    Mud Cake Resistivity
 RMCT.DEGF                        :    Mud Cake Sample Temperature
 RMB .OHMM                        :    Mud Resistivity At Bht
 TMAX .DEGF                       :    Bottom Hole Temperature   
#
~Other Information Block
<DescLogPlotStart>   NEURALOG PLOT DEFINITION
PLOTDEFVERSION: 3
LASFILE: E:\nds\projects\Texas Standard Oil LLC\pdf\Pradeep+Ekta\42109315500000
DEPTHSCALE: 240.000000
RESOLUTION: 200
DEPTHLABELFREQ: 100.000000
HEAVYGRIDFREQ: 100.000000
MEDIUMGRIDFREQ: 50.000000
LIGHTGRIDFREQ: 10.000000
#
#   TRACK 1
#
STARTTRACK: 
 LEFTX: 0.500000 inch
 RIGHTX: 3.000000 inch
 SCALETYPE: Linear
 NUMCHARTDIVISIONS: 10
CURVE: CALI  6.000000   16.000000  (0,0,255)      Solid             2     N    
CURVE: GR    0.000000   100.000000 (0,131,131)    Dot               2     Y    
BACKUP: 100.000000 200.000000 (0,131,131)    Dot               2    
ENDTRACK: 
#
#   TRACK 2
#
STARTTRACK: 
 LEFTX: 3.500000 inch
 RIGHTX: 8.500000 inch
 SCALETYPE: Linear
 NUMCHARTDIVISIONS: 10
CURVE: DPHI  0.300000   -0.100000  (255,0,255)    Solid             2     Y    
BACKUP: 0.700000   0.300000   (255,0,255)    Solid             2    
CURVE: NPHI  0.300000   -0.100000  (255,0,0)      Dot               2     Y    
BACKUP: 0.700000   0.300000   (255,0,0)      Dot               2    
CURVE: DRHO  -0.050000  0.950000   (255,131,0)    Short_Dash        2     N    
ENDTRACK: 
#
#   TRACK 3
#
STARTTRACK: 
 LEFTX: 8.500000 inch
 RIGHTX: 13.500000 inch
 SCALETYPE: Linear
 NUMCHARTDIVISIONS: 10
CURVE: RHOB  2.000000   3.000000   (255,255,0)    Solid             2     Y    
BACKUP: 1.000000   2.000000   (255,255,0)    Solid             2    
ENDTRACK: 
<DescLogPlotEnd>
~A DEPTH     CALI             GR               DPHI             NPHI             DRHO             RHOB            
# ...
    6829.000 8.72539974       113.26254139     0.07679435       0.15974245       0.01632123       2.58829927      
    6829.500 8.71544367       117.92814027     0.08434221       0.16061328       0.01880240       2.58105604      
    6830.000 8.71531887       110.26685857     0.08160195       0.16243620       0.01602287       2.56883844      
    6830.500 8.71578382       97.78122396      0.07673019       0.16098295       0.01328645       2.56801253      
    6831.000 8.73167034       90.14451444      0.06349047       0.13927984       0.01176221       2.57869366      
    6831.500 8.71788929       62.11641927      0.04343029       0.09100602       0.01102247       2.60635074      
    6832.000 8.69507127       49.19193959      0.01234664       0.06540822       0.03192642       2.63647350      
    6832.500 8.67175036       50.98126184      -0.00471414      0.04583751       0.04682065       2.66705033      
    6833.000 8.65509732       63.94459428      0.00772317       0.06239870       0.04708448       2.72733885      
    6833.500 8.65559089       77.67998487      0.02858576       0.08767836       0.04718480       2.69979952      
    6834.000 8.64547479       80.26021874      0.05624817       0.11320108       0.03504062       2.64417721      
    6834.500 8.63421736       78.12662967      0.07111334       0.12957157       0.01713949       2.58571202      
    6835.000 8.61490115       71.51743507      0.07236135       0.11128112       0.01688489       2.58687997      
    6835.500 8.61739843       69.98228513      0.07075444       0.09306975       0.01548875       2.58956797      
    6836.000 8.62789658       73.73705142      0.06765668       0.09110732       0.01500771       2.58938100      
    6836.500 8.63542367       76.26316296      0.06188566       0.09157472       0.01459083       2.59419986      
    6837.000 8.63528162       76.85482003      0.04182548       0.08749047       0.02460079       2.61515997      
    6837.500 8.63527546       76.68364682      0.03139418       0.08114343       0.01585174       2.63483325      
    6838.000 8.63527054       74.06599808      0.03200983       0.08116750       0.02528497       2.64947075      
    6838.500 8.63536100       70.11283268      0.03861585       0.08355065       0.01579601       2.65219157      
    6839.000 8.63571644       64.62436280      0.04022066       0.08355065       0.00714244       2.64860792      
    6839.500 8.63044524       54.92796296      0.03841073       0.07713139       0.00603132       2.64263068      
    6840.000 8.61278478       47.72024495      0.03586359       0.05554218       0.00458569       2.63783762      
    6840.500 8.60839233       40.68758282      0.02293736       0.02533445       0.01090576       2.68894872      
    6841.000 8.60478727       36.35943328      0.00305352       0.01855567       0.03408030       2.69382720      
    6841.500 8.60110403       40.45718468      -0.01113340      0.01775326       0.05685888       2.71278800      
    6842.000 8.59739115       100.77251109     -0.01394183      0.05612875       0.07034930       2.72219207      
    6842.500 8.59367827       120.58834840     0.01373601       0.09478435       0.06932213       2.73327637      
    6843.000 8.58996539       138.62782476     0.03573087       0.16116406       0.06882146       2.73475733      
    6843.500 8.58625251       141.76589859     0.05772574       0.19989970       0.05064242       2.61094572      
    6844.000 8.58253962       139.30879416     0.07972060       0.19479996       0.03120749       2.55052672      
    6844.500 8.57882674       137.91687005     0.09959880       0.18385155       0.01916917       2.53379043      
    6845.000 8.57511386       143.37150717     0.11163490       0.18998997       0.01328734       2.51148176      
    6845.500 8.57140098       146.70265684     0.11404213       0.19771225       0.01468411       2.51362188      
    6846.000 8.56768810       144.43187473     0.09532464       0.20543453       0.02134407       2.51960602      
    6846.500 8.56397522       115.10529963     0.07753260       0.21113340       0.03132326       2.56330192      
    6847.000 8.56026234       107.71921545     0.05947844       0.16921264       0.03848212       2.56062283      
    6847.500 8.55654946       103.34704157     0.04824473       0.13289870       0.04428035       2.62205706      
    6848.000 8.55283658       115.65480089     0.05568171       0.13169509       0.04238456       2.63015870      
    6848.500 8.54912370       122.48620775     0.06670010       0.15064493       0.03548716       2.62050138      
    6849.000 8.54539833       122.32945986     0.07231695       0.16980943       0.02405780       2.59651980      
    6849.500 8.54159304       120.07620090     0.06386574       0.15969388       0.02638561       2.59136128      
    6850.000 8.53794985       121.58095065     0.06371973       0.13570712       0.02843104       2.62618131      
    6850.500 8.54147498       123.34389838     0.06357372       0.14145737       0.03039522       2.62190371      
    6851.000 8.57634319       124.40481799     0.06750251       0.17221665       0.03275344       2.60256171      
    6851.500 8.61044411       117.49151201     0.07111334       0.17582748       0.05312730       2.58742402      
    6852.000 8.64448898       128.78830043     0.05247835       0.15376128       0.11840762       2.58645464      
    6852.500 8.67852371       141.72577254     0.04010569       0.15496489       0.16122488       2.63403598      
    6853.000 8.71255845       148.45095266     0.05825346       0.21273821       0.13894067       2.64496886      
    6853.500 8.74659319       150.81015657     0.08395186       0.21995988       0.08028084       2.62644070      
    6854.000 8.78063926       134.10166678     0.09277834       0.19743975       0.03981015       2.53651223      
    6854.500 8.81474560       121.87003176     0.08515547       0.16692377       0.01607224       2.57692501      
    6855.000 8.84953201       118.14948892     0.06549649       0.13610832       0.02125170       2.55908164      
    6855.500 8.85296036       127.92203023     0.05707121       0.13530592       0.02537897       2.58000129      
    6856.000 8.84949773       138.54241676     0.06352391       0.15242053       0.02929308       2.60026101      
    6856.500 8.84588639       144.38895219     0.07231695       0.17398456       0.03271231       2.60588841      
    6857.000 8.84235367       147.55399053     0.08274824       0.18360203       0.02683245       2.59390899      
    6857.500 8.83883284       151.04649291     0.09117352       0.19718649       0.02057730       2.57785806      
    6858.000 8.83531200       143.20979722     0.09619017       0.20672245       0.01511220       2.56357564      
    6858.500 8.83179117       129.66131984     0.09117352       0.20511535       0.01849412       2.55385634      
    6859.000 8.82827033       115.52596208     0.08074223       0.19116483       0.02197032       2.55627077      
    6859.500 8.82474677       104.79794663     0.07031093       0.17310832       0.02503919       2.56584945      
    6860.000 8.82122398       100.78759429     0.06307780       0.15505182       0.02489755       2.57977297      
    6860.500 8.81772540       94.83271714      0.05827482       0.13932397       0.02514925       2.59371837      
    6861.000 8.81560978       102.56797868     0.05386158       0.12487462       0.02301301       2.60673779      
    6861.500 8.81563345       108.55214909     0.04984955       0.13450351       0.05355608       2.61870158      
    6862.000 8.81564990       113.37302740     0.04663992       0.18794062       0.04333541       2.62469470      
    6862.500 8.81567775       99.73292785      0.05506520       0.20310933       0.03414057       2.62435159      
    6863.000 8.81620103       94.53568465      0.06509529       0.20351053       0.01944902       2.61495554      
    6863.500 8.78564396       72.87348258      0.04612265       0.15085507       0.01185014       2.60976132      
