~VERSION INFORMATION
VERS. 2.0 : CWLS Log ASCII Standard - Version 2.0
WRAP. NO : One line per depth step
#--------------------------------------------------#
#----------------DRILLING INFO, INC.---------------#
#---------------WWW.DRILLINGINFO.COM---------------#
#------------------COPYRIGHT 2015------------------#
#--------------------------------------------------#
#THIS FILE MAY BE USED ONLY IN ACCORDANCE WITH A CURRENT SUBSCRIPTION AGREEMENT BETWEEN
#THE USER AND DRILLING INFO, INC. NO PART OF THIS FILE MAY BE REPRODUCED, USED, COPIED,
#MODIFIED, PROPAGATED, OR DISTRIBUTED EXCEPT IN ACCORDANCE WITH THE SUBSCRIPTION
#AGREEMENT. UNAUTHORIZED USE OR DISTRIBUTION OF ALL OR ANY PART OF THIS FILE MAY VIOLATE
#COPYRIGHT, TRADEMARK, AND/OR OTHER LAWS AND IS SUBJECT TO CIVIL AS WELL AS CRIMINAL
#SANCTIONS.
#--------------------------------------------------#
#THIS FILE IS PROVIDED "AS-IS" AND ALL WARRANTIES ARE EXPRESSLY DISCLAIMED, WHETHER
#EXPRESS, ORAL, IMPLIED, STATUTORY OR OTHERWISE, INCLUDING ANY IMPLIED WARRANTY OF FITNESS
#FOR A PARTICULAR PURPOSE, MERCHANTABILITY, TITLE OR NON-INFRINGEMENT, AND ANY WARRANTIES
#ARISING BY VIRTUE OF CUSTOM OF TRADE OR COURSE OF DEALING.  FURTHER, DRILLING INFO,
#INC. AND ITS LICENSORS DO NOT REPRESENT OR WARRANT THAT THIS FILE WILL MEET USER'S
#REQUIREMENTS OR ARE SUITABLE FOR USER'S NEEDS OR THAT THE DATA OR RESULTS PROVIDED IN
#CONJUNCTION THEREWITH ARE CORRECT, ACCURATE, TIMELY OR RELIABLE. THESE DISCLAIMERS SHALL
#APPLY REGARDLESS OF ANY FAILURE OF ESSENTIAL PURPOSE OF ANY LIMITED REMEDY.  SOME
#JURISDICTIONS DO NOT ALLOW THE EXCLUSION OF CERTAIN WARRANTIES SO SOME OF THE ABOVE
#EXCLUSIONS MAY NOT APPLY. IN NO EVENT SHALL DRILLING INFO, INC. OR ANY OF ITS AFFILIATES
#BE LIABLE UNDER ANY LEGAL THEORY, WHETHER IN TORT (INCLUDING WITHOUT LIMITATION
#NEGLIGENCE), CONTRACT, STRICT LIABILITY, STATUTORY OR OTHERWISE, FOR ANY SPECIAL,
#INCIDENTAL, CONSEQUENTIAL, EXEMPLARY, PUNITIVE OR INDIRECT DAMAGE OF ANY KIND, INCLUDING
#WITHOUT LIMITATION LOSS OF REVENUE, PROFITS, GOODWILL, USE, AND/OR DATA OR THE COST OF
#PROCUREMENT OF SUBSTITUTE GOODS OR SERVICES, EVEN IF APPRISED OF THE POSSIBILITY OF SUCH
#DAMAGES IN ADVANCE.
#--------------------------------------------------#
~WELL INFORMATION
#MNEMONIC     .UNIT              VALUE :DESCRIPTION
#--------------------------------------------------#
STRT       .ft                97.00000 :START DEPTH
STOP       .ft                8647.00000 :STOP DEPTH
STEP       .ft                0.50000 :STEP
NULL       .                -999.25000 :NULL VALUE
COMP       .                 :COMPANY
WELL       .                 :WELL
FLD       .                 :FIELD
LOC       .                 :LOCATION
CNTY       .                 :COUNTY
STAT       .                 :STATE
CTRY       .                 :COUNTRY
SRVC       .                 :SERVICE COMPANY
DATE       .                 :DATE
API       .                42109002030000 :API NUMBER
~CURVE INFORMATION
#MNEMONIC     .UNIT      API CODE :CURVE DESCRIPTION
#--------------------------------------------------#
DEPTH       .ft                      :Measured Depth
DT       .us/ft        UNKNOWN   :DT
GR       .gAPI        UNKNOWN   :GR
ILD       .ohmm        UNKNOWN   :ILD
ILS       .ohmm        UNKNOWN   :ILS
SP       .mV        UNKNOWN   :SP
~A    DEPTH    DT    GR    ILD    ILS    SP
# ...
2059.50000    63.18164    46.46891    558.49025    850.12792    -73.29725
2060.00000    62.84467    45.86757    561.64771    842.89704    -72.59175
2060.50000    62.50770    45.26623    566.43765    842.42328    -72.58806
2061.00000    62.17074    44.66490    571.22758    841.94952    -72.58438
2061.50000    61.83377    44.06356    576.01751    841.47577    -72.58070
2062.00000    61.66777    43.43710    575.77400    841.00201    -72.57702
2062.50000    62.56215    42.10261    575.42297    840.52825    -72.57334
2063.00000    63.45653    40.76813    575.07195    840.05449    -72.56966
2063.50000    63.21798    39.43365    574.72092    839.58073    -72.56597
2064.00000    62.64927    38.09916    574.36989    839.10698    -72.56229
2064.50000    62.08056    36.76468    574.01886    838.63322    -72.55861
2065.00000    61.51185    36.11729    573.66784    838.15946    -72.55493
2065.50000    60.94314    35.88250    572.13183    837.68570    -73.04180
2066.00000    60.37443    35.64771    570.13390    837.21194    -73.60043
2066.50000    59.80572    36.88132    568.13598    836.73819    -74.15905
2067.00000    59.82496    38.42922    566.13805    836.26443    -74.71768
2067.50000    60.99735    39.97713    564.14012    835.79067    -75.27630
2068.00000    62.16974    41.52503    562.14219    835.31691    -75.83493
2068.50000    63.34213    43.07294    560.66931    834.84315    -76.39355
2069.00000    64.51452    44.62085    564.08491    834.36940    -76.95218
2069.50000    64.87504    45.25243    567.50050    833.89564    -77.51080
2070.00000    64.58148    43.22022    570.91610    833.42188    -78.06942
2070.50000    64.28793    41.18801    570.60782    832.94812    -78.62805
2071.00000    63.99437    39.50543    552.20450    832.47436    -79.18667
2071.50000    64.35818    40.72668    533.80118    832.00061    -79.74530
2072.00000    64.90148    41.94793    524.29206    831.59371    -80.14387
2072.50000    65.47887    43.16918    527.16124    831.93491    -80.45390
2073.00000    66.05626    44.39043    530.03042    832.27610    -80.76393
2073.50000    66.63365    45.61169    532.89960    832.61729    -81.07396
2074.00000    67.21104    46.83294    535.76877    832.95849    -81.38399
2074.50000    67.78843    50.60947    538.63795    833.29968    -81.69402
2075.00000    68.36582    54.57432    541.50713    833.64087    -82.00405
2075.50000    68.75813    55.31052    532.49488    833.98207    -82.31407
2076.00000    68.54754    54.64486    521.65666    834.32326    -82.62410
2076.50000    68.33695    53.97920    514.34680    834.66445    -82.93413
2077.00000    68.12636    53.31354    525.21058    835.00565    -83.24416
2077.50000    67.91577    52.64788    536.07437    835.34684    -83.55419
2078.00000    67.70518    51.13271    546.93815    835.68804    -83.86422
2078.50000    67.49459    48.82926    557.80194    836.02923    -84.17425
2079.00000    67.28400    46.52582    568.66572    836.37042    -84.48428
2079.50000    67.07341    44.22238    579.52950    836.71162    -84.79431
2080.00000    66.29726    41.91893    590.39329    837.05281    -85.10434
2080.50000    65.17631    39.61549    601.25707    837.39400    -85.41437
2081.00000    63.70492    37.31205    594.03916    837.73520    -85.72440
2081.50000    62.23352    35.00860    582.24077    832.39034    -86.03442
2082.00000    60.76212    32.52800    570.44239    826.56959    -86.34445
2082.50000    59.29073    30.00978    558.64401    820.74883    -86.65448
2083.00000    57.81933    27.49156    547.70875    814.92808    -86.96451
2083.50000    56.34794    24.97333    551.43676    809.10732    -87.27454
2084.00000    54.87654    22.45511    555.16477    803.28657    -87.58457
2084.50000    53.40515    19.93689    558.89277    797.46581    -87.78794
2085.00000    54.83708    24.49704    562.62078    791.64506    -87.94413
2085.50000    56.79990    29.36073    566.34879    785.82430    -88.10033
2086.00000    58.76271    34.22442    570.07680    780.00355    -88.25652
2086.50000    60.72553    39.08812    573.80481    774.18279    -88.41272
2087.00000    61.85246    43.95181    572.43540    768.36204    -88.56891
2087.50000    62.65959    48.20616    570.25651    762.54128    -88.72511
2088.00000    63.46673    52.33691    568.07761    756.72052    -88.88131
2088.50000    64.27386    55.57886    565.89872    750.89977    -89.03750
2089.00000    65.08099    54.48438    563.71982    745.07901    -89.19370
2089.50000    65.88812    53.38990    561.54093    739.25826    -89.34989
2090.00000    66.69526    52.29542    559.36203    733.43750    -89.50609
2090.50000    67.50239    51.20094    557.05856    727.61675    -89.66228
2091.00000    67.25919    50.10645    554.66283    723.34340    -89.81848
2091.50000    66.84949    49.01197    552.26710    719.52369    -89.97468
2092.00000    66.43980    47.91749    549.87138    715.70397    -90.13087
2092.50000    66.03010    46.82301    547.47565    711.88426    -90.28707
2093.00000    66.03270    45.72853    545.07992    708.06454    -90.44326
2093.50000    66.72288    44.97530    542.68419    704.24482    -90.59946
2094.00000    67.41306    46.71484    545.56044    700.42511    -90.75566
2094.50000    68.10324    48.45437    548.74879    696.60539    -90.91185
2095.00000    68.79342    50.19390    551.93713    692.78568    -91.06805
2095.50000    69.48360    51.93344    555.12548    688.96596    -91.22424
2096.00000    68.56452    53.67297    558.31383    685.14624    -91.38044
2096.50000    68.74452    55.41250    561.09353    681.32653    -91.53664
2097.00000    68.92452    57.15203    556.53518    677.50681    -91.69283
2097.50000    69.10452    58.57863    551.97682    673.68710    -91.84903
2098.00000    69.28452    57.27587    547.41846    669.86738    -92.00522
2098.50000    68.77552    55.97310    542.86010    666.04767    -92.16142
2099.00000    67.76888    54.67034    537.37162    662.22795    -92.39605
2099.50000    66.76224    53.36758    530.42327    661.38844    -92.76856
2100.00000    65.75560    51.83050    523.47491    660.84986    -93.14107
2100.50000    64.74896    49.78091    516.52656    660.31127    -93.51358
2101.00000    63.74232    47.73132    509.57820    659.77268    -93.88609
2101.50000    64.32297    45.68172    502.92417    659.23409    -94.25860
2102.00000    65.47518    43.63213    506.71065    658.69551    -94.63111
2102.50000    66.62739    44.44996    510.49713    658.15692    -95.00362
2103.00000    66.95344    45.55721    514.28361    657.61833    -95.37613
2103.50000    66.04360    46.66445    518.07009    657.07974    -95.74864
2104.00000    64.99361    45.34913    521.85656    656.54116    -96.12115
2104.50000    63.94362    43.41588    525.64304    656.00257    -96.49366
2105.00000    62.89363    41.48264    529.42952    655.46398    -96.86617
2105.50000    61.84363    39.54939    533.21600    654.92539    -97.23868
2106.00000    60.79364    37.61615    533.94085    654.38680    -97.61119
2106.50000    60.22829    35.68290    531.94705    653.84822    -97.98370
2107.00000    61.31179    33.74965    529.95326    653.30963    -98.35621
2107.50000    62.39530    31.81641    539.22095    652.77104    -98.52240
2108.00000    63.47880    30.15895    550.02101    652.23245    -98.60979
2108.50000    64.56231    33.89944    560.82107    651.69387    -98.69718
2109.00000    65.64581    37.63993    556.00949    651.15528    -98.78457
2109.50000    66.72932    41.38041    543.26185    650.61669    -98.87196
2110.00000    67.10157    45.12090    530.51421    650.01341    -98.95935
2110.50000    67.36070    47.11282    533.71066    649.39400    -99.04674
2111.00000    67.61984    47.54752    537.81450    648.77458    -99.13413
2111.50000    67.87898    47.98222    541.91834    648.15516    -99.22151
2112.00000    67.97687    48.41692    546.02217    647.53575    -99.30890
2112.50000    67.59094    47.27035    550.12601    646.91633    -99.39629
2113.00000    67.20500    45.61424    553.24640    646.29691    -99.48368
2113.50000    66.81907    43.95813    542.73624    645.67750    -99.57107
