~Version Information Block
 VERS.                2.00:     CWLS LOG ASCII STANDARD - VERSION 2.000000
 WRAP.                  NO:     One Line Per Depth Step
#
~Well Information Block
#MNEM.UNIT                     Data                         Information
#----------   ------------------------------------------   ----------------
 STRT.FT                                        4.0000:     START DEPTH
 STOP.FT                                    10300.0000:     STOP DEPTH
 STEP.FT                                        0.5000:     STEP
 NULL.                                       -999.2500:     NULL VALUE
 COMP.                            MONSANTO OIL COMPANY:     COMPANY
 WELL.                               UNIVERSITY_6-46-1:     WELL
 FLD .                                         WILDCAT:     FIELD
 LOC .                                                :     LOCATION
 CNTY.                                       CULBERSON:     COUNTY
 STAT.                                           TEXAS:     STATE
 CTRY.                                             USA:     COUNTRY
 SRVC.                                                :     SERVICE COMPANY
 DATE.                                      10/31/2016:     DATE
 API .                                  42109315500000:     API NUMBER
 UWI .                                  42109315500000:     UWI NUMBER
 TVD .                                              NO:     TVD flag
 WSTA.                                             LOC:     Well status
#
~Curve Information Block
#MNEM.UNIT       API CODE      Curve Description
#----------    -------------   -------------------
 DEPT.FT                   :   Depth in Feet
 CALI.IN                   :   Caliper
 GR  .GAPI                 :   Gamma Ray
 DPHI.V/V                  :   Density Porosity
 NPHI.V/V                  :   Neutron Porosity
 DRHO.G/C3                 :   Delta Rho
 RHOB.G/C3                 :   Bulk Density
#
~Parameter Information Block
#MNEM.UNIT            Value               Description
#----------    --------------------    -------------------
 RUN .                         ONE:    Run Number
 PDAT.                          GL:    Permanent Datum
 EPD .FT                          :    Elevation Of Perm. Datum
 LMF .               KELLY BUSHING:    Log Measured From
 EKB .FT                          :    Elevation Of Kelly Bushing
 DF .FT                           :    Elevation Of Derrick Floor
 GL .FT                           :    Elevation Of Ground Level
 TD  .FT                          :    Total Depth
 CSGD.FT                          :    Casing Bottom (Driller) 1
 CSGL.FT                          :    Casing Bottom (Logger) 1
 MUD .                            :    Drilling Fluid Type
 MUDV .CP                         :    Drilling Fluid Viscosity
 MUDD .LB/USG                     :    Drilling Fluid Density
 FL .ML/30MIN                     :    Drilling Fluid Loss
 PH.                              :    Drilling Fluid Ph
 MUDS .                           :    Mud Sample Source
 RM .OHMM                         :    Resistivity Of Mud Sample
 RMT .DEGF                        :    Mud Sample Temperature
 RMF .OHMM                        :    Mud Filtrate Resistivity
 RMFT.DEGF                        :    Mud Filtrate Sample Temperature
 RMC .OHMM                        :    Mud Cake Resistivity
 RMCT.DEGF                        :    Mud Cake Sample Temperature
 RMB .OHMM                        :    Mud Resistivity At Bht
 TMAX .DEGF                       :    Bottom Hole Temperature   
#
~Other Information Block
<DescLogPlotStart>   NEURALOG PLOT DEFINITION
PLOTDEFVERSION: 3
LASFILE: E:\nds\projects\Texas Standard Oil LLC\pdf\Pradeep+Ekta\42109315500000
DEPTHSCALE: 240.000000
RESOLUTION: 200
DEPTHLABELFREQ: 100.000000
HEAVYGRIDFREQ: 100.000000
MEDIUMGRIDFREQ: 50.000000
LIGHTGRIDFREQ: 10.000000
#
#   TRACK 1
#
STARTTRACK: 
 LEFTX: 0.500000 inch
 RIGHTX: 3.000000 inch
 SCALETYPE: Linear
 NUMCHARTDIVISIONS: 10
CURVE: CALI  6.000000   16.000000  (0,0,255)      Solid             2     N    
CURVE: GR    0.000000   100.000000 (0,131,131)    Dot               2     Y    
BACKUP: 100.000000 200.000000 (0,131,131)    Dot               2    
ENDTRACK: 
#
#   TRACK 2
#
STARTTRACK: 
 LEFTX: 3.500000 inch
 RIGHTX: 8.500000 inch
 SCALETYPE: Linear
 NUMCHARTDIVISIONS: 10
CURVE: DPHI  0.300000   -0.100000  (255,0,255)    Solid             2     Y    
BACKUP: 0.700000   0.300000   (255,0,255)    Solid             2    
CURVE: NPHI  0.300000   -0.100000  (255,0,0)      Dot               2     Y    
BACKUP: 0.700000   0.300000   (255,0,0)      Dot               2    
CURVE: DRHO  -0.050000  0.950000   (255,131,0)    Short_Dash        2     N    
ENDTRACK: 
#
#   TRACK 3
#
STARTTRACK: 
 LEFTX: 8.500000 inch
 RIGHTX: 13.500000 inch
 SCALETYPE: Linear
 NUMCHARTDIVISIONS: 10
CURVE: RHOB  2.000000   3.000000   (255,255,0)    Solid             2     Y    
BACKUP: 1.000000   2.000000   (255,255,0)    Solid             2    
ENDTRACK: 
<DescLogPlotEnd>
~A DEPTH     CALI             GR               DPHI             NPHI             DRHO             RHOB            
# ...
    2734.000 12.75691585      93.80032960      0.07449799       0.14050004       0.02215036       2.56734659      
    2734.500 12.76269396      77.34059226      0.07933735       0.13350417       0.02515806       2.56815918      
    2735.000 12.76910702      62.19461192      0.07954335       0.10422654       0.02786396       2.57207959      
    2735.500 12.77520278      57.21105607      0.07846593       0.07815173       0.02707014       2.57502406      
    2736.000 12.78885853      59.44773868      0.07461219       0.07745252       0.02980868       2.57937795      
    2736.500 12.80342260      60.59010555      0.07301508       0.09398694       0.03715495       2.58013942      
    2737.000 12.81585594      52.16963927      0.07730924       0.10060241       0.04183201       2.56318334      
    2737.500 12.80705381      46.00469406      0.08293173       0.08114681       0.04089332       2.56930523      
    2738.000 12.79788673      45.77986757      0.08493976       0.05883534       0.04088927       2.56527087      
    2738.500 12.81167644      53.93255739      0.07771084       0.05764200       0.04168490       2.58108626      
    2739.000 12.83978391      54.76197934      0.07570281       0.06650602       0.03949143       2.57446290      
    2739.500 12.87087127      51.02980049      0.07409639       0.08084337       0.03203738       2.56703012      
    2740.000 12.87634486      47.35802703      0.07100696       0.08388554       0.03008927       2.57516496      
    2740.500 12.87632434      47.31533214      0.06604757       0.08542169       0.03153491       2.58730327      
    2741.000 12.87219786      49.26969672      0.06044277       0.08734940       0.03274553       2.59765289      
    2741.500 12.85312600      50.91871871      0.05923695       0.09452748       0.03609221       2.60321399      
    2742.000 12.83528120      53.07132214      0.06044177       0.09592416       0.03750102       2.60308882      
    2742.500 12.81627783      56.08309521      0.06004016       0.09440003       0.04121869       2.60232333      
    2743.000 12.81981163      60.28695628      0.06044177       0.09819277       0.03844786       2.59935830      
    2743.500 12.82307353      65.91691587      0.06767068       0.10220884       0.02846678       2.59046025      
    2744.000 12.82625998      71.97408103      0.07811245       0.11265790       0.01918750       2.58301121      
    2744.500 12.82944217      76.63234612      0.08450807       0.12255797       0.01254362       2.57213782      
    2745.000 12.83265447      65.80709271      0.08259409       0.12982547       0.01569899       2.56610414      
    2745.500 12.83606329      54.57126921      0.07885844       0.13181966       0.02700942       2.56820986      
    2746.000 12.82782832      43.36109626      0.08118876       0.11232358       0.03325966       2.56853762      
    2746.500 12.81746306      32.09269772      0.08975904       0.09740103       0.03951118       2.56065972      
    2747.000 12.82365248      30.67571887      0.09899598       0.09056225       0.03401575       2.54949369      
    2747.500 12.83213247      37.28556970      0.10378839       0.09727380       0.03412936       2.53973123      
    2748.000 12.84836904      43.73394336      0.10321753       0.10093863       0.04149720       2.53122551      
    2748.500 12.87215253      49.57092924      0.10067004       0.10019321       0.04967773       2.53208977      
    2749.000 12.89496590      51.01887129      0.10301205       0.10301205       0.04869618       2.53160557      
    2749.500 12.87812741      53.34738044      0.10622490       0.10622490       0.03658574       2.52886167      
    2750.000 12.85878944      53.97478505      0.10602410       0.10742972       0.03544951       2.53754132      
    2750.500 12.83939309      53.67975592      0.10261044       0.10461847       0.03411643       2.54721489      
    2751.000 12.83634808      51.26483636      0.09538153       0.10180723       0.03799640       2.54704460      
    2751.500 12.83587605      49.94620997      0.09297189       0.09859438       0.04355526       2.54702124      
    2752.000 12.86374350      53.48523912      0.10027108       0.09779116       0.02931080       2.54879292      
    2752.500 12.90471286      69.31753857      0.10692771       0.10065720       0.02010770       2.53569311      
    2753.000 12.90372615      85.06339146      0.10622490       0.10608487       0.01429861       2.52555573      
    2753.500 12.88646851      88.29482742      0.10393883       0.12063626       0.01789081       2.52795553      
    2754.000 12.86884539      76.46716100      0.10157553       0.13554217       0.02475968       2.53196784      
    2754.500 12.85123808      60.42134363      0.09939759       0.12578795       0.03816669       2.53591801      
    2755.000 12.83352519      44.33511892      0.10140562       0.11448193       0.03879530       2.53509435      
    2755.500 12.81730506      38.32580142      0.10180723       0.10317590       0.03363757       2.53071530      
    2756.000 12.83194134      35.02322737      0.10863454       0.09186988       0.02878108       2.52323605      
    2756.500 12.84773647      34.26894796      0.10823293       0.08012048       0.02300672       2.52409755      
    2757.000 12.85635571      34.59710406      0.10502008       0.06967871       0.02277752       2.52605029      
    2757.500 12.85616999      36.73934540      0.10662651       0.06445783       0.02370299       2.52398879      
    2758.000 12.85076900      45.90839246      0.11305221       0.06204819       0.02259330       2.51554050      
    2758.500 12.84009676      55.76148313      0.11681807       0.07771084       0.02087567       2.50801068      
    2759.000 12.85364548      73.21328967      0.10610361       0.09457831       0.02378078       2.50582632      
    2759.500 12.86671001      86.78651256      0.08624523       0.11385542       0.03031639       2.51763277      
    2760.000 12.87987939      90.02169094      0.06947791       0.13514056       0.03443729       2.58619768      
    2760.500 12.89318172      83.31175141      0.06285141       0.13835341       0.03868230       2.60020665      
    2761.000 12.90612820      70.42722841      0.06445783       0.13714859       0.04634553       2.59634938      
    2761.500 12.90428351      56.08605203      0.06967871       0.12724717       0.05054023       2.58889888      
    2762.000 12.84283269      47.02619564      0.07783936       0.11533041       0.05162217       2.57901515      
    2762.500 12.78289916      45.68959528      0.08694779       0.10020080       0.04846661       2.56744934      
    2763.000 12.80015523      60.87899161      0.09175489       0.10341365       0.03816189       2.55946217      
    2763.500 12.82763558      69.06165861      0.09022470       0.11846586       0.03702523       2.55972841      
    2764.000 12.85523194      68.79356555      0.07898894       0.13329891       0.04216027       2.56621357      
    2764.500 12.88272197      65.52931215      0.07329317       0.13710270       0.04826115       2.57904396      
    2765.000 12.91139582      59.45105855      0.06827309       0.10903614       0.04958770       2.59132648      
    2765.500 12.89006936      58.44626332      0.05963855       0.09522088       0.05513329       2.60399753      
    2766.000 12.85579187      56.91894273      0.05000000       0.09066248       0.05220417       2.61336196      
    2766.500 12.80741373      54.40722512      0.05020884       0.08784997       0.04583932       2.62296948      
    2767.000 12.76665366      53.95725620      0.04919679       0.08179837       0.03241561       2.62207393      
    2767.500 12.73910513      56.33668368      0.05281124       0.07679863       0.02846956       2.61876204      
    2768.000 12.75472821      58.42063894      0.05200803       0.08516773       0.03832122       2.61676294      
    2768.500 12.76936327      57.04268165      0.05477108       0.09801680       0.04620312       2.61470176      
