~VERSION INFORMATION
VERS. 2.0 : CWLS Log ASCII Standard - Version 2.0
WRAP. NO : One line per depth step
#--------------------------------------------------#
#----------------DRILLING INFO, INC.---------------#
#---------------WWW.DRILLINGINFO.COM---------------#
#------------------COPYRIGHT 2015------------------#
#--------------------------------------------------#
#THIS FILE MAY BE USED ONLY IN ACCORDANCE WITH A CURRENT SUBSCRIPTION AGREEMENT BETWEEN
#THE USER AND DRILLING INFO, INC. NO PART OF THIS FILE MAY BE REPRODUCED, USED, COPIED,
#MODIFIED, PROPAGATED, OR DISTRIBUTED EXCEPT IN ACCORDANCE WITH THE SUBSCRIPTION
#AGREEMENT. UNAUTHORIZED USE OR DISTRIBUTION OF ALL OR ANY PART OF THIS FILE MAY VIOLATE
#COPYRIGHT, TRADEMARK, AND/OR OTHER LAWS AND IS SUBJECT TO CIVIL AS WELL AS CRIMINAL
#SANCTIONS.
#--------------------------------------------------#
#THIS FILE IS PROVIDED "AS-IS" AND ALL WARRANTIES ARE EXPRESSLY DISCLAIMED, WHETHER
#EXPRESS, ORAL, IMPLIED, STATUTORY OR OTHERWISE, INCLUDING ANY IMPLIED WARRANTY OF FITNESS
#FOR A PARTICULAR PURPOSE, MERCHANTABILITY, TITLE OR NON-INFRINGEMENT, AND ANY WARRANTIES
#ARISING BY VIRTUE OF CUSTOM OF TRADE OR COURSE OF DEALING.  FURTHER, DRILLING INFO,
#INC. AND ITS LICENSORS DO NOT REPRESENT OR WARRANT THAT THIS FILE WILL MEET USER'S
#REQUIREMENTS OR ARE SUITABLE FOR USER'S NEEDS OR THAT THE DATA OR RESULTS PROVIDED IN
#CONJUNCTION THEREWITH ARE CORRECT, ACCURATE, TIMELY OR RELIABLE. THESE DISCLAIMERS SHALL
#APPLY REGARDLESS OF ANY FAILURE OF ESSENTIAL PURPOSE OF ANY LIMITED REMEDY.  SOME
#JURISDICTIONS DO NOT ALLOW THE EXCLUSION OF CERTAIN WARRANTIES SO SOME OF THE ABOVE
#EXCLUSIONS MAY NOT APPLY. IN NO EVENT SHALL DRILLING INFO, INC. OR ANY OF ITS AFFILIATES
#BE LIABLE UNDER ANY LEGAL THEORY, WHETHER IN TORT (INCLUDING WITHOUT LIMITATION
#NEGLIGENCE), CONTRACT, STRICT LIABILITY, STATUTORY OR OTHERWISE, FOR ANY SPECIAL,
#INCIDENTAL, CONSEQUENTIAL, EXEMPLARY, PUNITIVE OR INDIRECT DAMAGE OF ANY KIND, INCLUDING
#WITHOUT LIMITATION LOSS OF REVENUE, PROFITS, GOODWILL, USE, AND/OR DATA OR THE COST OF
#PROCUREMENT OF SUBSTITUTE GOODS OR SERVICES, EVEN IF APPRISED OF THE POSSIBILITY OF SUCH
#DAMAGES IN ADVANCE.
#--------------------------------------------------#
~WELL INFORMATION
#MNEMONIC     .UNIT              VALUE :DESCRIPTION
#--------------------------------------------------#
STRT       .ft                97.00000 :START DEPTH
STOP       .ft                8647.00000 :STOP DEPTH
STEP       .ft                0.50000 :STEP
NULL       .                -999.25000 :NULL VALUE
COMP       .                 :COMPANY
WELL       .                 :WELL
FLD       .                 :FIELD
LOC       .                 :LOCATION
CNTY       .                 :COUNTY
STAT       .                 :STATE
CTRY       .                 :COUNTRY
SRVC       .                 :SERVICE COMPANY
DATE       .                 :DATE
API       .                42109002030000 :API NUMBER
~CURVE INFORMATION
#MNEMONIC     .UNIT      API CODE :CURVE DESCRIPTION
#--------------------------------------------------#
DEPTH       .ft                      :Measured Depth
DT       .us/ft        UNKNOWN   :DT
GR       .gAPI        UNKNOWN   :GR
ILD       .ohmm        UNKNOWN   :ILD
ILS       .ohmm        UNKNOWN   :ILS
SP       .mV        UNKNOWN   :SP
~A    DEPTH    DT    GR    ILD    ILS    SP
# ...
3673.00000    62.81054    26.22858    291.01272    343.84145    -134.08060
3673.50000    62.08604    25.83626    299.33951    350.84652    -134.39460
3674.00000    62.17671    25.36552    307.66631    357.85159    -134.70861
3674.50000    62.68252    24.75883    313.57579    364.85667    -135.02262
3675.00000    63.18833    24.15214    319.25547    371.86174    -135.33663
3675.50000    63.69414    23.90520    324.93516    378.86681    -135.65064
3676.00000    63.65283    23.87117    330.61485    385.87189    -135.96464
3676.50000    63.51322    23.83714    337.93892    392.87696    -136.27865
3677.00000    63.37360    23.80311    349.89055    399.88204    -136.59266
3677.50000    63.23399    23.76908    361.84219    406.88711    -136.90667
3678.00000    63.09437    25.10252    373.79382    413.89218    -137.22068
3678.50000    62.95476    26.77134    389.25849    420.89726    -137.32805
3679.00000    64.47326    28.26344    414.44153    427.90233    -136.89690
3679.50000    66.10376    29.75554    439.62457    429.86008    -136.46575
3680.00000    67.73427    31.24765    464.80761    427.43351    -136.03460
3680.50000    69.36477    32.73975    480.76642    425.00693    -135.60346
3681.00000    70.99527    34.23186    469.42676    422.58036    -135.17231
3681.50000    72.62577    35.72396    458.08711    420.15379    -134.74116
3682.00000    71.76089    37.21607    446.74745    417.72722    -134.31002
3682.50000    67.94539    38.70817    431.56016    415.30065    -133.87887
3683.00000    64.12989    38.78315    416.16176    412.87408    -133.44772
3683.50000    60.31440    37.01950    400.76337    410.44750    -133.01658
3684.00000    59.49062    35.25585    389.34490    408.02093    -132.58543
3684.50000    59.92879    33.49220    380.07872    405.59436    -132.15429
3685.00000    60.36696    28.48980    370.81253    403.16779    -131.72314
3685.50000    60.80512    20.66953    361.54634    400.74122    -131.29199
3686.00000    61.24329    21.45809    352.56242    398.31465    -130.86085
3686.50000    61.68146    22.24665    355.72236    395.88807    -130.42970
3687.00000    59.09284    23.03522    358.88231    393.46150    -129.99855
3687.50000    59.15458    22.90273    362.04226    391.03493    -129.56741
3688.00000    59.21631    22.68397    365.20220    388.60836    -129.13626
3688.50000    59.27805    22.46521    368.36215    386.18179    -128.70511
3689.00000    59.33979    22.24645    371.52210    383.75522    -128.27397
3689.50000    59.40153    22.02769    366.39261    381.32865    -128.69833
3690.00000    59.49005    21.80893    347.84034    378.90207    -129.35584
3690.50000    60.20518    21.59017    329.28806    376.47550    -129.81856
3691.00000    60.92031    21.27662    310.73579    374.04893    -129.90287
3691.50000    61.63544    20.76974    292.18351    371.62236    -129.98718
3692.00000    62.35057    20.26286    279.45764    369.19579    -130.07149
3692.50000    63.06570    19.94355    268.44505    366.76922    -130.15580
3693.00000    63.78083    21.13297    257.43246    364.34264    -130.24010
3693.50000    62.56906    20.87074    246.41987    361.91607    -130.69824
3694.00000    61.08095    20.60850    237.54918    359.48950    -131.17123
3694.50000    59.80947    20.34626    240.50937    357.06293    -131.64422
3695.00000    60.53900    19.41457    243.46956    354.63636    -132.11720
3695.50000    61.26854    18.26911    246.42975    356.62778    -132.59019
3696.00000    61.99807    17.12364    249.38993    365.58470    -133.06318
3696.50000    62.72761    17.06324    252.35012    374.54162    -133.53617
3697.00000    63.45714    18.48251    255.31031    383.49854    -134.00915
3697.50000    64.18668    19.90179    258.27050    392.45546    -134.48214
3698.00000    63.50336    21.32106    262.90286    401.41238    -134.95513
3698.50000    62.70894    22.74034    274.84568    410.36930    -135.24499
3699.00000    61.91453    24.15961    286.78849    419.32622    -135.45193
3699.50000    62.00866    25.57889    312.01579    428.28314    -135.65887
3700.00000    63.79628    27.11496    349.52374    437.24006    -135.86581
3700.50000    65.58389    29.24704    387.03170    446.19698    -136.07275
3701.00000    67.37151    31.37912    407.63482    455.15390    -136.27969
3701.50000    69.15913    33.51121    424.60771    464.11083    -136.48663
3702.00000    70.94675    35.64329    441.58059    473.06775    -136.69357
3702.50000    72.73437    37.77537    458.55347    482.02467    -136.90051
3703.00000    71.60385    39.90746    475.52635    490.98159    -137.10745
3703.50000    69.82710    39.29839    492.49923    499.93851    -137.31438
3704.00000    68.05035    36.35147    509.47211    508.89543    -137.52132
3704.50000    66.27361    33.40456    526.44499    510.70250    -137.72826
3705.00000    64.49686    30.45764    543.41787    510.40188    -137.93520
3705.50000    62.72012    27.51072    560.39075    510.10127    -138.14214
3706.00000    60.94337    24.81382    545.22801    509.80065    -138.34908
3706.50000    59.16663    22.15729    522.20234    509.50003    -138.13412
3707.00000    58.61654    19.50076    495.18510    509.19942    -137.57770
3707.50000    58.88079    16.84423    467.35957    508.89880    -137.02129
3708.00000    59.14504    16.66438    439.53404    508.59819    -136.46487
3708.50000    59.40928    17.11573    411.70851    508.29757    -135.90846
3709.00000    59.60335    17.56709    345.95056    507.99696    -135.35204
3709.50000    58.98014    18.01844    329.70460    507.69634    -134.79563
3710.00000    58.35692    18.45753    313.45864    507.88768    -134.23921
3710.50000    57.73371    17.48240    297.21268    514.58491    -133.68280
3711.00000    57.11049    16.50726    340.29968    521.28213    -133.12638
3711.50000    56.48727    15.53212    385.23666    527.97936    -132.10293
3712.00000    55.86406    14.55699    430.17364    534.67658    -130.95109
3712.50000    55.24084    13.58211    475.11061    541.37381    -129.79924
3713.00000    55.36236    12.60741    507.67236    548.07103    -128.64740
3713.50000    60.74242    12.13292    498.88532    554.76826    -127.49555
3714.00000    65.18824    12.52294    490.09827    561.46548    -126.34370
3714.50000    63.19685    12.91295    481.31123    568.16271    -125.19186
3715.00000    61.20546    13.30297    473.34442    574.85993    -124.04001
3715.50000    59.21407    13.56423    467.65422    581.55715    -122.88817
3716.00000    57.22268    12.70454    461.96402    588.25438    -121.73632
3716.50000    55.23128    11.84486    456.27383    594.95160    -120.58447
3717.00000    55.13445    10.98517    450.58363    601.25608    -119.43263
3717.50000    55.90759    10.33238    444.89344    605.04289    -118.28078
3718.00000    56.68074    10.33277    439.20324    608.82969    -117.12894
3718.50000    56.90071    10.33317    442.38442    612.61650    -116.15127
3719.00000    56.74554    10.33357    450.33995    616.40330    -116.20957
3719.50000    56.59038    10.33396    458.29549    620.19010    -116.26788
3720.00000    57.15319    10.33436    466.25103    623.97691    -116.32618
3720.50000    58.11929    10.33476    474.20657    627.76371    -116.38448
3721.00000    59.08539    10.33515    482.16210    631.55052    -116.44279
3721.50000    60.05148    10.46795    490.11764    635.33732    -116.50109
3722.00000    60.33147    11.29607    493.49708    639.12412    -116.55940
3722.50000    60.37271    12.12420    487.40360    642.91093    -116.61770
3723.00000    59.92562    12.95232    481.31012    646.69773    -116.34720
3723.50000    58.99905    13.78045    475.21663    650.48454    -116.01069
3724.00000    58.07248    16.66745    475.19716    654.27134    -115.67418
3724.50000    57.14591    15.98062    486.14057    658.05815    -115.33768
3725.00000    59.03774    15.10363    497.08398    661.84495    -115.00117
3725.50000    58.31521    14.22663    508.02739    664.71655    -114.66466
3726.00000    57.59268    13.34964    518.97079    665.28457    -114.32815
