###############################################
##         ENVERUS                           ##
##         ESS - Open Hole                   ##
##         PERMIAN / DELAWARE                ##
##         Nov 03 2023  V4.0                 ##
##         42-109-32599-00-00                ##
###############################################
## Copyright 2017-2023  ENVERUS.  All Rights Reserved. 
## Confidential - Property of ENVERUS, use governed by terms and 
## conditions found within the existing Information Services Subscription Agreement 
## (as may be amended, the “ISSA”) between Customer and ENVERUS. 
## 
~VERSION INFORMATION
# MNEM.UNIT                               DATA : DESCRIPTION OF MNEMONIC
#-----.-----     ----------------------------- : -----------------------------
VERS.                                     2.00 : CWLS LOG ASCII STANDARD - VERSION 2.00
WRAP.                                       NO : MULTIPLE LINES PER DEPTH STEP
VEND.                                  ENVERUS : VENDOR
TYPE.                          ESS - OPEN HOLE : ENVERUS ESSENTIAL CURVES – ACCESSIBLE THROUGH ENVERUS PRISM(TM)
DOC.                                  21933172 : ENVERUS HEADER RAW DOCUMENT ID
#___________________________________________________________________________________________________ 
~WELL INFORMATION 
# uOzh0bdZpl++Qd8K/evm6vwbqlxLNv7zXaBwNvlB7bYnaXF7FEkKOyKwz7AUW0q8cTh4whY6gpezG6wl1Vx46w== 
# MNEM.UNIT                                              DATA : DESCRIPTION OF MNEMONIC 
#-----.-----                    ----------------------------- : ----------------------------- 
CNTY.                                               CULBERSON : COUNTY 
STATE.                                                  TEXAS : STATE 
CNTRY.                                                    USA : COUNTRY 
API.                                             42-109-32599 : API (10 Digit) 
API_14.                                    42-109-32599-00-00 : API (14 Digits) 
API_14_std.                                 42-109-32599-0000 : API (14 Digits Standard) 
UWI.                                           42109325990000 : UNIQUE WELL ID 
WELL.                                           COMANCHE 46 6 : WELL NAME
STRT.FT                                                 190.0 : START DEPTH
STOP.FT                                                5230.0 : STOP DEPTH
STEP.FT                                                   0.5 : STEP BETWEEN DEPTHS
NULL.                                                 -999.25 : NULL VALUE
SRVC.                                             HALLIBURTON :  
DATE.                                  12/31/2013 12-00-00 AM : 
#___________________________________________________________________________________________________ 
~PARAMETER INFORMATION 
# MNEM.UNIT                                              DATA : DESCRIPTION OF MNEMONIC 
#-----.-----                    ----------------------------- : -----------------------------
#___________________________________________________________________________________________________ 
~CURVE INFORMATION 
# MNEM.UNIT           : CURVE DESCRIPTION 
#-----.-----          : ----------------------------- 
 DEPT.FT               : MEASURED DEPTH 
 CALI.IN               : CALIPER (CALD) 
 GR.API                : GAMMA RAY (GRD) 
 PE.B/E                : PHOTOELECTRIC EFFECT/FACTOR 
 RESS_LL.OHMM          : SHALLOW LATEROLOG (LLS) 
 RESD_LL.OHMM          : DEEP LATEROLOG (LLD) 
 DPHI_LS.V/V           : DENSITY POROSITY - LIMESTONE 
 NPHI_LS.V/V           : NEUTRON POROSITY - LIMESTONE 
 RHOB.G/CC             : BULK DENSITY 
 #___________________________________________________________________________________________________ 
~A         DEPT           CALI             GR             PE        RESS_LL        RESD_LL        DPHI_LS        NPHI_LS           RHOB
# ...
         4408.5          7.843         85.886         2.2708         6.7807         7.7204        0.10910        0.11670         2.5386
         4409.0          7.817         81.553         2.4364         6.7027         7.8911        0.09800        0.10940         2.5595
         4409.5          7.792         76.577         2.7537         6.6304         7.9182        0.08690        0.09830         2.5761
         4410.0          7.828         84.505         2.8906         7.5788        10.3032        0.08050        0.09660         2.5761
         4410.5          7.838         86.784         2.7208        11.9086        14.1782        0.09390        0.11290         2.5511
         4411.0          7.826         91.742         2.5101        16.2384        18.0532        0.10620        0.12160         2.5474
         4411.5          7.814        105.556         2.6113        14.4400        16.2574        0.10490        0.12850         2.5439
         4412.0          7.788        131.141         2.7768         9.6924         9.5386        0.10630        0.14450         2.5416
         4412.5          7.766        136.287         2.7451         4.9448         5.4296        0.11260        0.14730         2.5357
         4413.0          7.751        102.553         2.5830         3.9707         5.2634        0.14330        0.12980         2.5165
         4413.5          7.751         78.078         2.3876         7.3451         9.9864        0.15800        0.11020         2.4665
         4414.0          7.778         56.666         2.3750        12.9690        17.8400        0.12150        0.08100         2.4837
         4414.5          7.793         52.853         2.5020        18.5929        25.6936        0.06780        0.04960         2.5658
         4415.0          7.849         50.503         2.6648        23.0920        27.8251        0.05930        0.04130         2.6017
         4415.5          7.842         47.898         2.7027        19.8949        23.6631        0.07080        0.04020         2.6013
         4416.0          7.932         51.043         2.6007        16.6978        16.7012        0.07040        0.04310         2.5997
         4416.5          7.842         55.506         2.5931        13.5007        11.4374        0.07000        0.04610         2.5960
         4417.0          7.842         58.109         2.6079        10.3035         8.7206        0.08050        0.05950         2.5905
         4417.5          7.791         62.012         2.4918         7.1064         6.3246        0.10560        0.08730         2.5585
         4418.0          7.801         71.500         2.3632         4.4808         5.2116        0.12760        0.11570         2.5143
         4418.5          7.790         77.596         2.1691         4.1409         4.5617        0.13750        0.12430         2.4702
         4419.0          7.802         75.963         2.1474         3.8010         4.0277        0.15180        0.11860         2.4702
         4419.5          7.823         68.650         2.1474         3.5705         3.7782        0.15090        0.12100         2.4702
         4420.0          7.859         62.040         2.1771         3.8885         4.3015        0.14140        0.11410         2.4821
         4420.5          7.895         61.611         2.2398         5.5664         5.6801        0.13020        0.10170         2.4961
         4421.0          7.895         68.919         2.3298         7.2443         7.9357        0.11900        0.09920         2.5101
         4421.5          7.882         77.627         2.2992         8.9222        10.1913        0.11440        0.10360         2.5240
         4422.0          7.853         86.171         2.2740        10.6001        12.5241        0.11540        0.11110         2.5283
         4422.5          7.848         89.366         2.3022        11.3901        13.6160        0.11720        0.11560         2.5234
         4423.0          7.822         89.189         2.4128        11.9582        14.3947        0.11320        0.11070         2.5195
         4423.5          7.832         89.010         2.5130        13.4495        16.1976        0.10700        0.10450         2.5287
         4424.0          7.807         88.888         2.5952        15.1717        18.6833        0.11130        0.10090         2.5379
         4424.5          7.814         81.831         2.5368        16.7383        22.6097        0.11380        0.10110         2.5302
         4425.0          7.815         86.963         2.5121        29.1463        68.1749        0.10760        0.10020         2.5224
         4425.5          7.815         90.690         2.5121        57.1986       174.1106        0.10700        0.09920         2.5289
         4426.0          7.806         95.965         2.5210        85.2510       280.0463        0.10440        0.09870         2.5355
         4426.5          7.802        105.255         2.5431       113.3033       385.9820        0.10060        0.10110         2.5420
         4427.0          7.802        135.864         2.5931       141.3556       491.9176        0.09670        0.12110         2.5485
         4427.5          7.781        150.450         2.6588       298.6192       597.8533        0.09940        0.14500         2.5507
         4428.0          7.760        222.672         2.8103       488.1855       703.7890        0.11370        0.16570         2.5322
         4428.5          7.739        262.712         2.9376       627.4953       888.9041        0.14000        0.17740         2.4979
         4429.0          7.722        264.309         2.9946       583.1730       883.4293        0.13590        0.16720         2.4842
         4429.5          7.742        238.262         3.0633       231.2432       697.4802        0.12430        0.14840         2.4912
         4430.0          7.742        212.214         2.9631        45.0213       405.6427        0.11500        0.14700         2.5030
         4430.5          7.742        186.166         2.8661         5.8359        74.0933        0.12660        0.17520         2.5148
         4431.0          7.702        160.119         2.7653         3.7674         5.4833        0.14580        0.17580         2.4883
         4431.5          7.642        149.700         2.5425         2.3726         2.6081        0.16660        0.16800         2.4364
         4432.0          7.532         92.960         2.3511         2.9145         2.5920        0.19360        0.16190         2.3709
         4432.5          7.522         65.314         2.2285         4.0738         4.4142        0.20980        0.15810         2.3694
         4433.0          7.662         60.511         2.2705         5.2330         6.2042        0.19020        0.13580         2.3956
         4433.5          7.762         54.805         2.3594         6.3923         7.9942        0.15740        0.11350         2.4482
         4434.0          7.720         49.766         2.5117         7.0879         9.4262        0.12580        0.08850         2.4909
         4434.5          7.672         46.470         2.5876         6.3476         7.4913        0.10680        0.07020         2.5187
         4435.0          7.702         47.570         2.5253         5.6073         6.4877        0.12390        0.08970         2.5186
         4435.5          7.786         52.964         2.3426         4.9842         5.9060        0.14110        0.10710         2.4738
         4436.0          7.812         65.610         2.2948         4.6490         5.5970        0.14670        0.11700         2.4732
         4436.5          7.820         77.177         2.2858         4.1954         5.3075        0.14160        0.12690         2.4761
         4437.0          7.816         72.626         2.2690         3.5522         4.9807        0.13830        0.12480         2.4776
         4437.5          7.802         62.913         2.2690         3.6286         4.6901        0.14520        0.11970         2.4794
