~VERSION INFORMATION
VERS. 2.0 : CWLS Log ASCII Standard - Version 2.0
WRAP. NO : One line per depth step
#--------------------------------------------------#
#----------------DRILLING INFO, INC.---------------#
#---------------WWW.DRILLINGINFO.COM---------------#
#------------------COPYRIGHT 2015------------------#
#--------------------------------------------------#
#THIS FILE MAY BE USED ONLY IN ACCORDANCE WITH A CURRENT SUBSCRIPTION AGREEMENT BETWEEN
#THE USER AND DRILLING INFO, INC. NO PART OF THIS FILE MAY BE REPRODUCED, USED, COPIED,
#MODIFIED, PROPAGATED, OR DISTRIBUTED EXCEPT IN ACCORDANCE WITH THE SUBSCRIPTION
#AGREEMENT. UNAUTHORIZED USE OR DISTRIBUTION OF ALL OR ANY PART OF THIS FILE MAY VIOLATE
#COPYRIGHT, TRADEMARK, AND/OR OTHER LAWS AND IS SUBJECT TO CIVIL AS WELL AS CRIMINAL
#SANCTIONS.
#--------------------------------------------------#
#THIS FILE IS PROVIDED "AS-IS" AND ALL WARRANTIES ARE EXPRESSLY DISCLAIMED, WHETHER
#EXPRESS, ORAL, IMPLIED, STATUTORY OR OTHERWISE, INCLUDING ANY IMPLIED WARRANTY OF FITNESS
#FOR A PARTICULAR PURPOSE, MERCHANTABILITY, TITLE OR NON-INFRINGEMENT, AND ANY WARRANTIES
#ARISING BY VIRTUE OF CUSTOM OF TRADE OR COURSE OF DEALING.  FURTHER, DRILLING INFO,
#INC. AND ITS LICENSORS DO NOT REPRESENT OR WARRANT THAT THIS FILE WILL MEET USER'S
#REQUIREMENTS OR ARE SUITABLE FOR USER'S NEEDS OR THAT THE DATA OR RESULTS PROVIDED IN
#CONJUNCTION THEREWITH ARE CORRECT, ACCURATE, TIMELY OR RELIABLE. THESE DISCLAIMERS SHALL
#APPLY REGARDLESS OF ANY FAILURE OF ESSENTIAL PURPOSE OF ANY LIMITED REMEDY.  SOME
#JURISDICTIONS DO NOT ALLOW THE EXCLUSION OF CERTAIN WARRANTIES SO SOME OF THE ABOVE
#EXCLUSIONS MAY NOT APPLY. IN NO EVENT SHALL DRILLING INFO, INC. OR ANY OF ITS AFFILIATES
#BE LIABLE UNDER ANY LEGAL THEORY, WHETHER IN TORT (INCLUDING WITHOUT LIMITATION
#NEGLIGENCE), CONTRACT, STRICT LIABILITY, STATUTORY OR OTHERWISE, FOR ANY SPECIAL,
#INCIDENTAL, CONSEQUENTIAL, EXEMPLARY, PUNITIVE OR INDIRECT DAMAGE OF ANY KIND, INCLUDING
#WITHOUT LIMITATION LOSS OF REVENUE, PROFITS, GOODWILL, USE, AND/OR DATA OR THE COST OF
#PROCUREMENT OF SUBSTITUTE GOODS OR SERVICES, EVEN IF APPRISED OF THE POSSIBILITY OF SUCH
#DAMAGES IN ADVANCE.
#--------------------------------------------------#
~WELL INFORMATION
#MNEMONIC     .UNIT              VALUE :DESCRIPTION
#--------------------------------------------------#
STRT       .ft                97.00000 :START DEPTH
STOP       .ft                8647.00000 :STOP DEPTH
STEP       .ft                0.50000 :STEP
NULL       .                -999.25000 :NULL VALUE
COMP       .                 :COMPANY
WELL       .                 :WELL
FLD       .                 :FIELD
LOC       .                 :LOCATION
CNTY       .                 :COUNTY
STAT       .                 :STATE
CTRY       .                 :COUNTRY
SRVC       .                 :SERVICE COMPANY
DATE       .                 :DATE
API       .                42109002030000 :API NUMBER
~CURVE INFORMATION
#MNEMONIC     .UNIT      API CODE :CURVE DESCRIPTION
#--------------------------------------------------#
DEPTH       .ft                      :Measured Depth
DT       .us/ft        UNKNOWN   :DT
GR       .gAPI        UNKNOWN   :GR
ILD       .ohmm        UNKNOWN   :ILD
ILS       .ohmm        UNKNOWN   :ILS
SP       .mV        UNKNOWN   :SP
~A    DEPTH    DT    GR    ILD    ILS    SP
# ...
1518.50000    75.98391    23.20446    115.57396    126.64206    -93.92187
1519.00000    77.99063    22.76661    104.79606    118.80514    -93.90695
1519.50000    74.48078    22.32876    99.53757    108.38319    -93.87542
1520.00000    72.32876    21.89090    98.65290    99.79612    -93.84389
1520.50000    72.41341    21.45305    97.76823    98.75393    -93.81236
1521.00000    72.49806    21.01519    96.88356    97.71173    -93.78083
1521.50000    72.58272    20.57734    95.99889    96.66954    -93.74930
1522.00000    72.66737    20.13949    95.11422    95.62735    -93.71776
1522.50000    72.75203    19.70163    94.22955    94.58515    -93.68623
1523.00000    72.83668    20.41314    93.34488    93.54296    -93.65470
1523.50000    72.92134    21.97268    92.46021    92.50076    -93.62317
1524.00000    73.37940    23.53222    92.00454    92.22769    -93.59164
1524.50000    73.94101    25.09176    92.38642    92.71561    -93.56011
1525.00000    74.50262    26.65130    92.76830    93.20354    -93.52858
1525.50000    75.06422    28.21084    93.15018    93.69146    -93.49705
1526.00000    75.62583    27.95608    93.53206    93.22428    -93.46551
1526.50000    75.69357    27.15963    93.91394    92.64019    -93.43398
1527.00000    73.87006    26.36318    94.29582    92.05610    -93.40245
1527.50000    72.66429    25.56673    94.67770    91.47201    -93.37092
1528.00000    72.99557    24.77028    95.05958    90.88792    -93.33939
1528.50000    73.32686    24.15931    95.44146    90.30383    -93.30786
1529.00000    73.65814    24.28121    95.82335    89.71974    -93.27633
1529.50000    73.48896    24.40311    96.08427    89.13565    -93.24480
1530.00000    72.55628    24.46754    95.81473    89.49279    -93.21327
1530.50000    71.62360    24.46867    95.54519    90.06301    -93.18948
1531.00000    70.69092    24.46980    95.27565    90.63323    -93.28310
1531.50000    70.29583    24.47094    95.00611    91.20345    -93.37672
1532.00000    71.55079    24.47207    94.73657    91.77367    -93.47034
1532.50000    72.80575    24.47320    94.46703    92.34389    -93.56396
1533.00000    74.06071    24.19992    94.19749    92.91411    -93.65758
1533.50000    75.31566    23.60804    93.92795    93.48432    -93.75120
1534.00000    76.29828    23.01616    93.65841    94.05454    -93.84482
1534.50000    75.01650    22.42428    93.09632    94.62476    -93.93843
1535.00000    73.73471    21.83240    91.63569    95.19498    -94.03205
1535.50000    72.45293    22.25298    90.17507    95.76520    -94.12567
1536.00000    71.25832    23.81500    88.71445    96.33542    -94.21929
1536.50000    71.05030    26.10015    87.25382    96.90564    -94.31291
1537.00000    70.84228    28.47513    85.79320    97.47586    -94.40653
1537.50000    70.63426    30.85010    84.33258    98.04608    -94.50015
1538.00000    70.42624    33.22507    82.87195    98.61630    -94.59377
1538.50000    70.21823    35.60004    81.41133    99.18652    -94.68739
1539.00000    70.01021    37.97502    82.47107    99.75674    -94.78100
1539.50000    68.86495    40.34999    86.38421    103.26954    -94.87212
1540.00000    66.47622    42.72496    90.29735    108.97173    -94.96312
1540.50000    65.53887    45.09993    94.21050    114.05829    -95.05412
1541.00000    65.65953    47.37069    98.12364    116.33172    -95.14512
1541.50000    65.78019    47.76210    103.80398    118.60515    -95.23612
1542.00000    65.90085    48.15351    109.23393    120.87859    -95.32712
1542.50000    67.59672    48.54492    114.66388    123.15202    -95.41813
1543.00000    69.76898    48.47697    120.09383    125.42545    -95.50913
1543.50000    71.94124    47.11790    125.52378    127.69888    -95.60013
1544.00000    74.11351    45.75883    130.95373    129.97232    -95.69113
1544.50000    76.28577    44.39976    136.38369    132.24575    -95.78213
1545.00000    77.96510    38.64392    141.81364    134.51918    -95.87313
1545.50000    74.34796    32.27313    147.24359    136.79261    -95.96413
1546.00000    74.35825    27.58769    152.67354    139.06605    -96.56517
1546.50000    74.50277    26.89929    148.73493    139.23055    -97.32663
1547.00000    74.64728    27.72460    140.34319    137.87576    -98.08808
1547.50000    74.55411    27.58599    131.95144    136.52098    -98.84954
1548.00000    73.06621    26.08793    123.55970    135.16619    -99.61100
1548.50000    71.57830    24.58986    115.16795    133.81140    -100.37246
1549.00000    70.09039    23.09180    106.77621    132.45662    -101.13392
1549.50000    68.60249    21.59374    99.83845    131.19364    -101.89537
1550.00000    67.11458    20.09568    104.93018    134.67049    -102.65683
1550.50000    65.62667    18.59186    111.60843    138.14734    -103.41829
1551.00000    64.88608    17.07612    118.28669    141.62419    -102.68780
1551.50000    64.83682    15.63676    124.96494    145.10104    -101.88329
1552.00000    64.78756    15.68800    131.64319    148.57789    -101.07877
1552.50000    64.73829    15.73925    138.32144    152.05474    -100.27426
1553.00000    64.41137    15.79049    144.99970    155.53159    -99.54575
1553.50000    63.99953    15.84173    154.15564    159.00844    -99.59764
1554.00000    63.58769    15.89297    163.90216    162.48529    -99.64953
1554.50000    63.73850    15.94422    173.64869    165.96214    -99.70142
1555.00000    63.98351    15.77202    183.39522    169.65609    -99.75331
1555.50000    64.22852    15.36777    193.14174    173.37656    -99.80520
1556.00000    64.47352    14.96352    200.81647    177.09702    -99.85709
1556.50000    64.71853    14.55927    207.16229    180.81748    -99.90898
1557.00000    64.96354    14.15502    213.50811    184.53794    -99.88948
1557.50000    65.20855    13.75077    219.85392    188.25841    -99.67676
1558.00000    65.45356    13.71100    226.19974    191.97887    -99.46404
1558.50000    65.69857    14.20683    232.54556    195.69933    -99.25133
1559.00000    65.94358    14.70265    228.82965    197.87105    -99.03861
1559.50000    66.18859    15.19847    221.39524    194.28695    -98.82590
1560.00000    66.43360    15.69429    213.96084    190.70284    -98.61318
1560.50000    66.67861    16.19011    206.52643    187.11874    -98.40047
1561.00000    66.92362    16.68593    199.07870    183.53464    -98.53314
1561.50000    67.07325    17.18175    191.41117    179.95054    -98.68339
1562.00000    66.85503    17.67758    183.74365    176.36643    -98.83364
1562.50000    66.63681    17.69082    176.07612    172.78233    -98.98389
1563.00000    66.53772    17.55372    168.40859    169.19823    -99.13414
1563.50000    66.79991    17.41663    160.74106    165.61413    -99.28439
1564.00000    67.06210    17.27953    153.07353    162.03002    -99.43464
1564.50000    67.32429    17.14244    145.40600    158.44592    -99.58488
1565.00000    67.58648    17.00534    138.09657    154.86182    -99.73513
1565.50000    67.84867    16.86825    138.95547    151.42005    -99.88538
1566.00000    68.11086    17.02389    139.81437    151.19820    -100.03563
1566.50000    68.37305    17.35839    140.67327    150.97635    -100.18588
1567.00000    68.45720    17.69289    141.53217    150.75450    -100.33613
1567.50000    68.38012    18.02739    142.39107    150.53265    -100.79593
1568.00000    68.30305    18.36189    143.24997    150.31081    -101.35770
1568.50000    68.22597    18.60130    144.10887    150.08896    -101.91947
1569.00000    68.14890    18.45278    144.96777    149.86711    -102.48124
1569.50000    68.07182    18.30426    145.82667    149.64526    -103.04301
1570.00000    68.05016    18.15574    146.68557    149.42341    -102.86347
1570.50000    68.07704    18.00722    147.54448    149.20156    -102.55580
1571.00000    68.10392    17.85870    148.40338    148.97971    -102.24813
1571.50000    68.13080    17.71018    149.26228    148.75786    -101.94045
1572.00000    68.15768    17.56166    150.12118    148.53601    -101.63278
1572.50000    68.18456    17.41314    150.98008    148.76388    -101.32511
