###############################################
##         ENVERUS                           ##
##         ESS - Open Hole                   ##
##         PERMIAN / DELAWARE                ##
##         Nov 03 2023  V4.0                 ##
##         42-109-32599-00-00                ##
###############################################
## Copyright 2017-2023  ENVERUS.  All Rights Reserved. 
## Confidential - Property of ENVERUS, use governed by terms and 
## conditions found within the existing Information Services Subscription Agreement 
## (as may be amended, the “ISSA”) between Customer and ENVERUS. 
## 
~VERSION INFORMATION
# MNEM.UNIT                               DATA : DESCRIPTION OF MNEMONIC
#-----.-----     ----------------------------- : -----------------------------
VERS.                                     2.00 : CWLS LOG ASCII STANDARD - VERSION 2.00
WRAP.                                       NO : MULTIPLE LINES PER DEPTH STEP
VEND.                                  ENVERUS : VENDOR
TYPE.                          ESS - OPEN HOLE : ENVERUS ESSENTIAL CURVES – ACCESSIBLE THROUGH ENVERUS PRISM(TM)
DOC.                                  21933172 : ENVERUS HEADER RAW DOCUMENT ID
#___________________________________________________________________________________________________ 
~WELL INFORMATION 
# uOzh0bdZpl++Qd8K/evm6vwbqlxLNv7zXaBwNvlB7bYnaXF7FEkKOyKwz7AUW0q8cTh4whY6gpezG6wl1Vx46w== 
# MNEM.UNIT                                              DATA : DESCRIPTION OF MNEMONIC 
#-----.-----                    ----------------------------- : ----------------------------- 
CNTY.                                               CULBERSON : COUNTY 
STATE.                                                  TEXAS : STATE 
CNTRY.                                                    USA : COUNTRY 
API.                                             42-109-32599 : API (10 Digit) 
API_14.                                    42-109-32599-00-00 : API (14 Digits) 
API_14_std.                                 42-109-32599-0000 : API (14 Digits Standard) 
UWI.                                           42109325990000 : UNIQUE WELL ID 
WELL.                                           COMANCHE 46 6 : WELL NAME
STRT.FT                                                 190.0 : START DEPTH
STOP.FT                                                5230.0 : STOP DEPTH
STEP.FT                                                   0.5 : STEP BETWEEN DEPTHS
NULL.                                                 -999.25 : NULL VALUE
SRVC.                                             HALLIBURTON :  
DATE.                                  12/31/2013 12-00-00 AM : 
#___________________________________________________________________________________________________ 
~PARAMETER INFORMATION 
# MNEM.UNIT                                              DATA : DESCRIPTION OF MNEMONIC 
#-----.-----                    ----------------------------- : -----------------------------
#___________________________________________________________________________________________________ 
~CURVE INFORMATION 
# MNEM.UNIT           : CURVE DESCRIPTION 
#-----.-----          : ----------------------------- 
 DEPT.FT               : MEASURED DEPTH 
 CALI.IN               : CALIPER (CALD) 
 GR.API                : GAMMA RAY (GRD) 
 PE.B/E                : PHOTOELECTRIC EFFECT/FACTOR 
 RESS_LL.OHMM          : SHALLOW LATEROLOG (LLS) 
 RESD_LL.OHMM          : DEEP LATEROLOG (LLD) 
 DPHI_LS.V/V           : DENSITY POROSITY - LIMESTONE 
 NPHI_LS.V/V           : NEUTRON POROSITY - LIMESTONE 
 RHOB.G/CC             : BULK DENSITY 
 #___________________________________________________________________________________________________ 
~A         DEPT           CALI             GR             PE        RESS_LL        RESD_LL        DPHI_LS        NPHI_LS           RHOB
# ...
         4969.0          7.690         50.070         2.3835         2.2946         3.1646        0.18970        0.13100         2.3992
         4969.5          7.677         56.057         2.3049         2.3819         3.3077        0.19590        0.12940         2.3944
         4970.0          7.676         57.945         2.2741         2.6624         3.3972        0.19700        0.12230         2.3963
         4970.5          7.674         55.937         2.2673         2.9945         3.9535        0.19260        0.11440         2.3992
         4971.0          7.673         55.826         2.2487         3.3266         4.7083        0.18710        0.11140         2.4212
         4971.5          7.684         57.012         2.2353         3.4310         4.8829        0.17340        0.10380         2.4400
         4972.0          7.708         57.430         2.1679         3.0860         4.5919        0.15320        0.08870         2.4587
         4972.5          7.669         57.520         2.1005         2.6547         3.9871        0.13740        0.09240         2.4775
         4973.0          7.656         52.910         2.1013         2.3027         3.3040        0.15170        0.10440         2.4733
         4973.5          7.672         47.956         2.1544         2.2675         3.0561        0.16180        0.11190         2.4496
         4974.0          7.687         48.577         2.2514         2.2394         3.0331        0.16190        0.11240         2.4494
         4974.5          7.672         53.467         2.2619         2.4604         3.3313        0.16170        0.10870         2.4492
         4975.0          7.652         54.918         2.2082         2.7368         3.7271        0.16120        0.10100         2.4762
         4975.5          7.666         56.151         2.1133         2.9733         4.0286        0.15050        0.09980         2.5170
         4976.0          7.662         56.751         2.2021         3.0507         4.2094        0.12420        0.09320         2.5577
         4976.5          7.661         55.660         2.3981         3.0507         4.0434        0.10110        0.08110         2.5585
         4977.0          7.670         55.251         2.4603         2.6470         3.4718        0.10260        0.09720         2.4855
         4977.5          7.677         54.543         2.2577         2.3240         2.9959        0.13890        0.09780         2.4241
         4978.0          7.696         52.387         2.2219         2.3970         2.9721        0.18650        0.10980         2.4025
         4978.5          7.667         53.198         2.1961         2.3970         3.0372        0.18650        0.12950         2.4062
         4979.0          7.657         54.522         2.1677         2.4221         3.1023        0.17960        0.13530         2.4244
         4979.5          7.661         52.838         2.1285         2.4639         3.1091        0.16790        0.12930         2.4426
         4980.0          7.668         48.882         2.1107         2.4018         3.0026        0.15590        0.11420         2.4608
         4980.5          7.662         49.733         2.0902         2.2256         2.8850        0.14380        0.09910         2.4791
         4981.0          7.678         49.645         2.0829         2.2603         2.7910        0.14680        0.10470         2.4742
         4981.5          7.691         50.154         2.0844         2.2266         2.6969        0.15860        0.11440         2.4528
         4982.0          7.702         53.587         2.1087         2.1445         2.7222        0.17230        0.11810         2.4314
         4982.5          7.690         53.411         2.1414         2.3951         3.0231        0.18050        0.12790         2.4143
         4983.0          7.664         51.509         2.1474         2.6457         3.4255        0.18590        0.13200         2.4143
         4983.5          7.682         55.214         2.2005         2.8146         3.8279        0.16970        0.12940         2.4414
         4984.0          7.682         60.547         2.2380         3.0696         3.7177        0.15090        0.12170         2.4684
         4984.5          7.666         62.472         2.2487         2.6137         3.2411        0.13660        0.10770         2.4901
         4985.0          7.654         57.893         2.2487         2.1445         2.7645        0.14870        0.11510         2.4706
         4985.5          7.642         52.558         2.2487         2.3288         2.6803        0.16990        0.11900         2.4202
         4986.0          7.642         46.392         2.2258         2.5130         2.6887        0.17920        0.12110         2.4202
         4986.5          7.656         48.017         2.2437         2.4370         2.7474        0.16870        0.12190         2.4445
         4987.0          7.660         52.419         2.2816         2.3240         2.8805        0.15560        0.10180         2.4531
         4987.5          7.677         58.727         2.2892         2.4819         3.0847        0.16340        0.10690         2.4263
         4988.0          7.667         58.393         2.2352         2.6793         3.2888        0.17910        0.11340         2.4126
         4988.5          7.677         55.672         2.1819         2.7977         3.4113        0.18540        0.11150         2.4188
         4989.0          7.665         51.824         2.0916         2.7458         3.4113        0.16800        0.10400         2.4524
         4989.5          7.654         47.875         2.0725         2.4864         3.1695        0.15060        0.09650         2.4592
         4990.0          7.667         47.499         2.1361         2.2270         2.8270        0.15240        0.09870         2.4144
         4990.5          7.674         47.244         2.1969         1.9675         2.4743        0.18270        0.11720         2.3696
         4991.0          7.675         48.759         2.2577         2.0684         2.4446        0.21010        0.13590         2.3591
         4991.5          7.680         52.881         2.2577         2.2363         2.6395        0.21780        0.13370         2.3584
         4992.0          7.669         55.134         2.1918         2.3708         2.8638        0.21750        0.12160         2.3610
         4992.5          7.665         54.329         2.0652         2.3570         2.9094        0.20820        0.11830         2.3729
         4993.0          7.660         53.184         2.0754         2.3216         2.7194        0.19820        0.11580         2.4047
         4993.5          7.656         53.672         2.1403         2.1598         2.5040        0.19150        0.11980         2.4084
         4994.0          7.612         56.557         2.1936         1.9663         2.3531        0.18710        0.13500         2.4121
         4994.5          7.687         58.594         2.2232         1.8891         2.3321        0.18340        0.12660         2.4158
         4995.0          7.701         57.937         2.2276         1.9797         2.3621        0.18040        0.11810         2.4194
         4995.5          7.686         57.414         2.2164         2.4294         2.9015        0.17640        0.11280         2.4231
         4996.0          7.683         56.041         2.2013         2.8790         3.4830        0.16920        0.10530         2.4636
         4996.5          7.683         52.507         2.2335         3.2490         3.9731        0.14730        0.09460         2.4998
         4997.0          7.679         49.766         2.2994         3.3006         3.9987        0.11770        0.08400         2.5070
         4997.5          7.683         54.186         2.4311         2.8295         3.3551        0.11140        0.08760         2.4847
         4998.0          7.655         56.820         2.4901         2.3584         2.5808        0.15570        0.11510         2.4567
