###############################################
##         ENVERUS                           ##
##         ESS - Open Hole                   ##
##         PERMIAN / DELAWARE                ##
##         Nov 03 2023  V4.0                 ##
##         42-109-32599-00-00                ##
###############################################
## Copyright 2017-2023  ENVERUS.  All Rights Reserved. 
## Confidential - Property of ENVERUS, use governed by terms and 
## conditions found within the existing Information Services Subscription Agreement 
## (as may be amended, the “ISSA”) between Customer and ENVERUS. 
## 
~VERSION INFORMATION
# MNEM.UNIT                               DATA : DESCRIPTION OF MNEMONIC
#-----.-----     ----------------------------- : -----------------------------
VERS.                                     2.00 : CWLS LOG ASCII STANDARD - VERSION 2.00
WRAP.                                       NO : MULTIPLE LINES PER DEPTH STEP
VEND.                                  ENVERUS : VENDOR
TYPE.                          ESS - OPEN HOLE : ENVERUS ESSENTIAL CURVES – ACCESSIBLE THROUGH ENVERUS PRISM(TM)
DOC.                                  21933172 : ENVERUS HEADER RAW DOCUMENT ID
#___________________________________________________________________________________________________ 
~WELL INFORMATION 
# uOzh0bdZpl++Qd8K/evm6vwbqlxLNv7zXaBwNvlB7bYnaXF7FEkKOyKwz7AUW0q8cTh4whY6gpezG6wl1Vx46w== 
# MNEM.UNIT                                              DATA : DESCRIPTION OF MNEMONIC 
#-----.-----                    ----------------------------- : ----------------------------- 
CNTY.                                               CULBERSON : COUNTY 
STATE.                                                  TEXAS : STATE 
CNTRY.                                                    USA : COUNTRY 
API.                                             42-109-32599 : API (10 Digit) 
API_14.                                    42-109-32599-00-00 : API (14 Digits) 
API_14_std.                                 42-109-32599-0000 : API (14 Digits Standard) 
UWI.                                           42109325990000 : UNIQUE WELL ID 
WELL.                                           COMANCHE 46 6 : WELL NAME
STRT.FT                                                 190.0 : START DEPTH
STOP.FT                                                5230.0 : STOP DEPTH
STEP.FT                                                   0.5 : STEP BETWEEN DEPTHS
NULL.                                                 -999.25 : NULL VALUE
SRVC.                                             HALLIBURTON :  
DATE.                                  12/31/2013 12-00-00 AM : 
#___________________________________________________________________________________________________ 
~PARAMETER INFORMATION 
# MNEM.UNIT                                              DATA : DESCRIPTION OF MNEMONIC 
#-----.-----                    ----------------------------- : -----------------------------
#___________________________________________________________________________________________________ 
~CURVE INFORMATION 
# MNEM.UNIT           : CURVE DESCRIPTION 
#-----.-----          : ----------------------------- 
 DEPT.FT               : MEASURED DEPTH 
 CALI.IN               : CALIPER (CALD) 
 GR.API                : GAMMA RAY (GRD) 
 PE.B/E                : PHOTOELECTRIC EFFECT/FACTOR 
 RESS_LL.OHMM          : SHALLOW LATEROLOG (LLS) 
 RESD_LL.OHMM          : DEEP LATEROLOG (LLD) 
 DPHI_LS.V/V           : DENSITY POROSITY - LIMESTONE 
 NPHI_LS.V/V           : NEUTRON POROSITY - LIMESTONE 
 RHOB.G/CC             : BULK DENSITY 
 #___________________________________________________________________________________________________ 
~A         DEPT           CALI             GR             PE        RESS_LL        RESD_LL        DPHI_LS        NPHI_LS           RHOB
# ...
         4202.0          7.801         84.223         2.4941         8.3370        11.1320        0.12250        0.10800         2.4842
         4202.5          7.804         90.675         2.4258         8.0796        10.5566        0.13770        0.10540         2.4833
         4203.0          7.813         96.519         2.3312         8.3200        11.0054        0.13890        0.11010         2.4827
         4203.5          7.797         93.131         2.2937         8.6827        11.2756        0.13940        0.11410         2.4834
         4204.0          7.797         91.261         2.3704         8.7681        10.9019        0.13800        0.11440         2.4861
         4204.5          7.788         94.420         2.4953         8.5614        10.4348        0.12950        0.11470         2.4901
         4205.0          7.794         88.164         2.5637         8.3547        10.2870        0.12110        0.11130         2.4978
         4205.5          7.777         79.666         2.5367         8.1297        10.2144        0.12290        0.11080         2.5054
         4206.0          7.773         75.966         2.5392         9.1074        10.6001        0.12830        0.11250         2.5080
         4206.5          7.770         75.643         2.5799        10.0851        13.2135        0.12860        0.11680         2.5054
         4207.0          7.766         80.063         2.6692        19.0282        23.1541        0.12470        0.12120         2.5011
         4207.5          7.763         87.747         2.7167        29.9628        37.9796        0.12900        0.12970         2.4968
         4208.0          7.776        106.042         2.6284        40.8973        52.8050        0.13560        0.13920         2.4925
         4208.5          7.786        137.548         2.5472        51.8319        67.6305        0.13860        0.14920         2.4882
         4209.0          7.772        214.128         2.5868        63.5343        88.5632        0.13860        0.15940         2.4864
         4209.5          7.752        214.721         2.6298        73.3059       109.4959        0.12810        0.16750         2.5024
         4210.0          7.750        186.724         2.6103        73.7601       101.9601        0.10780        0.15890         2.5206
         4210.5          7.756        175.525         2.6367        57.1726        60.8885        0.10030        0.14920         2.5387
         4211.0          7.762        193.543         2.7673        36.4383        40.5468        0.10570        0.15650         2.5496
         4211.5          7.742        212.762         2.8499        15.7040        20.2051        0.11060        0.15460         2.5467
         4212.0          7.636        173.964         2.8334         6.7835        10.6967        0.11610        0.16110         2.5241
         4212.5          7.587        117.867         2.6166         6.1188         9.6770        0.11830        0.13370         2.5151
         4213.0          7.616         78.228         2.5078         8.6439        12.7499        0.11000        0.10780         2.5233
         4213.5          7.757         68.143         2.4986        10.5378        15.8377        0.10010        0.08660         2.5402
         4214.0          7.782         58.654         2.4895         8.9673        12.3935        0.09060        0.06930         2.5571
         4214.5          7.759         52.454         2.5331         6.3497         8.0884        0.08330        0.05770         2.5741
         4215.0          7.742         53.829         2.5771         4.5883         6.3819        0.08160        0.06520         2.5662
         4215.5          7.780         53.414         2.5731         3.7940         5.3251        0.11020        0.08540         2.5211
         4216.0          7.772         50.751         2.4767         3.6920         4.8672        0.14030        0.09800         2.4761
         4216.5          7.764         51.277         2.4220         3.8736         5.0213        0.14780        0.10310         2.4777
         4217.0          7.756         53.887         2.3697         3.9463         5.1138        0.14350        0.10610         2.4896
         4217.5          7.748         51.990         2.3838         3.7928         4.9512        0.13800        0.10020         2.4967
         4218.0          7.782         47.005         2.4027         3.5371         4.6802        0.13730        0.10380         2.4824
         4218.5          7.732         44.890         2.4190         3.2813         4.4092        0.14460        0.10860         2.4709
         4219.0          7.758         50.978         2.4343         3.2346         4.4183        0.14940        0.10610         2.4731
         4219.5          7.736         54.419         2.4176         3.5412         4.7366        0.14850        0.10680         2.4852
         4220.0          7.727         51.564         2.3722         4.7521         6.3180        0.13700        0.10580         2.5115
         4220.5          7.747         48.527         2.3602         5.9629         9.2493        0.11320        0.09430         2.5379
         4221.0          7.770         49.441         2.5097         7.1738        12.1805        0.08950        0.08020         2.5642
         4221.5          7.752         48.472         2.5456         8.3847        14.5256        0.08020        0.06610         2.5906
         4222.0          7.761         40.203         2.5635         8.4475        12.6215        0.06950        0.05080         2.6026
         4222.5          7.698         42.360         2.7519         6.0902         9.5971        0.05360        0.04940         2.6026
         4223.0          7.727         47.844         2.8485         3.7329         6.5727        0.06320        0.06170         2.5960
         4223.5          7.756         50.238         2.6843         3.7329         5.8221        0.08440        0.07610         2.5524
         4224.0          7.775         55.109         2.4513         4.1240         6.3842        0.13070        0.10270         2.5187
         4224.5          7.724         58.949         2.3703         4.5151         7.0868        0.12680        0.11380         2.5187
         4225.0          7.694         59.447         2.3298         4.5333         6.8792        0.11980        0.11070         2.5187
         4225.5          7.677         61.987         2.3298         3.3036         5.1385        0.11830        0.10760         2.5165
         4226.0          7.605         59.712         2.3471         2.2371         3.8531        0.14910        0.11010         2.4779
         4226.5          7.589         54.387         2.2798         1.8232         3.2505        0.16370        0.12360         2.4400
         4227.0          7.566         53.327         2.2062         1.7336         2.6479        0.16550        0.13710         2.4314
         4227.5          7.546         54.145         2.2192         1.6516         2.3481        0.17150        0.15070         2.4284
         4228.0          7.512         55.080         2.2354         1.7051         2.4767        0.17600        0.15030         2.4288
         4228.5          7.474         54.675         2.3298         2.0235         2.7618        0.17420        0.14830         2.4290
         4229.0          7.455         50.639         2.3470         2.3420         3.0902        0.17270        0.15530         2.4290
         4229.5          7.495         47.031         2.3824         2.6604         3.4834        0.17290        0.15850         2.4255
         4230.0          7.589         43.438         2.3804         2.4913         3.6407        0.18340        0.15170         2.4166
         4230.5          7.639         44.822         2.3341         2.1492         3.1983        0.18660        0.16080         2.4078
         4231.0          7.722         48.799         2.2283         1.9908         2.6899        0.18960        0.16700         2.3990
