~VERSION INFORMATION
VERS. 2.0 : CWLS Log ASCII Standard - Version 2.0
WRAP. NO : One line per depth step
#--------------------------------------------------#
#----------------DRILLING INFO, INC.---------------#
#---------------WWW.DRILLINGINFO.COM---------------#
#------------------COPYRIGHT 2015------------------#
#--------------------------------------------------#
#THIS FILE MAY BE USED ONLY IN ACCORDANCE WITH A CURRENT SUBSCRIPTION AGREEMENT BETWEEN
#THE USER AND DRILLING INFO, INC. NO PART OF THIS FILE MAY BE REPRODUCED, USED, COPIED,
#MODIFIED, PROPAGATED, OR DISTRIBUTED EXCEPT IN ACCORDANCE WITH THE SUBSCRIPTION
#AGREEMENT. UNAUTHORIZED USE OR DISTRIBUTION OF ALL OR ANY PART OF THIS FILE MAY VIOLATE
#COPYRIGHT, TRADEMARK, AND/OR OTHER LAWS AND IS SUBJECT TO CIVIL AS WELL AS CRIMINAL
#SANCTIONS.
#--------------------------------------------------#
#THIS FILE IS PROVIDED "AS-IS" AND ALL WARRANTIES ARE EXPRESSLY DISCLAIMED, WHETHER
#EXPRESS, ORAL, IMPLIED, STATUTORY OR OTHERWISE, INCLUDING ANY IMPLIED WARRANTY OF FITNESS
#FOR A PARTICULAR PURPOSE, MERCHANTABILITY, TITLE OR NON-INFRINGEMENT, AND ANY WARRANTIES
#ARISING BY VIRTUE OF CUSTOM OF TRADE OR COURSE OF DEALING.  FURTHER, DRILLING INFO,
#INC. AND ITS LICENSORS DO NOT REPRESENT OR WARRANT THAT THIS FILE WILL MEET USER'S
#REQUIREMENTS OR ARE SUITABLE FOR USER'S NEEDS OR THAT THE DATA OR RESULTS PROVIDED IN
#CONJUNCTION THEREWITH ARE CORRECT, ACCURATE, TIMELY OR RELIABLE. THESE DISCLAIMERS SHALL
#APPLY REGARDLESS OF ANY FAILURE OF ESSENTIAL PURPOSE OF ANY LIMITED REMEDY.  SOME
#JURISDICTIONS DO NOT ALLOW THE EXCLUSION OF CERTAIN WARRANTIES SO SOME OF THE ABOVE
#EXCLUSIONS MAY NOT APPLY. IN NO EVENT SHALL DRILLING INFO, INC. OR ANY OF ITS AFFILIATES
#BE LIABLE UNDER ANY LEGAL THEORY, WHETHER IN TORT (INCLUDING WITHOUT LIMITATION
#NEGLIGENCE), CONTRACT, STRICT LIABILITY, STATUTORY OR OTHERWISE, FOR ANY SPECIAL,
#INCIDENTAL, CONSEQUENTIAL, EXEMPLARY, PUNITIVE OR INDIRECT DAMAGE OF ANY KIND, INCLUDING
#WITHOUT LIMITATION LOSS OF REVENUE, PROFITS, GOODWILL, USE, AND/OR DATA OR THE COST OF
#PROCUREMENT OF SUBSTITUTE GOODS OR SERVICES, EVEN IF APPRISED OF THE POSSIBILITY OF SUCH
#DAMAGES IN ADVANCE.
#--------------------------------------------------#
~WELL INFORMATION
#MNEMONIC     .UNIT              VALUE :DESCRIPTION
#--------------------------------------------------#
STRT       .ft                97.00000 :START DEPTH
STOP       .ft                8647.00000 :STOP DEPTH
STEP       .ft                0.50000 :STEP
NULL       .                -999.25000 :NULL VALUE
COMP       .                 :COMPANY
WELL       .                 :WELL
FLD       .                 :FIELD
LOC       .                 :LOCATION
CNTY       .                 :COUNTY
STAT       .                 :STATE
CTRY       .                 :COUNTRY
SRVC       .                 :SERVICE COMPANY
DATE       .                 :DATE
API       .                42109002030000 :API NUMBER
~CURVE INFORMATION
#MNEMONIC     .UNIT      API CODE :CURVE DESCRIPTION
#--------------------------------------------------#
DEPTH       .ft                      :Measured Depth
DT       .us/ft        UNKNOWN   :DT
GR       .gAPI        UNKNOWN   :GR
ILD       .ohmm        UNKNOWN   :ILD
ILS       .ohmm        UNKNOWN   :ILS
SP       .mV        UNKNOWN   :SP
~A    DEPTH    DT    GR    ILD    ILS    SP
# ...
969.00000    75.88926    23.80981    86.34799    89.00735    -86.72601
969.50000    74.87739    21.60486    86.99667    89.73643    -86.72916
970.00000    73.86551    19.62029    87.16505    89.95579    -86.73231
970.50000    72.85364    18.82150    87.16357    90.17516    -86.73546
971.00000    72.08704    18.15459    87.16210    90.39452    -86.23504
971.50000    71.66166    19.42989    87.16063    90.61388    -85.56428
972.00000    71.23628    20.70519    87.15916    90.83324    -84.89352
972.50000    70.81090    21.98050    87.93628    91.05260    -85.44786
973.00000    71.26861    23.25580    89.62558    91.27197    -86.25300
973.50000    71.78505    24.53110    91.31489    92.31652    -87.05814
974.00000    72.30150    25.80640    93.00420    93.54010    -87.01677
974.50000    72.81794    27.08170    94.69350    94.76369    -86.86881
975.00000    73.33439    28.35700    95.89116    95.98727    -86.72086
975.50000    73.85083    29.63230    95.65923    97.21085    -86.57290
976.00000    74.36728    30.90761    95.42729    98.43443    -86.42495
976.50000    74.88372    32.18291    95.19535    99.65802    -86.27699
977.00000    75.38044    33.45821    94.96341    100.91606    -86.12904
977.50000    74.93013    33.35975    95.47375    100.45259    -86.04258
978.00000    74.47983    33.24714    96.42289    99.99891    -86.60803
978.50000    74.02953    33.13452    97.37202    99.95257    -87.17347
979.00000    73.57923    33.02191    98.32116    99.90622    -87.73892
979.50000    73.12892    31.23114    99.27030    99.85987    -88.30437
980.00000    72.94278    28.70877    102.19439    99.79882    -88.86982
980.50000    73.05150    26.18640    104.47535    99.54929    -89.43526
981.00000    73.16023    23.66403    104.19208    99.29975    -90.00071
981.50000    73.26895    21.21730    103.90882    99.05022    -90.56616
982.00000    73.37767    20.15856    103.62555    98.80068    -91.13161
982.50000    73.48639    19.09981    103.34229    98.55115    -91.69705
983.00000    73.59511    18.87815    103.05902    98.30161    -92.26250
983.50000    73.70383    19.88096    102.77576    98.05207    -92.82795
984.00000    74.25536    20.88377    102.49250    97.80254    -93.39340
984.50000    74.85291    21.88657    102.20923    97.55300    -93.95884
985.00000    75.45045    22.88938    101.92597    97.15210    -94.31127
985.50000    76.04800    23.89219    97.87394    96.64747    -94.34428
986.00000    76.64555    24.89500    95.10867    96.14284    -94.37728
986.50000    77.24310    25.73030    92.34340    95.63821    -94.41029
987.00000    77.84064    26.17856    89.57813    95.13358    -94.44330
987.50000    77.89335    26.62682    89.94011    94.62895    -94.47630
988.00000    77.41089    27.07508    91.16371    94.94839    -94.50931
988.50000    76.92842    27.52334    92.38731    95.54261    -94.54232
989.00000    76.42046    27.97161    93.61090    96.13683    -94.57532
989.50000    75.45809    28.41987    94.98746    96.73105    -94.60833
990.00000    74.49573    28.65116    96.38783    97.32528    -94.64133
990.50000    73.53337    28.25197    97.78819    97.91950    -94.67434
991.00000    72.57100    27.85278    99.18855    98.51372    -94.70735
991.50000    72.61917    27.45359    105.66979    99.10794    -94.62693
992.00000    73.52780    27.05440    118.94096    99.70216    -94.14562
992.50000    74.43643    26.65522    132.21212    102.96383    -93.66431
993.00000    75.34506    26.34144    129.40103    108.90605    -93.74537
993.50000    76.25369    26.03574    119.36754    99.53029    -93.97841
994.00000    77.16233    24.75088    109.33406    97.93283    -94.21144
994.50000    77.48111    23.51360    99.93006    96.33536    -94.44448
995.00000    77.08424    23.61856    94.96336    94.73789    -94.67751
995.50000    76.68737    23.72351    89.74977    93.14043    -94.91055
996.00000    76.29051    23.82847    87.95428    91.54296    -95.14358
996.50000    75.89364    23.93343    86.15879    89.94549    -95.37662
997.00000    75.49677    23.71215    84.36329    88.34803    -95.60965
997.50000    75.09991    22.88515    82.56780    86.75056    -95.84269
998.00000    74.70304    22.05815    80.77231    85.92636    -95.69264
998.50000    74.27774    21.40568    81.93099    86.81757    -95.19573
999.00000    73.37871    21.63789    83.25243    87.70878    -94.69881
999.50000    72.54580    21.87009    84.57388    88.59999    -94.20189
1000.00000    72.28642    22.10230    85.89532    89.49120    -93.70497
1000.50000    72.02705    22.33450    87.21677    90.38241    -93.20806
1001.00000    71.39222    21.94884    88.53821    91.27362    -92.71114
1001.50000    70.74156    21.44884    89.85966    92.16484    -92.21422
1002.00000    70.09090    20.94885    91.18110    93.05605    -91.71730
1002.50000    69.44024    20.44885    92.50255    93.94726    -91.22039
1003.00000    68.78958    20.75573    93.82399    94.83847    -90.82586
1003.50000    68.03107    21.66561    95.14544    95.72968    -90.66770
1004.00000    67.18781    22.57550    96.46688    96.62089    -90.50953
1004.50000    66.34456    23.48538    97.78833    97.51210    -90.83856
1005.00000    66.00092    24.39526    98.83222    98.40331    -91.24382
1005.50000    66.99500    25.30514    98.98638    99.29452    -91.64907
1006.00000    67.98908    26.34231    99.14055    101.85735    -92.05433
1006.50000    68.98316    27.47860    99.29472    110.76946    -92.45958
1007.00000    69.97724    28.61489    99.44889    119.68157    -92.86483
1007.50000    70.97132    29.75118    99.60305    126.95534    -91.90358
1008.00000    67.67263    30.88747    99.75722    132.80735    -90.93500
1008.50000    64.30690    32.02376    99.91139    138.65936    -89.96641
1009.00000    62.91055    33.16005    100.65553    144.51138    -88.99783
1009.50000    63.17127    33.33613    106.20005    150.36339    -88.12696
1010.00000    63.43199    32.19061    113.69598    156.21540    -87.86129
1010.50000    63.69271    31.04508    121.19192    161.99492    -87.59563
1011.00000    65.45010    29.89955    128.68786    164.34278    -87.32996
1011.50000    67.96294    28.75403    136.18380    166.69064    -87.06429
1012.00000    70.47578    27.23372    143.67973    169.03850    -86.79863
1012.50000    72.98861    25.53143    151.17567    171.38636    -86.53296
1013.00000    72.11024    24.03043    158.67161    173.73422    -86.26730
1013.50000    71.20676    25.85295    166.26217    176.08208    -86.00163
1014.00000    70.30328    27.67547    174.38774    178.42994    -85.73596
1014.50000    69.39980    29.49799    182.51332    180.77780    -85.47030
1015.00000    68.49631    31.32051    190.63889    181.13895    -85.20463
1015.50000    70.64462    33.03929    198.76447    177.09460    -84.93897
1016.00000    73.67385    34.69142    197.58418    173.05025    -84.67330
1016.50000    76.70307    36.34356    189.20677    169.00590    -84.40764
1017.00000    79.73229    37.99569    180.82936    164.96154    -84.39993
1017.50000    80.09084    39.64782    172.45195    160.91719    -84.63316
1018.00000    77.89509    41.29995    164.07455    156.87284    -84.86638
1018.50000    75.69934    41.17601    155.69714    152.82849    -85.03404
1019.00000    73.50359    38.33470    147.31973    148.78414    -84.58856
1019.50000    74.42785    34.39233    138.94232    144.73978    -84.14307
1020.00000    75.97052    30.44997    130.75933    140.69543    -83.69759
1020.50000    75.52717    28.65191    122.71151    136.65108    -83.25211
1021.00000    74.92834    26.97289    114.66368    132.60673    -83.06960
1021.50000    74.76061    25.29388    106.61586    128.56238    -82.99226
1022.00000    74.29194    23.61487    99.85680    124.51803    -82.91491
1022.50000    74.03486    21.93585    99.05202    120.47367    -82.83757
1023.00000    73.90887    20.25684    98.24724    116.42932    -82.76022
1023.50000    73.90787    19.95442    97.06502    105.26331    -83.50382
1024.00000    73.95486    20.35873    95.86211    98.76376    -84.40923
