###############################################
##         ENVERUS                           ##
##         ESS - Open Hole                   ##
##         PERMIAN / DELAWARE                ##
##         Nov 03 2023  V4.0                 ##
##         42-109-32599-00-00                ##
###############################################
## Copyright 2017-2023  ENVERUS.  All Rights Reserved. 
## Confidential - Property of ENVERUS, use governed by terms and 
## conditions found within the existing Information Services Subscription Agreement 
## (as may be amended, the “ISSA”) between Customer and ENVERUS. 
## 
~VERSION INFORMATION
# MNEM.UNIT                               DATA : DESCRIPTION OF MNEMONIC
#-----.-----     ----------------------------- : -----------------------------
VERS.                                     2.00 : CWLS LOG ASCII STANDARD - VERSION 2.00
WRAP.                                       NO : MULTIPLE LINES PER DEPTH STEP
VEND.                                  ENVERUS : VENDOR
TYPE.                          ESS - OPEN HOLE : ENVERUS ESSENTIAL CURVES – ACCESSIBLE THROUGH ENVERUS PRISM(TM)
DOC.                                  21933172 : ENVERUS HEADER RAW DOCUMENT ID
#___________________________________________________________________________________________________ 
~WELL INFORMATION 
# uOzh0bdZpl++Qd8K/evm6vwbqlxLNv7zXaBwNvlB7bYnaXF7FEkKOyKwz7AUW0q8cTh4whY6gpezG6wl1Vx46w== 
# MNEM.UNIT                                              DATA : DESCRIPTION OF MNEMONIC 
#-----.-----                    ----------------------------- : ----------------------------- 
CNTY.                                               CULBERSON : COUNTY 
STATE.                                                  TEXAS : STATE 
CNTRY.                                                    USA : COUNTRY 
API.                                             42-109-32599 : API (10 Digit) 
API_14.                                    42-109-32599-00-00 : API (14 Digits) 
API_14_std.                                 42-109-32599-0000 : API (14 Digits Standard) 
UWI.                                           42109325990000 : UNIQUE WELL ID 
WELL.                                           COMANCHE 46 6 : WELL NAME
STRT.FT                                                 190.0 : START DEPTH
STOP.FT                                                5230.0 : STOP DEPTH
STEP.FT                                                   0.5 : STEP BETWEEN DEPTHS
NULL.                                                 -999.25 : NULL VALUE
SRVC.                                             HALLIBURTON :  
DATE.                                  12/31/2013 12-00-00 AM : 
#___________________________________________________________________________________________________ 
~PARAMETER INFORMATION 
# MNEM.UNIT                                              DATA : DESCRIPTION OF MNEMONIC 
#-----.-----                    ----------------------------- : -----------------------------
#___________________________________________________________________________________________________ 
~CURVE INFORMATION 
# MNEM.UNIT           : CURVE DESCRIPTION 
#-----.-----          : ----------------------------- 
 DEPT.FT               : MEASURED DEPTH 
 CALI.IN               : CALIPER (CALD) 
 GR.API                : GAMMA RAY (GRD) 
 PE.B/E                : PHOTOELECTRIC EFFECT/FACTOR 
 RESS_LL.OHMM          : SHALLOW LATEROLOG (LLS) 
 RESD_LL.OHMM          : DEEP LATEROLOG (LLD) 
 DPHI_LS.V/V           : DENSITY POROSITY - LIMESTONE 
 NPHI_LS.V/V           : NEUTRON POROSITY - LIMESTONE 
 RHOB.G/CC             : BULK DENSITY 
 #___________________________________________________________________________________________________ 
~A         DEPT           CALI             GR             PE        RESS_LL        RESD_LL        DPHI_LS        NPHI_LS           RHOB
# ...
         2491.0          8.024        130.261         2.9625        60.5035        88.4238        0.06870        0.12300         2.5935
         2491.5          8.031        121.732         2.9166        51.7685        71.2244        0.06230        0.12390         2.6026
         2492.0          8.037        111.297         2.8118        46.6849        63.2197        0.06840        0.12780         2.5963
         2492.5          8.044         98.037         2.7957        43.6180        59.0366        0.07080        0.11030         2.5999
         2493.0          8.051         84.777         2.9028        43.8984        60.3341        0.06760        0.10040         2.6036
         2493.5          8.057         83.380         3.0180        45.2709        61.2658        0.06450        0.10110         2.6073
         2494.0          8.064         91.678         2.9741        45.2650        60.7180        0.06020        0.10220         2.6123
         2494.5          8.065         99.976         2.9486        44.2543        57.9795        0.05230        0.10540         2.6192
         2495.0          8.043        108.680         2.9970        41.8859        55.2410        0.05150        0.11100         2.6237
         2495.5          8.068        108.098         2.9496        38.5488        53.1514        0.05520        0.11570         2.6247
         2496.0          8.099         96.453         2.8857        40.9009        52.1754        0.04680        0.11800         2.6257
         2496.5          8.099         87.720         2.9262        46.1840        60.7057        0.04180        0.10910         2.6373
         2497.0          8.099         74.255         3.1039        50.2770        64.2970        0.04780        0.10340         2.6404
         2497.5          8.082         75.020         3.2171        49.6597        64.3695        0.05750        0.09980         2.6286
         2498.0          8.094         78.904         3.2746        45.3065        61.2132        0.06840        0.10470         2.6029
         2498.5          8.100         81.363         3.2079        41.2592        55.2209        0.07940        0.10820         2.5811
         2499.0          8.114         84.486         3.2014        39.0302        51.2174        0.08300        0.11100         2.5754
         2499.5          8.099         88.860         3.2475        36.5616        49.3695        0.08170        0.11880         2.5742
         2500.0          8.096         94.675         3.1852        33.8398        47.4539        0.08170        0.12650         2.5742
         2500.5          8.096         99.850         3.1099        33.2676        45.7263        0.08210        0.12680         2.5797
         2501.0          8.095        106.464         3.0345        32.7977        44.4453        0.07430        0.11420         2.5887
         2501.5          8.095        106.334         2.9939        32.6392        45.2841        0.06640        0.11420         2.5978
         2502.0          8.087         96.008         2.9726        35.6551        51.4769        0.06430        0.11330         2.6044
         2502.5          8.122         80.180         3.0180        39.3168        58.7375        0.06950        0.10340         2.6007
         2503.0          8.095         77.172         3.1128        44.1705        68.4444        0.07160        0.09510         2.5974
         2503.5          8.040         80.330         3.1181        49.8188        81.8286        0.06890        0.10050         2.5957
         2504.0          8.063         86.223         3.1448        59.8945       100.7286        0.07220        0.10670         2.5940
         2504.5          8.022         96.246         3.1199        75.7868       119.6287        0.07930        0.11660         2.5862
         2505.0          8.022        107.057         3.1579        91.6792       162.8393        0.08670        0.12510         2.5744
         2505.5          8.022        113.964         3.1807       121.9469       220.9431        0.09420        0.12780         2.5626
         2506.0          8.022        120.367         3.1888       152.2145       279.0470        0.09400        0.12600         2.5595
         2506.5          8.022        127.627         3.1986       197.2004       343.3855        0.09150        0.14120         2.5604
         2507.0          8.022        129.321         3.1807       242.1862       432.6628        0.08900        0.13820         2.5626
         2507.5          8.022        132.210         3.1131       248.5801       435.4230        0.08850        0.13340         2.5648
         2508.0          8.022        139.910         3.0179       227.6267       402.8135        0.08850        0.11680         2.5671
         2508.5          8.022        144.895         2.9510       213.5945       363.4054        0.08850        0.11040         2.5693
         2509.0          8.022        148.666         2.8970       178.1174       272.5133        0.08590        0.12380         2.5715
         2509.5          8.022        149.849         2.9410       120.4101       139.5476        0.08430        0.14210         2.5728
         2510.0          8.022        164.114         3.2077        62.7029        89.3419        0.09880        0.15850         2.5738
         2510.5          8.055        200.751         3.4070        34.8039        38.8951        0.11700        0.15310         2.5538
         2511.0          8.082        175.375         3.3708        28.3834        37.2541        0.12190        0.12920         2.5028
         2511.5          8.095        149.700         3.2617        31.9759        39.8295        0.11020        0.10530         2.5017
         2512.0          8.128         83.056         2.9490        37.9610        44.5182        0.09850        0.08140         2.5185
         2512.5          8.161         72.072         2.9778        41.3526        49.2070        0.08870        0.05750         2.5612
         2513.0          8.193         71.772         3.1274        47.4346        58.0462        0.08030        0.05380         2.6039
         2513.5          8.226         96.036         3.1634        46.1418        58.2325        0.09390        0.06730         2.6122
         2514.0          8.259        134.474         2.8906        39.6515        47.5290        0.11900        0.12060         2.5650
         2514.5          8.292        172.994         2.8302        31.8104        40.8364        0.13790        0.13190         2.5002
         2515.0          8.325        190.841         2.9625        23.4493        32.7422        0.14960        0.13030         2.4884
         2515.5          8.357        173.123         3.0167        15.7940        24.6480        0.13100        0.11690         2.4991
         2516.0          8.390        150.601         2.9258        15.5053        21.7845        0.10800        0.10000         2.5348
         2516.5          8.423         86.636         2.8506        15.4025        21.3858        0.09590        0.08620         2.5525
         2517.0          8.447         77.130         2.8136        15.5475        21.3892        0.10020        0.08490         2.5478
         2517.5          8.472         71.321         2.8017        15.6056        21.1592        0.10280        0.08640         2.5437
         2518.0          8.497         69.369         2.7898        15.5469        20.9292        0.08970        0.08810         2.5562
         2518.5          8.523         69.583         2.7779        15.4462        20.7455        0.07870        0.09080         2.5723
         2519.0          8.548         70.510         2.7755        15.3454        20.7458        0.07710        0.08590         2.5852
         2519.5          8.573         71.500         2.7955        14.9598        20.7458        0.08080        0.08490         2.5833
         2520.0          8.599         74.678         2.7957        14.5030        20.7458        0.08050        0.09190         2.5808
