~Version Information Block
 VERS.                2.00:     CWLS LOG ASCII STANDARD - VERSION 2.000000
 WRAP.                  NO:     One Line Per Depth Step
#
~Well Information Block
#MNEM.UNIT                     Data                         Information
#----------   ------------------------------------------   ----------------
 STRT.FT                                        4.0000:     START DEPTH
 STOP.FT                                    10300.0000:     STOP DEPTH
 STEP.FT                                        0.5000:     STEP
 NULL.                                       -999.2500:     NULL VALUE
 COMP.                            MONSANTO OIL COMPANY:     COMPANY
 WELL.                               UNIVERSITY_6-46-1:     WELL
 FLD .                                         WILDCAT:     FIELD
 LOC .                                                :     LOCATION
 CNTY.                                       CULBERSON:     COUNTY
 STAT.                                           TEXAS:     STATE
 CTRY.                                             USA:     COUNTRY
 SRVC.                                                :     SERVICE COMPANY
 DATE.                                      10/31/2016:     DATE
 API .                                  42109315500000:     API NUMBER
 UWI .                                  42109315500000:     UWI NUMBER
 TVD .                                              NO:     TVD flag
 WSTA.                                             LOC:     Well status
#
~Curve Information Block
#MNEM.UNIT       API CODE      Curve Description
#----------    -------------   -------------------
 DEPT.FT                   :   Depth in Feet
 CALI.IN                   :   Caliper
 GR  .GAPI                 :   Gamma Ray
 DPHI.V/V                  :   Density Porosity
 NPHI.V/V                  :   Neutron Porosity
 DRHO.G/C3                 :   Delta Rho
 RHOB.G/C3                 :   Bulk Density
#
~Parameter Information Block
#MNEM.UNIT            Value               Description
#----------    --------------------    -------------------
 RUN .                         ONE:    Run Number
 PDAT.                          GL:    Permanent Datum
 EPD .FT                          :    Elevation Of Perm. Datum
 LMF .               KELLY BUSHING:    Log Measured From
 EKB .FT                          :    Elevation Of Kelly Bushing
 DF .FT                           :    Elevation Of Derrick Floor
 GL .FT                           :    Elevation Of Ground Level
 TD  .FT                          :    Total Depth
 CSGD.FT                          :    Casing Bottom (Driller) 1
 CSGL.FT                          :    Casing Bottom (Logger) 1
 MUD .                            :    Drilling Fluid Type
 MUDV .CP                         :    Drilling Fluid Viscosity
 MUDD .LB/USG                     :    Drilling Fluid Density
 FL .ML/30MIN                     :    Drilling Fluid Loss
 PH.                              :    Drilling Fluid Ph
 MUDS .                           :    Mud Sample Source
 RM .OHMM                         :    Resistivity Of Mud Sample
 RMT .DEGF                        :    Mud Sample Temperature
 RMF .OHMM                        :    Mud Filtrate Resistivity
 RMFT.DEGF                        :    Mud Filtrate Sample Temperature
 RMC .OHMM                        :    Mud Cake Resistivity
 RMCT.DEGF                        :    Mud Cake Sample Temperature
 RMB .OHMM                        :    Mud Resistivity At Bht
 TMAX .DEGF                       :    Bottom Hole Temperature   
#
~Other Information Block
<DescLogPlotStart>   NEURALOG PLOT DEFINITION
PLOTDEFVERSION: 3
LASFILE: E:\nds\projects\Texas Standard Oil LLC\pdf\Pradeep+Ekta\42109315500000
DEPTHSCALE: 240.000000
RESOLUTION: 200
DEPTHLABELFREQ: 100.000000
HEAVYGRIDFREQ: 100.000000
MEDIUMGRIDFREQ: 50.000000
LIGHTGRIDFREQ: 10.000000
#
#   TRACK 1
#
STARTTRACK: 
 LEFTX: 0.500000 inch
 RIGHTX: 3.000000 inch
 SCALETYPE: Linear
 NUMCHARTDIVISIONS: 10
CURVE: CALI  6.000000   16.000000  (0,0,255)      Solid             2     N    
CURVE: GR    0.000000   100.000000 (0,131,131)    Dot               2     Y    
BACKUP: 100.000000 200.000000 (0,131,131)    Dot               2    
ENDTRACK: 
#
#   TRACK 2
#
STARTTRACK: 
 LEFTX: 3.500000 inch
 RIGHTX: 8.500000 inch
 SCALETYPE: Linear
 NUMCHARTDIVISIONS: 10
CURVE: DPHI  0.300000   -0.100000  (255,0,255)    Solid             2     Y    
BACKUP: 0.700000   0.300000   (255,0,255)    Solid             2    
CURVE: NPHI  0.300000   -0.100000  (255,0,0)      Dot               2     Y    
BACKUP: 0.700000   0.300000   (255,0,0)      Dot               2    
CURVE: DRHO  -0.050000  0.950000   (255,131,0)    Short_Dash        2     N    
ENDTRACK: 
#
#   TRACK 3
#
STARTTRACK: 
 LEFTX: 8.500000 inch
 RIGHTX: 13.500000 inch
 SCALETYPE: Linear
 NUMCHARTDIVISIONS: 10
CURVE: RHOB  2.000000   3.000000   (255,255,0)    Solid             2     Y    
BACKUP: 1.000000   2.000000   (255,255,0)    Solid             2    
ENDTRACK: 
<DescLogPlotEnd>
~A DEPTH     CALI             GR               DPHI             NPHI             DRHO             RHOB            
# ...
    8194.000 8.52486566       91.86479698      0.00414310       0.13426145       0.04845161       2.71303193      
    8194.500 8.51577721       87.64738115      0.00852558       0.13007422       0.04763061       2.71905614      
    8195.000 8.53433236       85.60751371      0.00972919       0.12647944       0.04300088       2.70323204      
    8195.500 8.53500192       87.32784811      0.01815446       0.12367101       0.03859774       2.69772461      
    8196.000 8.53511315       90.36539673      0.03701103       0.12386680       0.03208269       2.68447969      
    8196.500 8.53507811       92.82778246      0.03741224       0.12968907       0.01714118       2.67070496      
    8197.000 8.53505977       93.96541568      0.03660983       0.13510264       0.01591495       2.65848973      
    8197.500 8.53516566       91.63927729      0.02925529       0.14174215       0.01472875       2.64578437      
    8198.000 8.52805105       75.62867175      0.02030324       0.14975357       0.01807310       2.66106502      
    8198.500 8.51664119       54.53262583      0.01215230       0.15776499       0.02084459       2.67162303      
    8199.000 8.50699857       34.76953908      -0.00150451      0.15937813       0.02386727       2.69127814      
    8199.500 8.49521367       31.76352705      -0.02678034      0.10532692       0.02359752       2.70627071      
    8200.000 8.49541407       31.86372745      -0.05347348      0.06819863       0.04255957       2.82904460      
    8200.500 8.48876905       45.93793605      -0.07933801      0.03477503       0.06200803       2.92652236      
    8201.000 8.49615172       61.79182985      -0.06962487      0.03644861       0.06372809       2.84016718      
    8201.500 8.49466187       77.70286976      -0.05122768      0.07452514       0.06582294       2.81563931      
    8202.000 8.49501282       93.73462504      -0.03283049      0.10255292       0.06716124       2.79138242      
    8202.500 8.49481325       96.85893112      -0.01443330      0.13073150       0.06223971       2.76728128      
    8203.000 8.48847819       97.14332655      -0.00230692      0.13957308       0.04728611       2.74305472      
    8203.500 8.48185582       94.38848635      0.00676429       0.14172518       0.03560829       2.71565907      
    8204.000 8.47526025       88.94373025      0.01663190       0.14012939       0.02955441       2.69384364      
    8204.500 8.46867283       82.75357902      0.02020913       0.13834077       0.02592016       2.68244422      
    8205.000 8.46208546       76.46638234      0.02049147       0.12967448       0.02596266       2.67819995      
    8205.500 8.45549809       73.45447085      0.01315848       0.12001131       0.02591657       2.68614525      
    8206.000 8.44891072       73.36991261      0.00838114       0.11107093       0.02397535       2.69239498      
    8206.500 8.44232336       83.85947985      0.01053159       0.10924109       0.01980983       2.69607332      
    8207.000 8.43573599       99.79271458      0.01614845       0.12462302       0.01618415       2.69278512      
    8207.500 8.42915373       102.47499191     0.01534604       0.15045595       0.02119119       2.68656519      
    8208.000 8.42260560       108.48594356     0.01213641       0.15732396       0.02554816       2.68935838      
    8208.500 8.41652470       105.52576910     0.01145236       0.16107774       0.01884607       2.69071531      
    8209.000 8.39079877       98.03743420      0.01614845       0.14772474       0.01380101       2.68204032      
    8209.500 8.37185303       96.70813244      0.02377131       0.13698070       0.02363865       2.67531402      
    8210.000 8.36549017       97.68889437      0.02682046       0.13074361       0.03222981       2.66252424      
    8210.500 8.35905682       103.56846784     0.02623642       0.14313375       0.03135014       2.66423883      
    8211.000 8.34872604       101.70470562     0.02330439       0.15456369       0.03020167       2.67063242      
    8211.500 8.33448056       99.02890323      0.02181665       0.15135406       0.03464950       2.67462621      
    8212.000 8.33471038       100.47839357     0.01902244       0.13025992       0.04112478       2.67870325      
    8212.500 8.33440583       100.94504673     0.01733717       0.12527583       0.04617862       2.68073072      
    8213.000 8.32831262       115.13689110     0.01856387       0.14216449       0.04420136       2.68073920      
    8213.500 8.32487424       116.23404815     0.02017556       0.15940421       0.03579281       2.67759136      
    8214.000 8.32541204       103.24123866     0.01977610       0.16178536       0.02903888       2.67775069      
    8214.500 8.31492061       99.43981335      0.01815446       0.14270389       0.02622069       2.67985346      
    8215.000 8.30636895       100.72662483     0.01855567       0.13410231       0.02318549       2.68018942      
    8215.500 8.29446963       100.59498616     0.01855567       0.13009027       0.02817789       2.68085894      
    8216.000 8.30466026       104.38944206     0.01661063       0.14518963       0.03423434       2.68290886      
    8216.500 8.31199030       108.43827434     0.01414243       0.15423632       0.03750399       2.68508540      
    8217.000 8.29446221       102.38143363     0.01414243       0.15562945       0.04028354       2.68721114      
    8217.500 8.29462649       100.88647158     0.01415109       0.15255767       0.04306631       2.68718877      
    8218.000 8.29440607       102.57627229     0.01721479       0.16519923       0.04585094       2.68324907      
    8218.500 8.29500823       110.55321018     0.02091347       0.18006565       0.04865448       2.67714808      
    8219.000 8.30652690       113.34223754     0.02577733       0.18848058       0.05151618       2.66887189      
    8219.500 8.30040752       112.78623120     0.02938816       0.19293474       0.05368278       2.64891645      
    8220.000 8.30754305       109.42797768     0.03258060       0.18299872       0.04316642       2.64987654      
    8220.500 8.30957913       106.47326723     0.03500502       0.17155912       0.03231264       2.65232672      
    8221.000 8.30153720       106.31100984     0.03299900       0.16659980       0.02624086       2.65726763      
    8221.500 8.31968120       107.80999410     0.02698094       0.16098295       0.09591411       2.66529410      
    8222.000 8.33570556       110.60951954     0.01715948       0.16063770       0.17483544       2.68255818      
    8222.500 8.35818607       115.32834407     0.00371113       0.16246075       0.39575086       2.71686248      
    8223.000 8.58343731       119.97386679     -0.00110331      0.16786752       0.38854232       2.58331545      
    8223.500 8.82425959       124.16075769     0.05426279       0.21446972       0.16863682       2.40266382      
    8224.000 9.07002250       116.04848007     0.14340221       0.26167367       0.01949698       2.35415750      
    8224.500 9.13075439       102.50350000     0.20952859       0.26741857       0.01458753       2.46122888      
    8225.000 8.79480379       93.14209380      0.11731668       0.20752257       0.01086519       2.45766547      
    8225.500 8.51413479       94.13236678      0.14305602       0.18345035       0.03362095       2.65431431      
    8226.000 8.48391204       100.88770580     0.04380489       0.17342026       0.04004076       2.66248248      
    8226.500 8.47428887       100.96110117     0.02417252       0.17141424       0.04240768       2.68198133      
    8227.000 8.47482098       100.57236361     0.01614845       0.16940822       0.04440626       2.68655350      
    8227.500 8.48135076       97.34347778      0.00892678       0.16339017       0.04578586       2.69250988      
    8228.000 8.51486638       96.96593653      0.00549783       0.13931795       0.04610100       2.70026275      
    8228.500 8.51963926       99.85459074      0.00411234       0.13845739       0.04615611       2.70419924      
