~Version Information Block
 VERS.                2.00:     CWLS LOG ASCII STANDARD - VERSION 2.000000
 WRAP.                  NO:     One Line Per Depth Step
#
~Well Information Block
#MNEM.UNIT                     Data                         Information
#----------   ------------------------------------------   ----------------
 STRT.FT                                      250.0000:     START DEPTH
 STOP.FT                                    10290.0000:     STOP DEPTH
 STEP.FT                                        0.5000:     STEP
 NULL.                                       -999.2500:     NULL VALUE
 COMP.                                                :     COMPANY
 WELL.                                                :     WELL
 FLD .                                                :     FIELD
 LOC .                                                :     LOCATION
 CNTY.                                                :     COUNTY
 STAT.                                                :     STATE
 CTRY.                                                :     COUNTRY
 SRVC.                                                :     SERVICE COMPANY
 DATE.                                                :     DATE
 API .                                                4210931550:     API NUMBER
 UWI .                                                :     UWI NUMBER
 TVD .                                              NO:     TVD flag
 WSTA.                                             LOC:     Well status
#
~Curve Information Block
#MNEM.UNIT       API CODE      Curve Description
#----------    -------------   -------------------
 DEPT.FT                   :   Depth in Feet
 LLS .OHMM                 :   Latero-Log Shallow (Resistivity)
 LLD .OHMM                 :   Latero-Log Deep (Resistivity)
 SFLU.OHMM                 :   SFL Resistivity (Unaveraged)
 ILD .OHMM                 :   Deep Induction Standard Processed Resistivity
 ILM .OHMM                 :   Medium Induction Standard Processed Resistivity
#
~Parameter Information Block
#MNEM.UNIT            Value               Description
#----------    --------------------    -------------------
 RUN .                         ONE:    Run Number
 PDAT.                          GL:    Permanent Datum
 EPD .FT                          :    Elevation Of Perm. Datum
 LMF .               KELLY BUSHING:    Log Measured From
 EKB .FT                          :    Elevation Of Kelly Bushing
 DF .FT                           :    Elevation Of Derrick Floor
 GL .FT                           :    Elevation Of Ground Level
 TD  .FT                          :    Total Depth
 CSGD.FT                          :    Casing Bottom (Driller) 1
 CSGL.FT                          :    Casing Bottom (Logger) 1
 MUD .                            :    Drilling Fluid Type
 MUDV .CP                         :    Drilling Fluid Viscosity
 MUDD .LB/USG                     :    Drilling Fluid Density
 FL .ML/30MIN                     :    Drilling Fluid Loss
 PH.                              :    Drilling Fluid Ph
 MUDS .                           :    Mud Sample Source
 RM .OHMM                         :    Resistivity Of Mud Sample
 RMT .DEGF                        :    Mud Sample Temperature
 RMF .OHMM                        :    Mud Filtrate Resistivity
 RMFT.DEGF                        :    Mud Filtrate Sample Temperature
 RMC .OHMM                        :    Mud Cake Resistivity
 RMCT.DEGF                        :    Mud Cake Sample Temperature
 RMB .OHMM                        :    Mud Resistivity At Bht
 TMAX .DEGF                       :    Bottom Hole Temperature
#
~Other Information Block
<DescLogPlotStart>   NEURALOG PLOT DEFINITION
PLOTDEFVERSION: 3
LASFILE: E:\nds\projects\Texas Standard Oil LLC\pdf\Pradeep+Ekta\42109315500000
DEPTHSCALE: 240.000000
RESOLUTION: 200
DEPTHLABELFREQ: 100.000000
HEAVYGRIDFREQ: 100.000000
MEDIUMGRIDFREQ: 50.000000
LIGHTGRIDFREQ: 10.000000
#
#   TRACK 1
#
STARTTRACK: 
 LEFTX: 1.000000 inch
 RIGHTX: 6.000000 inch
 SCALETYPE: Log
 NUMCYCLES: 4
 STARTCYCLE: 2
CURVE: SFLU  0.200000   2000.000000 (0,0,255)      Solid             2     N   
CURVE: ILD   0.200000   2000.000000 (0,131,131)    Dot               2     N   
CURVE: ILM   0.200000   2000.000000 (255,0,255)    Short_Dash        2     N   
ENDTRACK: 
#
#   TRACK 2
#
STARTTRACK: 
 LEFTX: 1.000000 inch
 RIGHTX: 6.000000 inch
 SCALETYPE: Log
 NUMCYCLES: 4
 STARTCYCLE: 2
CURVE: LLS   0.200000   2000.000000 (255,0,0)      Solid             2     Y   
BACKUP: 2000.000000 20000000.000000 (255,0,0)      Solid             2    
CURVE: LLD   0.200000   2000.000000 (255,131,0)    Dot               2     Y   
BACKUP: 2000.000000 20000000.000000 (255,131,0)    Dot               2    
ENDTRACK: 
<DescLogPlotEnd>
~A DEPTH     LLS              LLD              SFLU             ILD              ILM             
# ...
    5416.000 -999.25000000    -999.25000000    258.44253821     91.83663315      82.00274508     
    5416.500 -999.25000000    -999.25000000    292.29796781     81.44407293      82.96282966     
    5417.000 -999.25000000    -999.25000000    308.57498620     66.46525721      72.89790558     
    5417.500 -999.25000000    -999.25000000    256.94387555     69.60731315      64.05404275     
    5418.000 -999.25000000    -999.25000000    141.73769368     75.64203345      50.84469454     
    5418.500 -999.25000000    -999.25000000    85.29423231      79.21790919      53.24830933     
    5419.000 -999.25000000    -999.25000000    94.41740541      82.96282966      55.76555177     
    5419.500 -999.25000000    -999.25000000    178.56935991     90.15542838      69.60731315     
    5420.000 -999.25000000    -999.25000000    485.85817121     96.17808688      86.88478622     
    5420.500 -999.25000000    -999.25000000    1325.84998745    98.88086169      97.07070196     
    5421.000 -999.25000000    -999.25000000    1414.42082376    85.23633180      91.83663315     
    5421.500 -999.25000000    -999.25000000    1266.00146518    77.16182584      79.95311928     
    5422.000 -999.25000000    -999.25000000    425.61208160     68.17498054      49.91390756     
    5422.500 -999.25000000    -999.25000000    128.07054376     43.02827099      37.13953098     
    5423.000 -999.25000000    -999.25000000    42.55832848      37.48421766      29.20945650     
    5423.500 -999.25000000    -999.25000000    27.46904892      32.03640956      22.97262045     
    5424.000 -999.25000000    -999.25000000    21.20373921      27.12858783      19.81608970     
    5424.500 -999.25000000    -999.25000000    19.45332701      21.73393284      17.90134087     
    5425.000 -999.25000000    -999.25000000    19.45332701      19.09720522      16.93609752     
    5425.500 -999.25000000    -999.25000000    19.63387056      17.90134087      15.72957748     
    5426.000 -999.25000000    -999.25000000    19.81608970      17.26861073      14.97496032     
    5426.500 -999.25000000    -999.25000000    20.00000000      16.76427874      14.86528886     
    5427.000 -999.25000000    -999.25000000    20.18561714      16.62397254      14.88353882     
    5427.500 -999.25000000    -999.25000000    20.18561714      16.32169287      14.88143597     
    5428.000 -999.25000000    -999.25000000    19.81608970      16.17160650      14.88143597     
    5428.500 -999.25000000    -999.25000000    19.27444365      16.02290025      14.74459351     
    5429.000 -999.25000000    -999.25000000    18.57415352      15.72676089      14.07607564     
    5429.500 -999.25000000    -999.25000000    17.77435641      15.73215264      14.08410994     
    5430.000 -999.25000000    -999.25000000    17.21524757      15.71365858      14.06884193     
    5430.500 -999.25000000    -999.25000000    15.99953089      16.02290025      14.88143597     
    5431.000 -999.25000000    -999.25000000    16.42718458      16.32169287      15.58493591     
    5431.500 -999.25000000    -999.25000000    19.13083151      16.62605732      16.47317217     
    5432.000 -999.25000000    -999.25000000    20.90479385      17.09327902      17.09327902     
    5432.500 -999.25000000    -999.25000000    22.79228714      17.09327902      17.25191930     
    5433.000 -999.25000000    -999.25000000    24.53502082      16.78036138      17.25191930     
    5433.500 -999.25000000    -999.25000000    24.54191826      16.47317217      16.95687572     
    5434.000 -999.25000000    -999.25000000    21.98290947      17.41203190      16.63066046     
    5434.500 -999.25000000    -999.25000000    20.39991310      17.90134087      15.73456732     
    5435.000 -999.25000000    -999.25000000    18.92159659      18.06748066      15.72377657     
    5435.500 -999.25000000    -999.25000000    18.74760277      18.57520891      15.72957748     
    5436.000 -999.25000000    -999.25000000    20.75286878      19.09720522      17.25191930     
    5436.500 -999.25000000    -999.25000000    22.81203032      19.63387056      17.57363048     
    5437.000 -999.25000000    -999.25000000    28.38289901      20.75286878      17.73672883     
    5437.500 -999.25000000    -999.25000000    32.80449448      21.13986513      17.73672883     
    5438.000 -999.25000000    -999.25000000    34.63400448      16.93609752      17.57235649     
    5438.500 -999.25000000    -999.25000000    19.09720522      16.02290025      17.58028203     
    5439.000 -999.25000000    -999.25000000    18.57520891      15.72957748      16.62650995     
    5439.500 -999.25000000    -999.25000000    19.63387056      15.56617023      16.63214165     
    5440.000 -999.25000000    -999.25000000    19.82532537      14.73014525      14.88143597     
    5440.500 -999.25000000    -999.25000000    19.82221528      14.73523453      13.69419524     
    5441.000 -999.25000000    -999.25000000    19.82572238      14.74238079      13.82128910     
    5441.500 -999.25000000    -999.25000000    19.24509150      15.02233979      14.34156996     
    5442.000 -999.25000000    -999.25000000    21.58335114      15.01550894      14.88143597     
    5442.500 -999.25000000    -999.25000000    24.08888750      15.44912665      15.72957748     
    5443.000 -999.25000000    -999.25000000    23.61819183      15.44162440      15.14838838     
    5443.500 -999.25000000    -999.25000000    22.34469489      15.44162440      14.46543980     
    5444.000 -999.25000000    -999.25000000    20.75286878      15.44162440      14.47685714     
    5444.500 -999.25000000    -999.25000000    18.92859597      15.44162440      14.22315571     
    5445.000 -999.25000000    -999.25000000    17.55350635      15.29963072      14.08820731     
    5445.500 -999.25000000    -999.25000000    17.58131729      15.72957748      14.19739028     
    5446.000 -999.25000000    -999.25000000    16.44798328      15.86210085      15.01954845     
    5446.500 -999.25000000    -999.25000000    18.39498387      16.03260218      15.44162440     
    5447.000 -999.25000000    -999.25000000    20.05076060      16.01836689      16.02290025     
    5447.500 -999.25000000    -999.25000000    22.00219006      16.32374195      16.47317217     
    5448.000 -999.25000000    -999.25000000    24.25178566      16.32169287      15.87556144     
    5448.500 -999.25000000    -999.25000000    25.42607495      16.17160650      14.88143597     
    5449.000 -999.25000000    -999.25000000    24.05862029      15.15894274      14.07902641     
    5449.500 -999.25000000    -999.25000000    21.13986513      14.60900938      13.44350283     
    5450.000 -999.25000000    -999.25000000    18.71299647      14.34156996      12.71862687     
    5450.500 -999.25000000    -999.25000000    16.79656858      14.07902641      11.92218821     
    5451.000 -999.25000000    -999.25000000    15.58493591      14.07902641      11.92218821     
    5451.500 -999.25000000    -999.25000000    15.44162440      14.20969184      12.60167254     
    5452.000 -999.25000000    -999.25000000    14.88143597      15.01954845      13.19739972     
    5452.500 -999.25000000    -999.25000000    18.75255174      16.17160650      14.74459351     
    5453.000 -999.25000000    -999.25000000    28.14980117      18.06748066      18.23516236     
    5453.500 -999.25000000    -999.25000000    39.62056530      19.45332701      20.18561714     
    5454.000 -999.25000000    -999.25000000    46.78830558      21.53407814      21.53407814     
    5454.500 -999.25000000    -999.25000000    43.05553526      23.83738889      22.55207281     
    5455.000 -999.25000000    -999.25000000    37.13953098      26.14442187      23.40101039     
    5455.500 -999.25000000    -999.25000000    34.38505768      28.65284651      24.73471019     
    5456.000 -999.25000000    -999.25000000    39.52777658      27.87200297      25.66580974     
    5456.500 -999.25000000    -999.25000000    46.77447689      27.64297487      26.87912650     
