~VERSION INFORMATION
VERS. 2.0 : CWLS Log ASCII Standard - Version 2.0
WRAP. NO : One line per depth step
#--------------------------------------------------#
#----------------DRILLING INFO, INC.---------------#
#---------------WWW.DRILLINGINFO.COM---------------#
#------------------COPYRIGHT 2015------------------#
#--------------------------------------------------#
#THIS FILE MAY BE USED ONLY IN ACCORDANCE WITH A CURRENT SUBSCRIPTION AGREEMENT BETWEEN
#THE USER AND DRILLING INFO, INC. NO PART OF THIS FILE MAY BE REPRODUCED, USED, COPIED,
#MODIFIED, PROPAGATED, OR DISTRIBUTED EXCEPT IN ACCORDANCE WITH THE SUBSCRIPTION
#AGREEMENT. UNAUTHORIZED USE OR DISTRIBUTION OF ALL OR ANY PART OF THIS FILE MAY VIOLATE
#COPYRIGHT, TRADEMARK, AND/OR OTHER LAWS AND IS SUBJECT TO CIVIL AS WELL AS CRIMINAL
#SANCTIONS.
#--------------------------------------------------#
#THIS FILE IS PROVIDED "AS-IS" AND ALL WARRANTIES ARE EXPRESSLY DISCLAIMED, WHETHER
#EXPRESS, ORAL, IMPLIED, STATUTORY OR OTHERWISE, INCLUDING ANY IMPLIED WARRANTY OF FITNESS
#FOR A PARTICULAR PURPOSE, MERCHANTABILITY, TITLE OR NON-INFRINGEMENT, AND ANY WARRANTIES
#ARISING BY VIRTUE OF CUSTOM OF TRADE OR COURSE OF DEALING.  FURTHER, DRILLING INFO,
#INC. AND ITS LICENSORS DO NOT REPRESENT OR WARRANT THAT THIS FILE WILL MEET USER'S
#REQUIREMENTS OR ARE SUITABLE FOR USER'S NEEDS OR THAT THE DATA OR RESULTS PROVIDED IN
#CONJUNCTION THEREWITH ARE CORRECT, ACCURATE, TIMELY OR RELIABLE. THESE DISCLAIMERS SHALL
#APPLY REGARDLESS OF ANY FAILURE OF ESSENTIAL PURPOSE OF ANY LIMITED REMEDY.  SOME
#JURISDICTIONS DO NOT ALLOW THE EXCLUSION OF CERTAIN WARRANTIES SO SOME OF THE ABOVE
#EXCLUSIONS MAY NOT APPLY. IN NO EVENT SHALL DRILLING INFO, INC. OR ANY OF ITS AFFILIATES
#BE LIABLE UNDER ANY LEGAL THEORY, WHETHER IN TORT (INCLUDING WITHOUT LIMITATION
#NEGLIGENCE), CONTRACT, STRICT LIABILITY, STATUTORY OR OTHERWISE, FOR ANY SPECIAL,
#INCIDENTAL, CONSEQUENTIAL, EXEMPLARY, PUNITIVE OR INDIRECT DAMAGE OF ANY KIND, INCLUDING
#WITHOUT LIMITATION LOSS OF REVENUE, PROFITS, GOODWILL, USE, AND/OR DATA OR THE COST OF
#PROCUREMENT OF SUBSTITUTE GOODS OR SERVICES, EVEN IF APPRISED OF THE POSSIBILITY OF SUCH
#DAMAGES IN ADVANCE.
#--------------------------------------------------#
~WELL INFORMATION
#MNEMONIC     .UNIT              VALUE :DESCRIPTION
#--------------------------------------------------#
STRT       .ft                97.00000 :START DEPTH
STOP       .ft                8647.00000 :STOP DEPTH
STEP       .ft                0.50000 :STEP
NULL       .                -999.25000 :NULL VALUE
COMP       .                 :COMPANY
WELL       .                 :WELL
FLD       .                 :FIELD
LOC       .                 :LOCATION
CNTY       .                 :COUNTY
STAT       .                 :STATE
CTRY       .                 :COUNTRY
SRVC       .                 :SERVICE COMPANY
DATE       .                 :DATE
API       .                42109002030000 :API NUMBER
~CURVE INFORMATION
#MNEMONIC     .UNIT      API CODE :CURVE DESCRIPTION
#--------------------------------------------------#
DEPTH       .ft                      :Measured Depth
DT       .us/ft        UNKNOWN   :DT
GR       .gAPI        UNKNOWN   :GR
ILD       .ohmm        UNKNOWN   :ILD
ILS       .ohmm        UNKNOWN   :ILS
SP       .mV        UNKNOWN   :SP
~A    DEPTH    DT    GR    ILD    ILS    SP
# ...
5845.00000    70.89660    43.71362    146.50220    208.53027    -54.45465
5845.50000    71.62963    42.06867    145.15210    209.41173    -54.54194
5846.00000    72.36265    40.42372    139.38451    210.29318    -54.62922
5846.50000    73.09567    38.77877    133.61692    211.17463    -54.71650
5847.00000    73.82869    37.13382    127.84934    212.05608    -54.80378
5847.50000    69.87673    35.48887    122.08175    217.97795    -54.89106
5848.00000    64.98498    33.76433    116.31416    224.62737    -54.97834
5848.50000    60.09322    31.40185    110.54657    231.27678    -55.06563
5849.00000    55.20147    29.03937    111.16655    237.92620    -55.15291
5849.50000    50.30971    26.67689    126.65952    244.57561    -55.24019
5850.00000    45.88944    16.71781    142.15249    251.22502    -55.32747
5850.50000    46.22001    10.83698    157.64545    257.87444    -55.41475
5851.00000    46.55058    9.87490    231.73279    264.52385    -55.50203
5851.50000    46.88114    8.91282    293.56640    271.17327    -55.43643
5852.00000    47.21171    7.95073    355.40002    277.82268    -54.92807
5852.50000    47.54228    6.98865    417.23363    284.47209    -54.41971
5853.00000    47.87285    6.69285    463.62182    291.12151    -53.91135
5853.50000    47.37208    6.79452    408.06287    297.03538    -53.40299
5854.00000    46.82148    6.89618    352.50393    291.62176    -52.89463
5854.50000    46.35092    6.99784    353.37025    286.20813    -52.38627
5855.00000    46.67565    7.09950    369.53580    280.79451    -51.87791
5855.50000    47.00039    7.20116    385.70135    275.38088    -51.36955
5856.00000    47.32512    7.55795    401.86689    269.96726    -50.86119
5856.50000    47.64986    9.19862    418.03244    264.55363    -50.35283
5857.00000    47.97459    10.83929    434.19799    259.14001    -49.84447
5857.50000    48.29932    12.47996    450.36353    253.72638    -49.33611
5858.00000    48.62406    14.77210    392.54782    242.65020    -48.82775
5858.50000    50.89429    20.34674    323.77125    231.32490    -48.31939
5859.00000    55.94915    25.92138    254.99469    219.99959    -47.81103
5859.50000    61.00400    31.49602    186.21812    208.67429    -47.30267
5860.00000    66.05886    35.57202    156.33550    197.34898    -46.79431
5860.50000    71.11371    39.22855    137.85914    186.02368    -46.42846
5861.00000    75.91116    42.17740    119.38278    174.69838    -46.39332
5861.50000    73.81812    44.39960    100.90642    170.12875    -46.35817
5862.00000    71.72509    46.35619    95.60943    173.48179    -46.32303
5862.50000    69.63205    43.95489    89.39450    176.83482    -46.28789
5863.00000    67.53901    41.55358    83.17958    180.18785    -46.25275
5863.50000    65.45064    39.15228    80.87299    183.54088    -46.21761
5864.00000    65.90889    36.75097    84.55009    186.89392    -46.18247
5864.50000    66.36715    34.34967    88.22720    190.24695    -46.14733
5865.00000    66.82541    31.94837    91.90431    193.59998    -46.11219
5865.50000    67.28367    29.54706    95.58142    196.95301    -46.07704
5866.00000    67.74193    28.98768    99.15014    200.30605    -46.04190
5866.50000    65.95785    29.29555    102.63714    203.65908    -46.02914
5867.00000    62.37720    29.60342    113.77292    207.01211    -46.18803
5867.50000    58.79656    29.91129    124.90870    210.36515    -46.34691
5868.00000    56.10083    28.19909    137.31280    213.71818    -46.50579
5868.50000    58.50421    26.38007    154.28946    217.07121    -46.66467
5869.00000    60.90758    24.56105    171.26613    220.42424    -46.82356
5869.50000    63.31096    26.59300    174.59577    221.59263    -46.98244
5870.00000    65.71433    28.72839    172.31534    221.60715    -47.14132
5870.50000    66.45517    30.86378    170.03491    221.62167    -47.30020
5871.00000    64.87653    32.99917    167.75447    221.63619    -47.45909
5871.50000    63.29789    35.13456    165.47404    221.65071    -48.52824
5872.00000    61.71924    35.23474    163.19361    221.66524    -50.32357
5872.50000    60.14060    33.95775    160.91318    221.67976    -50.32076
5873.00000    58.56196    32.68076    158.63275    221.69428    -50.31794
5873.50000    56.98332    31.40376    156.35231    221.70880    -50.31512
5874.00000    58.15475    30.12677    157.89678    221.72332    -50.31231
5874.50000    59.77384    30.76166    164.38378    221.73785    -50.30949
5875.00000    61.39292    31.45160    170.87078    221.75237    -50.30667
5875.50000    63.01201    33.40949    177.35778    221.76689    -50.30386
5876.00000    64.63110    37.65567    183.84478    219.39124    -50.30104
5876.50000    66.25019    41.90186    176.76883    215.41035    -50.29822
5877.00000    67.86928    46.14804    168.45642    211.42945    -50.29541
5877.50000    69.48836    49.75807    160.14401    207.44855    -50.29259
5878.00000    71.10745    52.12902    151.83160    203.46765    -50.28977
5878.50000    72.72654    51.50450    143.51919    199.48676    -50.28696
5879.00000    73.62720    50.49674    135.20678    195.50586    -50.28414
5879.50000    73.50209    49.48898    124.02290    191.52496    -50.47033
5880.00000    73.37698    48.48121    112.32690    187.54406    -51.27069
5880.50000    73.25187    47.89538    100.63089    183.56317    -52.07105
5881.00000    73.44782    48.16843    98.89349    179.58227    -51.98312
5881.50000    73.76855    48.44147    96.56003    175.60137    -51.64175
5882.00000    73.61774    48.71452    93.86170    171.62048    -51.30037
5882.50000    72.79871    48.98757    91.16338    167.63958    -50.95899
5883.00000    71.97967    49.27880    91.85039    163.65868    -50.61762
5883.50000    71.16063    49.58648    92.89297    159.67778    -50.27624
5884.00000    70.76582    49.89416    93.93555    159.37224    -50.58998
5884.50000    71.72838    50.75619    94.97813    163.47783    -50.94016
5885.00000    72.69093    51.70850    96.02071    167.58341    -51.29033
5885.50000    73.65349    52.66080    97.06329    171.68899    -51.64051
5886.00000    74.61604    53.61311    98.10587    175.79458    -51.99069
5886.50000    75.57860    54.56542    98.96163    179.90016    -52.34087
5887.00000    76.54115    55.51773    99.23487    184.00574    -52.69105
5887.50000    76.22742    54.49192    99.50810    188.11133    -53.04123
5888.00000    75.38449    52.44983    99.78133    192.21691    -53.39140
5888.50000    74.78620    50.40775    100.54562    196.32249    -53.74158
5889.00000    74.33557    48.29550    103.27794    200.42808    -54.09176
5889.50000    73.88493    44.74659    106.68487    204.53366    -54.44194
5890.00000    73.43430    41.19768    111.24997    208.63924    -54.79212
5890.50000    72.32196    37.64877    115.81506    212.74483    -55.14230
5891.00000    69.78120    34.09986    120.38016    217.90008    -55.49248
5891.50000    67.24045    30.55095    124.94525    230.82149    -55.66367
5892.00000    64.69970    27.00204    129.51035    243.74291    -55.40088
5892.50000    62.15894    23.45312    137.52925    256.66432    -55.13810
5893.00000    59.61819    19.90422    148.67863    269.58573    -54.87532
5893.50000    57.96312    16.35530    159.82800    282.50715    -54.61253
5894.00000    56.49907    12.80639    170.97738    295.42856    -54.34975
5894.50000    55.03501    10.39193    195.12655    308.34997    -54.08697
5895.00000    53.57095    9.07109    224.77720    321.27138    -53.82418
5895.50000    52.52341    8.90235    260.43809    334.00983    -53.56140
5896.00000    51.55204    9.07712    311.58164    341.06535    -53.29862
5896.50000    50.58068    9.25188    362.72519    348.12087    -53.03583
5897.00000    49.60932    9.42664    391.30394    355.17639    -52.77305
5897.50000    48.63796    9.60141    388.54313    362.23191    -52.41359
5898.00000    48.11159    9.77617    385.78231    369.28743    -51.42941
5898.50000    48.49723    9.95093    383.02150    376.34294    -50.44524
5899.00000    48.88287    10.23634    380.26068    383.39846    -49.46106
