~Version Information Block
 VERS.                2.00:     CWLS LOG ASCII STANDARD - VERSION 2.000000
 WRAP.                  NO:     One Line Per Depth Step
#
~Well Information Block
#MNEM.UNIT                     Data                         Information
#----------   ------------------------------------------   ----------------
 STRT.FT                                        4.0000:     START DEPTH
 STOP.FT                                    10300.0000:     STOP DEPTH
 STEP.FT                                        0.5000:     STEP
 NULL.                                       -999.2500:     NULL VALUE
 COMP.                            MONSANTO OIL COMPANY:     COMPANY
 WELL.                               UNIVERSITY_6-46-1:     WELL
 FLD .                                         WILDCAT:     FIELD
 LOC .                                                :     LOCATION
 CNTY.                                       CULBERSON:     COUNTY
 STAT.                                           TEXAS:     STATE
 CTRY.                                             USA:     COUNTRY
 SRVC.                                                :     SERVICE COMPANY
 DATE.                                      10/31/2016:     DATE
 API .                                  42109315500000:     API NUMBER
 UWI .                                  42109315500000:     UWI NUMBER
 TVD .                                              NO:     TVD flag
 WSTA.                                             LOC:     Well status
#
~Curve Information Block
#MNEM.UNIT       API CODE      Curve Description
#----------    -------------   -------------------
 DEPT.FT                   :   Depth in Feet
 CALI.IN                   :   Caliper
 GR  .GAPI                 :   Gamma Ray
 DPHI.V/V                  :   Density Porosity
 NPHI.V/V                  :   Neutron Porosity
 DRHO.G/C3                 :   Delta Rho
 RHOB.G/C3                 :   Bulk Density
#
~Parameter Information Block
#MNEM.UNIT            Value               Description
#----------    --------------------    -------------------
 RUN .                         ONE:    Run Number
 PDAT.                          GL:    Permanent Datum
 EPD .FT                          :    Elevation Of Perm. Datum
 LMF .               KELLY BUSHING:    Log Measured From
 EKB .FT                          :    Elevation Of Kelly Bushing
 DF .FT                           :    Elevation Of Derrick Floor
 GL .FT                           :    Elevation Of Ground Level
 TD  .FT                          :    Total Depth
 CSGD.FT                          :    Casing Bottom (Driller) 1
 CSGL.FT                          :    Casing Bottom (Logger) 1
 MUD .                            :    Drilling Fluid Type
 MUDV .CP                         :    Drilling Fluid Viscosity
 MUDD .LB/USG                     :    Drilling Fluid Density
 FL .ML/30MIN                     :    Drilling Fluid Loss
 PH.                              :    Drilling Fluid Ph
 MUDS .                           :    Mud Sample Source
 RM .OHMM                         :    Resistivity Of Mud Sample
 RMT .DEGF                        :    Mud Sample Temperature
 RMF .OHMM                        :    Mud Filtrate Resistivity
 RMFT.DEGF                        :    Mud Filtrate Sample Temperature
 RMC .OHMM                        :    Mud Cake Resistivity
 RMCT.DEGF                        :    Mud Cake Sample Temperature
 RMB .OHMM                        :    Mud Resistivity At Bht
 TMAX .DEGF                       :    Bottom Hole Temperature   
#
~Other Information Block
<DescLogPlotStart>   NEURALOG PLOT DEFINITION
PLOTDEFVERSION: 3
LASFILE: E:\nds\projects\Texas Standard Oil LLC\pdf\Pradeep+Ekta\42109315500000
DEPTHSCALE: 240.000000
RESOLUTION: 200
DEPTHLABELFREQ: 100.000000
HEAVYGRIDFREQ: 100.000000
MEDIUMGRIDFREQ: 50.000000
LIGHTGRIDFREQ: 10.000000
#
#   TRACK 1
#
STARTTRACK: 
 LEFTX: 0.500000 inch
 RIGHTX: 3.000000 inch
 SCALETYPE: Linear
 NUMCHARTDIVISIONS: 10
CURVE: CALI  6.000000   16.000000  (0,0,255)      Solid             2     N    
CURVE: GR    0.000000   100.000000 (0,131,131)    Dot               2     Y    
BACKUP: 100.000000 200.000000 (0,131,131)    Dot               2    
ENDTRACK: 
#
#   TRACK 2
#
STARTTRACK: 
 LEFTX: 3.500000 inch
 RIGHTX: 8.500000 inch
 SCALETYPE: Linear
 NUMCHARTDIVISIONS: 10
CURVE: DPHI  0.300000   -0.100000  (255,0,255)    Solid             2     Y    
BACKUP: 0.700000   0.300000   (255,0,255)    Solid             2    
CURVE: NPHI  0.300000   -0.100000  (255,0,0)      Dot               2     Y    
BACKUP: 0.700000   0.300000   (255,0,0)      Dot               2    
CURVE: DRHO  -0.050000  0.950000   (255,131,0)    Short_Dash        2     N    
ENDTRACK: 
#
#   TRACK 3
#
STARTTRACK: 
 LEFTX: 8.500000 inch
 RIGHTX: 13.500000 inch
 SCALETYPE: Linear
 NUMCHARTDIVISIONS: 10
CURVE: RHOB  2.000000   3.000000   (255,255,0)    Solid             2     Y    
BACKUP: 1.000000   2.000000   (255,255,0)    Solid             2    
ENDTRACK: 
<DescLogPlotEnd>
~A DEPTH     CALI             GR               DPHI             NPHI             DRHO             RHOB            
# ...
     704.000 14.89811416      34.63524449      0.20060241       0.24844521       0.03541526       2.36371015      
     704.500 14.91100380      37.45231252      0.20461847       0.24357430       0.03733051       2.36073541      
     705.000 14.90470746      45.24791458      0.20702811       0.24839357       0.02678077       2.35724457      
     705.500 14.89616885      54.53010033      0.19337349       0.25071245       0.01814777       2.37186637      
     706.000 14.88859302      63.27970933      0.16004016       0.24542628       0.01753016       2.40687518      
     706.500 14.88175086      69.46059863      0.12831325       0.23904554       0.02316268       2.44693428      
     707.000 14.87490722      70.01224894      0.11144578       0.23729240       0.03982299       2.49304975      
     707.500 14.87226434      62.88428463      0.10983936       0.24442409       0.05406542       2.51874879      
     708.000 14.87221447      54.79078120      0.12710843       0.24437751       0.06870115       2.48997816      
     708.500 14.87250651      45.61561665      0.16299781       0.24528715       0.06059513       2.45540890      
     709.000 14.88643871      39.05919215      0.19766484       0.24919679       0.04958636       2.40699299      
     709.500 14.91721037      34.84472891      0.21345382       0.25522088       0.03585836       2.36159700      
     710.000 14.94225555      32.79454463      0.20408835       0.26056799       0.03656009       2.33660584      
     710.500 14.96459111      32.63208172      0.17805080       0.25822490       0.04980585       2.33858675      
     711.000 14.93089922      34.21596688      0.16112383       0.24598394       0.06258980       2.38788528      
     711.500 14.90386388      36.44915697      0.16084337       0.24236948       0.07907634       2.43361534      
     712.000 14.91897773      37.39842086      0.17229719       0.24116466       0.06737942       2.43499505      
     712.500 14.95023891      36.58938200      0.19114717       0.25899849       0.04652277       2.40033078      
     713.000 14.91356802      35.63102130      0.19692429       0.26485944       0.03834128       2.36672290      
     713.500 14.91297867      34.60769727      0.18345061       0.26084337       0.04876724       2.36661321      
     714.000 14.93989637      33.84656941      0.16726908       0.25156152       0.05024189       2.40406285      
     714.500 14.99851241      34.53563170      0.17289157       0.24797717       0.05182540       2.42342198      
     715.000 15.05991605      36.96196983      0.18614458       0.24732361       0.05145795       2.40290864      
     715.500 14.99654338      41.63707383      0.19225631       0.25120482       0.02491899       2.38044671      
     716.000 14.91022197      47.67128055      0.18612351       0.25015491       0.01639874       2.38837067      
     716.500 14.91185967      48.90205988      0.17443384       0.24869048       0.02656468       2.39609055      
     717.000 14.91213044      49.74618542      0.16767068       0.24959839       0.03485794       2.40713420      
     717.500 14.91904731      43.20787931      0.16807229       0.24437751       0.04991683       2.41557619      
     718.000 14.95387520      39.97199869      0.17854618       0.22908434       0.04789708       2.41008287      
     718.500 14.98676611      38.53078635      0.19019216       0.22188755       0.04131657       2.39829895      
     719.000 15.03278663      38.42827386      0.20485489       0.23201168       0.03093111       2.37495861      
     719.500 15.08178465      38.58705625      0.22642372       0.24505842       0.02128453       2.35346015      
     720.000 15.04616735      38.52268636      0.22811599       0.25486446       0.02027326       2.34394459      
     720.500 14.98386024      38.71968950      0.22629615       0.26204819       0.02079173       2.33091236      
     721.000 14.92520244      38.13341482      0.22385194       0.24660174       0.02070640       2.32262458      
     721.500 14.89214736      37.03507594      0.22071859       0.23397590       0.01981222       2.32705918      
     722.000 14.87205274      36.32626336      0.21867470       0.22710843       0.01977848       2.33111772      
     722.500 14.87617230      37.05961625      0.21907631       0.23598394       0.01979962       2.33390793      
     723.000 14.89518547      39.39900873      0.22148594       0.24670806       0.01867221       2.33194365      
     723.500 14.91247830      40.64578592      0.22349398       0.25481928       0.01621330       2.32982211      
     724.000 14.92147966      41.46425393      0.22096546       0.25668699       0.01393882       2.33073888      
     724.500 14.93103576      43.77545222      0.21546185       0.24562182       0.01176797       2.33587856      
     725.000 14.89463010      47.53232143      0.21064257       0.22871486       0.00682882       2.34389870      
     725.500 14.84312086      52.59343008      0.20261044       0.22389558       0.00566531       2.35758038      
     726.000 14.80789116      55.79513531      0.18892691       0.22262651       0.01334448       2.38025563      
     726.500 14.77657513      56.22191968      0.17369478       0.22349398       0.02531455       2.42273410      
     727.000 14.75551471      52.58899363      0.16767068       0.22718015       0.03643679       2.42022653      
     727.500 14.77450445      48.14747020      0.17851406       0.23450229       0.03733580       2.41302056      
     728.000 14.79255823      43.41971464      0.19449264       0.23646854       0.03261000       2.38436794      
     728.500 14.81077004      41.57588324      0.20952744       0.23692414       0.02412786       2.35359414      
     729.000 14.83296798      42.78058610      0.21867470       0.23212115       0.01131408       2.33412562      
     729.500 14.84559887      46.58135461      0.21546185       0.22160332       0.00141779       2.34757275      
     730.000 14.78941330      50.57805208      0.19550566       0.20986126       0.01787130       2.39833701      
     730.500 14.73286466      52.52939982      0.17463089       0.20020080       0.04060686       2.44186460      
     731.000 14.67214650      50.23145150      0.16098715       0.19979920       0.06148217       2.44139938      
     731.500 14.61414408      46.38998687      0.15763052       0.21465863       0.06677265       2.42934316      
     732.000 14.61226306      42.18624840      0.17048193       0.22469880       0.05972141       2.41889600      
     732.500 14.61278388      39.43470914      0.18413662       0.21592369       0.04382041       2.40570604      
     733.000 14.62268592      37.11976059      0.19246926       0.20943775       0.03677157       2.38620753      
     733.500 14.66447947      37.58663834      0.19793480       0.19885688       0.03369659       2.37417339      
     734.000 14.68678876      39.51365333      0.19990201       0.20519387       0.03448832       2.36794158      
     734.500 14.65744527      41.02887663      0.20060241       0.21184739       0.03675842       2.36587792      
     735.000 14.61176144      42.47082607      0.19899598       0.21867470       0.04035787       2.36585038      
     735.500 14.58912835      44.17637707      0.19859438       0.22771943       0.03967311       2.36684844      
     736.000 14.58207460      45.84860187      0.19939759       0.23313347       0.04158372       2.36675301      
     736.500 14.57493295      47.02775001      0.19939759       0.23537167       0.04644556       2.36933453      
     737.000 14.59272807      47.58426447      0.19176707       0.23222042       0.05586719       2.37842190      
     737.500 14.62331778      47.25325891      0.18212851       0.22325552       0.06469904       2.38661563      
     738.000 14.63263969      45.70882158      0.18052209       0.21606908       0.06582276       2.39606373      
     738.500 14.63285834      43.66821202      0.18373494       0.21483896       0.05118058       2.39556486      
