~Version Information Block
 VERS.                2.00:     CWLS LOG ASCII STANDARD - VERSION 2.000000
 WRAP.                  NO:     One Line Per Depth Step
#
~Well Information Block
#MNEM.UNIT                     Data                         Information
#----------   ------------------------------------------   ----------------
 STRT.FT                                        4.0000:     START DEPTH
 STOP.FT                                    10300.0000:     STOP DEPTH
 STEP.FT                                        0.5000:     STEP
 NULL.                                       -999.2500:     NULL VALUE
 COMP.                            MONSANTO OIL COMPANY:     COMPANY
 WELL.                               UNIVERSITY_6-46-1:     WELL
 FLD .                                         WILDCAT:     FIELD
 LOC .                                                :     LOCATION
 CNTY.                                       CULBERSON:     COUNTY
 STAT.                                           TEXAS:     STATE
 CTRY.                                             USA:     COUNTRY
 SRVC.                                                :     SERVICE COMPANY
 DATE.                                      10/31/2016:     DATE
 API .                                  42109315500000:     API NUMBER
 UWI .                                  42109315500000:     UWI NUMBER
 TVD .                                              NO:     TVD flag
 WSTA.                                             LOC:     Well status
#
~Curve Information Block
#MNEM.UNIT       API CODE      Curve Description
#----------    -------------   -------------------
 DEPT.FT                   :   Depth in Feet
 CALI.IN                   :   Caliper
 GR  .GAPI                 :   Gamma Ray
 DPHI.V/V                  :   Density Porosity
 NPHI.V/V                  :   Neutron Porosity
 DRHO.G/C3                 :   Delta Rho
 RHOB.G/C3                 :   Bulk Density
#
~Parameter Information Block
#MNEM.UNIT            Value               Description
#----------    --------------------    -------------------
 RUN .                         ONE:    Run Number
 PDAT.                          GL:    Permanent Datum
 EPD .FT                          :    Elevation Of Perm. Datum
 LMF .               KELLY BUSHING:    Log Measured From
 EKB .FT                          :    Elevation Of Kelly Bushing
 DF .FT                           :    Elevation Of Derrick Floor
 GL .FT                           :    Elevation Of Ground Level
 TD  .FT                          :    Total Depth
 CSGD.FT                          :    Casing Bottom (Driller) 1
 CSGL.FT                          :    Casing Bottom (Logger) 1
 MUD .                            :    Drilling Fluid Type
 MUDV .CP                         :    Drilling Fluid Viscosity
 MUDD .LB/USG                     :    Drilling Fluid Density
 FL .ML/30MIN                     :    Drilling Fluid Loss
 PH.                              :    Drilling Fluid Ph
 MUDS .                           :    Mud Sample Source
 RM .OHMM                         :    Resistivity Of Mud Sample
 RMT .DEGF                        :    Mud Sample Temperature
 RMF .OHMM                        :    Mud Filtrate Resistivity
 RMFT.DEGF                        :    Mud Filtrate Sample Temperature
 RMC .OHMM                        :    Mud Cake Resistivity
 RMCT.DEGF                        :    Mud Cake Sample Temperature
 RMB .OHMM                        :    Mud Resistivity At Bht
 TMAX .DEGF                       :    Bottom Hole Temperature   
#
~Other Information Block
<DescLogPlotStart>   NEURALOG PLOT DEFINITION
PLOTDEFVERSION: 3
LASFILE: E:\nds\projects\Texas Standard Oil LLC\pdf\Pradeep+Ekta\42109315500000
DEPTHSCALE: 240.000000
RESOLUTION: 200
DEPTHLABELFREQ: 100.000000
HEAVYGRIDFREQ: 100.000000
MEDIUMGRIDFREQ: 50.000000
LIGHTGRIDFREQ: 10.000000
#
#   TRACK 1
#
STARTTRACK: 
 LEFTX: 0.500000 inch
 RIGHTX: 3.000000 inch
 SCALETYPE: Linear
 NUMCHARTDIVISIONS: 10
CURVE: CALI  6.000000   16.000000  (0,0,255)      Solid             2     N    
CURVE: GR    0.000000   100.000000 (0,131,131)    Dot               2     Y    
BACKUP: 100.000000 200.000000 (0,131,131)    Dot               2    
ENDTRACK: 
#
#   TRACK 2
#
STARTTRACK: 
 LEFTX: 3.500000 inch
 RIGHTX: 8.500000 inch
 SCALETYPE: Linear
 NUMCHARTDIVISIONS: 10
CURVE: DPHI  0.300000   -0.100000  (255,0,255)    Solid             2     Y    
BACKUP: 0.700000   0.300000   (255,0,255)    Solid             2    
CURVE: NPHI  0.300000   -0.100000  (255,0,0)      Dot               2     Y    
BACKUP: 0.700000   0.300000   (255,0,0)      Dot               2    
CURVE: DRHO  -0.050000  0.950000   (255,131,0)    Short_Dash        2     N    
ENDTRACK: 
#
#   TRACK 3
#
STARTTRACK: 
 LEFTX: 8.500000 inch
 RIGHTX: 13.500000 inch
 SCALETYPE: Linear
 NUMCHARTDIVISIONS: 10
CURVE: RHOB  2.000000   3.000000   (255,255,0)    Solid             2     Y    
BACKUP: 1.000000   2.000000   (255,255,0)    Solid             2    
ENDTRACK: 
<DescLogPlotEnd>
~A DEPTH     CALI             GR               DPHI             NPHI             DRHO             RHOB            
# ...
    3434.000 9.17476727       89.37359663      0.09705057       0.17416863       0.01571434       2.55365562      
    3434.500 9.17217012       56.71135089      0.07914258       0.15011064       0.01549086       2.57753617      
    3435.000 9.16951422       46.61323418      0.05538265       0.12771354       0.03027372       2.60421205      
    3435.500 9.16685579       40.69673595      0.03160655       0.08157874       0.04613289       2.64455741      
    3436.000 9.16420373       46.24062698      0.00970156       0.05145436       0.04750752       2.67736063      
    3436.500 9.16155167       56.70393345      0.02027980       0.06474490       0.05609505       2.68473534      
    3437.000 9.15889962       67.30941556      0.03116840       0.07101247       0.05814220       2.64968433      
    3437.500 9.15624756       77.88995089      0.04634291       0.09697664       0.05116828       2.63002586      
    3438.000 9.15359550       86.67975986      0.06433858       0.12294082       0.04002913       2.60705899      
    3438.500 9.15094345       89.67272702      0.07818706       0.13683450       0.03958926       2.58910165      
    3439.000 9.14829139       90.87540870      0.08029481       0.13891675       0.03901941       2.57830753      
    3439.500 9.14563933       89.53686903      0.07682491       0.13971916       0.03823810       2.58195663      
    3440.000 9.14298527       89.44242260      0.07727406       0.14107991       0.03669487       2.58196425      
    3440.500 9.14033335       90.35767560      0.07793874       0.14298729       0.03515310       2.58000126      
    3441.000 9.13768691       91.79170200      0.08194584       0.14330801       0.03361344       2.57766503      
    3441.500 9.13625696       91.04772640      0.08575125       0.13811166       0.03240663       2.57001791      
    3442.000 9.13624388       88.76934974      0.08645947       0.13520539       0.03185456       2.56382015      
    3442.500 9.13641798       86.91806189      0.08897886       0.13267957       0.02733593       2.56079221      
    3443.000 9.14143328       86.47204780      0.09199288       0.13130222       0.01954742       2.55991010      
    3443.500 9.15082945       85.16077301      0.08825333       0.12968907       0.02937390       2.56764432      
    3444.000 9.13691311       82.72298236      0.08114343       0.12848546       0.04235423       2.57333267      
    3444.500 9.13614573       80.98244916      0.07338415       0.12627482       0.04733333       2.58256447      
    3445.000 9.13624181       81.13671567      0.07339699       0.12690329       0.04759726       2.57387709      
    3445.500 9.13627255       83.50920490      0.08595787       0.13202944       0.04494020       2.56651924      
    3446.000 9.13627255       84.86929301      0.09321866       0.14039504       0.04109809       2.55486333      
    3446.500 9.13628002       80.54700270      0.09347392       0.14868124       0.04089782       2.55781071      
    3447.000 9.13629748       71.59869373      0.08716148       0.15215647       0.04110046       2.56922747      
    3447.500 9.13623608       61.90298534      0.07632899       0.14100848       0.04260086       2.58346453      
    3448.000 9.13231431       52.73691527      0.06844132       0.11631732       0.03499536       2.59661168      
    3448.500 9.11933935       49.43228713      0.06367636       0.09688781       0.03407875       2.60704333      
    3449.000 9.11761659       46.81982223      0.05697492       0.09397048       0.03239347       2.62263891      
    3449.500 9.10208337       45.13028673      0.04268004       0.09118601       0.03335116       2.63707965      
    3450.000 9.11061648       42.87866454      0.02838516       0.07919934       0.03427518       2.64516211      
    3450.500 9.11956874       40.66008710      0.01534604       0.06527200       0.03521204       2.65339828      
    3451.000 9.12873962       39.49560201      0.02118408       0.05242260       0.03613658       2.66096677      
    3451.500 9.13785607       39.81266597      0.03072824       0.03701103       0.03710193       2.66020423      
    3452.000 9.14697252       38.26337659      0.03822286       0.03861585       0.03920279       2.66540323      
    3452.500 9.15608896       32.98749850      0.03043615       0.02537795       0.04127200       2.67642352      
    3453.000 9.16520541       26.50943582      0.02143021       0.01414243       0.04333050       2.66763606      
    3453.500 9.17433783       23.25722316      0.01752399       0.01090815       0.04539119       2.67531186      
    3454.000 9.18342228       22.31626513      0.01473732       0.00972919       0.04745530       2.68790146      
    3454.500 9.19267194       21.17654453      0.01198199       0.01013039       0.04931263       2.69410228      
    3455.000 9.18886261       20.06084249      0.00817459       0.01053159       0.04957320       2.69587465      
    3455.500 9.17623022       20.34010619      0.00910699       0.01053159       0.04682346       2.68861421      
    3456.000 9.16367576       30.25951904      0.02101174       0.00972919       0.06992794       2.68913094      
    3456.500 9.16499908       57.57239479      0.02630633       0.01403009       0.08825695       2.66556956      
    3457.000 9.18527686       84.88527054      0.03935587       0.04535072       0.07203908       2.64527570      
    3457.500 9.20533271       114.62071201     0.06372208       0.08687396       0.06872155       2.47582009      
    3458.000 9.22546912       130.41683367     0.08804194       0.12839719       0.05950236       2.47699849      
    3458.500 9.24558056       146.21295532     0.11236181       0.16992043       0.05056382       2.47665048      
    3459.000 9.26569199       153.95738563     0.13610832       0.21144366       0.04358049       2.50243676      
    3459.500 9.28580343       143.04027553     0.14694082       0.25125376       0.04909600       2.54611457      
    3460.000 9.30591486       131.83130256     0.13184098       0.25687061       0.05820720       2.55510768      
    3460.500 9.32602630       89.90240182      0.09842436       0.19140622       0.06736268       2.57144009      
    3461.000 9.34613773       95.64730246      0.07552658       0.12958548       0.07405834       2.59985262      
    3461.500 9.36626425       109.73189381     0.06870612       0.11123370       0.06284332       2.52727353      
    3462.000 9.38631860       141.82135700     0.09220903       0.16036911       0.04907046       2.49863847      
    3462.500 9.40618349       169.38877756     0.11334504       0.19792154       0.03540366       2.48537429      
    3463.000 9.41849539       182.26452906     0.13448104       0.23547398       0.02292260       2.48026856      
    3463.500 9.45175969       174.23284068     0.15175527       0.24620350       0.02126448       2.45920134      
    3464.000 9.48429244       157.21442886     0.14493480       0.25036148       0.01631058       2.53866840      
    3464.500 9.51654290       105.48471944     0.11971795       0.21108981       0.03450271       2.54209550      
    3465.000 9.54878177       99.29859719      0.09037111       0.17290928       0.04406694       2.54539878      
    3465.500 9.58102460       95.89178357      0.09398195       0.15629236       0.03278708       2.52318383      
    3466.000 9.61329152       101.30260521     0.09513942       0.15224857       0.02908197       2.53485024      
    3466.500 9.64595591       102.34484658     0.10347600       0.16054804       0.01769271       2.53462742      
    3467.000 9.67632883       101.45192652     0.11043761       0.16379137       0.02691877       2.53379464      
    3467.500 9.73742647       99.52465325      0.10340646       0.15576730       0.02534676       2.54399082      
    3468.000 9.76020952       97.68682943      0.09441525       0.14424741       0.04342948       2.55201320      
    3468.500 9.82702835       95.76609322      0.08735072       0.13675961       0.04298708       2.55567174      
