~Version Information Block
 VERS.                2.00:     CWLS LOG ASCII STANDARD - VERSION 2.000000
 WRAP.                  NO:     One Line Per Depth Step
#
~Well Information Block
#MNEM.UNIT                     Data                         Information
#----------   ------------------------------------------   ----------------
 STRT.FT                                        4.0000:     START DEPTH
 STOP.FT                                    10300.0000:     STOP DEPTH
 STEP.FT                                        0.5000:     STEP
 NULL.                                       -999.2500:     NULL VALUE
 COMP.                            MONSANTO OIL COMPANY:     COMPANY
 WELL.                               UNIVERSITY_6-46-1:     WELL
 FLD .                                         WILDCAT:     FIELD
 LOC .                                                :     LOCATION
 CNTY.                                       CULBERSON:     COUNTY
 STAT.                                           TEXAS:     STATE
 CTRY.                                             USA:     COUNTRY
 SRVC.                                                :     SERVICE COMPANY
 DATE.                                      10/31/2016:     DATE
 API .                                  42109315500000:     API NUMBER
 UWI .                                  42109315500000:     UWI NUMBER
 TVD .                                              NO:     TVD flag
 WSTA.                                             LOC:     Well status
#
~Curve Information Block
#MNEM.UNIT       API CODE      Curve Description
#----------    -------------   -------------------
 DEPT.FT                   :   Depth in Feet
 CALI.IN                   :   Caliper
 GR  .GAPI                 :   Gamma Ray
 DPHI.V/V                  :   Density Porosity
 NPHI.V/V                  :   Neutron Porosity
 DRHO.G/C3                 :   Delta Rho
 RHOB.G/C3                 :   Bulk Density
#
~Parameter Information Block
#MNEM.UNIT            Value               Description
#----------    --------------------    -------------------
 RUN .                         ONE:    Run Number
 PDAT.                          GL:    Permanent Datum
 EPD .FT                          :    Elevation Of Perm. Datum
 LMF .               KELLY BUSHING:    Log Measured From
 EKB .FT                          :    Elevation Of Kelly Bushing
 DF .FT                           :    Elevation Of Derrick Floor
 GL .FT                           :    Elevation Of Ground Level
 TD  .FT                          :    Total Depth
 CSGD.FT                          :    Casing Bottom (Driller) 1
 CSGL.FT                          :    Casing Bottom (Logger) 1
 MUD .                            :    Drilling Fluid Type
 MUDV .CP                         :    Drilling Fluid Viscosity
 MUDD .LB/USG                     :    Drilling Fluid Density
 FL .ML/30MIN                     :    Drilling Fluid Loss
 PH.                              :    Drilling Fluid Ph
 MUDS .                           :    Mud Sample Source
 RM .OHMM                         :    Resistivity Of Mud Sample
 RMT .DEGF                        :    Mud Sample Temperature
 RMF .OHMM                        :    Mud Filtrate Resistivity
 RMFT.DEGF                        :    Mud Filtrate Sample Temperature
 RMC .OHMM                        :    Mud Cake Resistivity
 RMCT.DEGF                        :    Mud Cake Sample Temperature
 RMB .OHMM                        :    Mud Resistivity At Bht
 TMAX .DEGF                       :    Bottom Hole Temperature   
#
~Other Information Block
<DescLogPlotStart>   NEURALOG PLOT DEFINITION
PLOTDEFVERSION: 3
LASFILE: E:\nds\projects\Texas Standard Oil LLC\pdf\Pradeep+Ekta\42109315500000
DEPTHSCALE: 240.000000
RESOLUTION: 200
DEPTHLABELFREQ: 100.000000
HEAVYGRIDFREQ: 100.000000
MEDIUMGRIDFREQ: 50.000000
LIGHTGRIDFREQ: 10.000000
#
#   TRACK 1
#
STARTTRACK: 
 LEFTX: 0.500000 inch
 RIGHTX: 3.000000 inch
 SCALETYPE: Linear
 NUMCHARTDIVISIONS: 10
CURVE: CALI  6.000000   16.000000  (0,0,255)      Solid             2     N    
CURVE: GR    0.000000   100.000000 (0,131,131)    Dot               2     Y    
BACKUP: 100.000000 200.000000 (0,131,131)    Dot               2    
ENDTRACK: 
#
#   TRACK 2
#
STARTTRACK: 
 LEFTX: 3.500000 inch
 RIGHTX: 8.500000 inch
 SCALETYPE: Linear
 NUMCHARTDIVISIONS: 10
CURVE: DPHI  0.300000   -0.100000  (255,0,255)    Solid             2     Y    
BACKUP: 0.700000   0.300000   (255,0,255)    Solid             2    
CURVE: NPHI  0.300000   -0.100000  (255,0,0)      Dot               2     Y    
BACKUP: 0.700000   0.300000   (255,0,0)      Dot               2    
CURVE: DRHO  -0.050000  0.950000   (255,131,0)    Short_Dash        2     N    
ENDTRACK: 
#
#   TRACK 3
#
STARTTRACK: 
 LEFTX: 8.500000 inch
 RIGHTX: 13.500000 inch
 SCALETYPE: Linear
 NUMCHARTDIVISIONS: 10
CURVE: RHOB  2.000000   3.000000   (255,255,0)    Solid             2     Y    
BACKUP: 1.000000   2.000000   (255,255,0)    Solid             2    
ENDTRACK: 
<DescLogPlotEnd>
~A DEPTH     CALI             GR               DPHI             NPHI             DRHO             RHOB            
# ...
    7529.000 8.07701156       111.44388673     0.01293882       0.06790371       0.03372413       2.66599797      
    7529.500 8.07840750       112.44857299     0.00772317       0.08074223       0.02933613       2.68562577      
    7530.000 8.07980344       111.17177103     0.01406219       0.08422824       0.01799359       2.69496791      
    7530.500 8.08119939       109.49194204     0.02056169       0.08716148       0.01075993       2.69025764      
    7531.000 8.08259533       105.11870476     0.02026324       0.08034102       0.00673801       2.68489693      
    7531.500 8.08399127       101.57933798     0.00651921       0.07833501       0.00252101       2.68883713      
    7532.000 8.08538721       107.91145228     -0.00363723      0.08170010       0.00374371       2.69634561      
    7532.500 8.08678316       116.35960120     -0.00792377      0.08535072       0.02616172       2.71237007      
    7533.000 8.08817910       118.82332681     -0.00110331      0.09022277       0.02695840       2.72765945      
    7533.500 8.08957504       118.81731697     0.00972919       0.09199647       0.02599837       2.72827686      
    7534.000 8.09097332       115.37230044     0.01720762       0.08877834       0.02498371       2.70323504      
    7534.500 8.09236376       111.79954757     0.01815446       0.08475426       0.02476630       2.69201216      
    7535.000 8.09381158       111.24272035     0.01494483       0.07632899       0.04060379       2.68400340      
    7535.500 8.09251042       113.81161814     0.00812437       0.07231695       0.04408028       2.68966444      
    7536.000 8.09017975       114.01485241     0.00087596       0.07469609       0.05217021       2.69688967      
    7536.500 8.08780389       99.42851021      -0.00631896      0.07793380       0.04173187       2.70780069      
    7537.000 8.08543133       83.84387749      -0.02116349      0.07681444       0.02977685       2.72226851      
    7537.500 8.08306147       71.05550783      -0.04282849      0.07271815       0.01845233       2.74197895      
    7538.000 8.08069162       65.38631277      -0.06649950      0.06576730       0.01377659       2.77112264      
    7538.500 8.07832176       100.98256512     -0.07853561      0.06939991       0.05908552       2.79955090      
    7539.000 8.07595190       100.22712214     -0.06569709      0.07778883       0.06133926       2.82360475      
    7539.500 8.07358205       99.79373486      -0.04563691      0.08914120       0.06360877       2.84076511      
    7540.000 8.07121219       102.73092257     -0.03511535      0.07636911       0.06182721       2.80881407      
    7540.500 8.06884234       63.00951098      -0.02848495      0.05664794       0.05268294       2.78783701      
    7541.000 8.06647248       61.68100240      -0.02036108      0.04222668       0.04062309       2.76609045      
    7541.500 8.06410262       74.75289231      -0.00391174      0.02978937       0.03592096       2.74415128      
    7542.000 8.06173277       101.21337152     0.01687061       0.02457372       0.02906101       2.71123538      
    7542.500 8.05935271       100.67207587     0.03299900       0.03460381       0.02625270       2.69083058      
    7543.000 8.05696919       110.06423598     0.04022066       0.05943529       0.02039191       2.66216416      
    7543.500 8.05464265       112.61767773     0.03348445       0.06124919       0.02529922       2.62309988      
    7544.000 8.05919387       101.09140898     0.01935807       0.05307849       0.04950043       2.61818843      
    7544.500 8.07062742       101.59436262     0.01664861       0.04275131       0.08128060       2.69269596      
    7545.000 8.09619552       101.49067480     0.02577733       0.03754185       0.06092835       2.69050317      
    7545.500 8.11594130       116.35443081     0.04503511       0.05496555       0.05308846       2.68630472      
    7546.000 8.13775658       115.91728577     0.05346038       0.06830431       0.04210616       2.66029601      
    7546.500 8.15913905       115.74724272     0.04290378       0.07203049       0.01972956       2.64654443      
    7547.000 8.17405092       110.39876093     0.04104643       0.07121565       0.01876463       2.64302461      
    7547.500 8.17123175       105.90088633     0.05166411       0.05305918       0.02744778       2.64089916      
    7548.000 8.16879578       104.97535254     0.05020953       0.05065196       0.02698386       2.63722872      
    7548.500 8.16635891       103.99809165     0.04818151       0.04583751       0.02695054       2.62084223      
    7549.000 8.16393263       101.77284714     0.03967886       0.05185557       0.02690217       2.62310428      
    7549.500 8.16150622       101.67927604     0.03080380       0.05802307       0.02650383       2.63451646      
    7550.000 8.15907652       103.84192348     0.03007189       0.06108325       0.03079593       2.64064620      
    7550.500 8.15663970       105.86976455     0.02982462       0.06414343       0.04010010       2.64624020      
    7551.000 8.15435677       108.26565809     0.03059178       0.06750251       0.04584144       2.65292235      
    7551.500 8.15428839       97.86925316      0.02657974       0.07031093       0.05181549       2.65952834      
    7552.000 8.15414060       100.55984251     0.01849789       0.05393982       0.05342509       2.66458094      
    7552.500 8.15344770       100.47795152     0.01569267       0.04182548       0.05648155       2.67081815      
    7553.000 8.18452333       102.26209623     0.01076688       0.03981946       0.05876509       2.68458332      
    7553.500 8.21785904       113.71626429     0.02074096       0.05025075       0.06544341       2.69007541      
    7554.000 8.22784617       115.32835100     0.04405097       0.06004127       0.05841155       2.68112078      
    7554.500 8.24819161       104.33169851     0.06993351       0.07067904       0.04546656       2.65643451      
    7555.000 8.28385675       99.22171481      0.08190422       0.08064694       0.02977900       2.62852960      
    7555.500 8.31919951       90.54997833      0.08034102       0.08515547       0.02521761       2.59444168      
    7556.000 8.33883387       83.40351664      0.07912939       0.08742126       0.02695131       2.58015045      
    7556.500 8.35509949       82.51633748      0.07673019       0.08836510       0.02770377       2.57516965      
    7557.000 8.35475165       83.93518324      0.06869867       0.08139886       0.01974861       2.57805937      
    7557.500 8.35474642       87.90141345      0.05386158       0.06950853       0.01141889       2.59236472      
    7558.000 8.35481491       94.78821625      0.03779918       0.05802608       0.01165534       2.57714962      
    7558.500 8.35387389       98.75131834      0.02523202       0.05157850       0.01824268       2.61869067      
    7559.000 8.33586540       103.06142376     0.02431347       0.06255691       0.02628052       2.64010811      
    7559.500 8.35584952       99.68053018      0.02582277       0.06481376       0.03416159       2.66779838      
    7560.000 8.34627361       94.04245790      0.02577733       0.06629488       0.03322088       2.66522961      
    7560.500 8.33642331       88.73952357      0.02577733       0.06629890       0.03187359       2.66486468      
    7561.000 8.33579148       87.74464233      0.02720762       0.06108325       0.01163172       2.66421996      
    7561.500 8.32908341       88.41029193      0.02618756       0.05466399       0.00131696       2.66201370      
    7562.000 8.32734171       86.74574035      0.01693480       0.05363186       0.00048121       2.66190455      
    7562.500 8.31501898       84.82194431      0.00250752       0.05304956       0.01394874       2.67112091      
    7563.000 8.31456069       83.35459099      -0.00190572      0.05222490       0.03121633       2.68165971      
    7563.500 8.31467628       84.12208277      -0.00683852      0.05105316       0.07558681       2.70458536      
