~Version Information Block
 VERS.                2.00:     CWLS LOG ASCII STANDARD - VERSION 2.000000
 WRAP.                  NO:     One Line Per Depth Step
#
~Well Information Block
#MNEM.UNIT                     Data                         Information
#----------   ------------------------------------------   ----------------
 STRT.FT                                      250.0000:     START DEPTH
 STOP.FT                                    10290.0000:     STOP DEPTH
 STEP.FT                                        0.5000:     STEP
 NULL.                                       -999.2500:     NULL VALUE
 COMP.                                                :     COMPANY
 WELL.                                                :     WELL
 FLD .                                                :     FIELD
 LOC .                                                :     LOCATION
 CNTY.                                                :     COUNTY
 STAT.                                                :     STATE
 CTRY.                                                :     COUNTRY
 SRVC.                                                :     SERVICE COMPANY
 DATE.                                                :     DATE
 API .                                                4210931550:     API NUMBER
 UWI .                                                :     UWI NUMBER
 TVD .                                              NO:     TVD flag
 WSTA.                                             LOC:     Well status
#
~Curve Information Block
#MNEM.UNIT       API CODE      Curve Description
#----------    -------------   -------------------
 DEPT.FT                   :   Depth in Feet
 LLS .OHMM                 :   Latero-Log Shallow (Resistivity)
 LLD .OHMM                 :   Latero-Log Deep (Resistivity)
 SFLU.OHMM                 :   SFL Resistivity (Unaveraged)
 ILD .OHMM                 :   Deep Induction Standard Processed Resistivity
 ILM .OHMM                 :   Medium Induction Standard Processed Resistivity
#
~Parameter Information Block
#MNEM.UNIT            Value               Description
#----------    --------------------    -------------------
 RUN .                         ONE:    Run Number
 PDAT.                          GL:    Permanent Datum
 EPD .FT                          :    Elevation Of Perm. Datum
 LMF .               KELLY BUSHING:    Log Measured From
 EKB .FT                          :    Elevation Of Kelly Bushing
 DF .FT                           :    Elevation Of Derrick Floor
 GL .FT                           :    Elevation Of Ground Level
 TD  .FT                          :    Total Depth
 CSGD.FT                          :    Casing Bottom (Driller) 1
 CSGL.FT                          :    Casing Bottom (Logger) 1
 MUD .                            :    Drilling Fluid Type
 MUDV .CP                         :    Drilling Fluid Viscosity
 MUDD .LB/USG                     :    Drilling Fluid Density
 FL .ML/30MIN                     :    Drilling Fluid Loss
 PH.                              :    Drilling Fluid Ph
 MUDS .                           :    Mud Sample Source
 RM .OHMM                         :    Resistivity Of Mud Sample
 RMT .DEGF                        :    Mud Sample Temperature
 RMF .OHMM                        :    Mud Filtrate Resistivity
 RMFT.DEGF                        :    Mud Filtrate Sample Temperature
 RMC .OHMM                        :    Mud Cake Resistivity
 RMCT.DEGF                        :    Mud Cake Sample Temperature
 RMB .OHMM                        :    Mud Resistivity At Bht
 TMAX .DEGF                       :    Bottom Hole Temperature
#
~Other Information Block
<DescLogPlotStart>   NEURALOG PLOT DEFINITION
PLOTDEFVERSION: 3
LASFILE: E:\nds\projects\Texas Standard Oil LLC\pdf\Pradeep+Ekta\42109315500000
DEPTHSCALE: 240.000000
RESOLUTION: 200
DEPTHLABELFREQ: 100.000000
HEAVYGRIDFREQ: 100.000000
MEDIUMGRIDFREQ: 50.000000
LIGHTGRIDFREQ: 10.000000
#
#   TRACK 1
#
STARTTRACK: 
 LEFTX: 1.000000 inch
 RIGHTX: 6.000000 inch
 SCALETYPE: Log
 NUMCYCLES: 4
 STARTCYCLE: 2
CURVE: SFLU  0.200000   2000.000000 (0,0,255)      Solid             2     N   
CURVE: ILD   0.200000   2000.000000 (0,131,131)    Dot               2     N   
CURVE: ILM   0.200000   2000.000000 (255,0,255)    Short_Dash        2     N   
ENDTRACK: 
#
#   TRACK 2
#
STARTTRACK: 
 LEFTX: 1.000000 inch
 RIGHTX: 6.000000 inch
 SCALETYPE: Log
 NUMCYCLES: 4
 STARTCYCLE: 2
CURVE: LLS   0.200000   2000.000000 (255,0,0)      Solid             2     Y   
BACKUP: 2000.000000 20000000.000000 (255,0,0)      Solid             2    
CURVE: LLD   0.200000   2000.000000 (255,131,0)    Dot               2     Y   
BACKUP: 2000.000000 20000000.000000 (255,131,0)    Dot               2    
ENDTRACK: 
<DescLogPlotEnd>
~A DEPTH     LLS              LLD              SFLU             ILD              ILM             
# ...
    6400.000 -999.25000000    -999.25000000    727.29741135     1440.79672891    237.10781153    
    6400.500 -999.25000000    -999.25000000    850.97471413     1401.41449614    244.64251127    
    6401.000 -999.25000000    -999.25000000    1033.16435421    1388.52776839    251.37836046    
    6401.500 -999.25000000    -999.25000000    1197.73845022    1325.84998745    260.84110647    
    6402.000 -999.25000000    -999.25000000    1277.75104382    1186.72462857    260.84110647    
    6402.500 -999.25000000    -999.25000000    1453.94170515    1029.21336126    249.95037946    
    6403.000 -999.25000000    -999.25000000    1269.83884295    923.12666622     194.08451127    
    6403.500 -999.25000000    -999.25000000    874.56060557     834.41623876     155.48983823    
    6404.000 -999.25000000    -999.25000000    610.21566979     835.76175376     158.64234034    
    6404.500 -999.25000000    -999.25000000    249.06680702     777.46634796     197.95985925    
    6405.000 -999.25000000    -999.25000000    270.66006278     740.33180892     236.62415937    
    6405.500 -999.25000000    -999.25000000    521.52933529     720.60953724     251.37836046    
    6406.000 -999.25000000    -999.25000000    681.75414807     907.82242904     249.06680702    
    6406.500 -999.25000000    -999.25000000    657.02159563     761.67942158     225.81556914    
    6407.000 -999.25000000    -999.25000000    588.07837720     950.73851750     206.56015708    
    6407.500 -999.25000000    -999.25000000    406.40006335     1023.66387609    235.63636551    
    6408.000 -999.25000000    -999.25000000    421.69835940     1042.75300490    235.59059713    
    6408.500 -999.25000000    -999.25000000    1033.16435421    950.73851750     254.33584544    
    6409.000 -999.25000000    -999.25000000    1363.10872351    883.00832897     263.26193549    
    6409.500 -999.25000000    -999.25000000    1427.54786126    835.39636925     233.47027802    
    6410.000 -999.25000000    -999.25000000    943.73803827     835.39636925     190.53150858    
    6410.500 -999.25000000    -999.25000000    319.62506412     977.18909378     195.88578188    
    6411.000 -999.25000000    -999.25000000    316.68594711     1052.33352755    210.91098662    
    6411.500 -999.25000000    -999.25000000    316.68594711     1069.55961736    225.00048593    
    6412.000 -999.25000000    -999.25000000    551.25299058     377.44830385     240.03120690    
    6412.500 -999.25000000    -999.25000000    615.87899420     246.77650951     165.97283670    
    6413.000 -999.25000000    -999.25000000    511.98197306     258.44253821     124.56990840    
    6413.500 -999.25000000    -999.25000000    208.97155152     249.06680702     124.56990840    
    6414.000 -999.25000000    -999.25000000    158.38938916     328.60709528     149.84900628    
    6414.500 -999.25000000    -999.25000000    147.10579962     227.08868328     170.53847410    
    6415.000 -999.25000000    -999.25000000    394.74428692     565.48766018     192.29980427    
    6415.500 -999.25000000    -999.25000000    761.67942158     593.91885598     227.08868328    
    6416.000 -999.25000000    -999.25000000    1023.66387609    843.14956354     251.69894432    
    6416.500 -999.25000000    -999.25000000    1440.79672891    556.36909079     252.41403219    
    6417.000 -999.25000000    -999.25000000    1495.03327286    402.66300555     159.32204998    
    6417.500 -999.25000000    -999.25000000    1218.34902712    205.14601964     163.51669992    
    6418.000 -999.25000000    -999.25000000    783.95254621     129.25914817     83.50724146     
    6418.500 -999.25000000    -999.25000000    160.87100225     120.05078402     63.77174332     
    6419.000 -999.25000000    -999.25000000    74.22574570      118.89757725     52.79405631     
    6419.500 -999.25000000    -999.25000000    64.64851917      118.92366142     70.25332868     
    6420.000 -999.25000000    -999.25000000    64.05404275      111.86036498     79.85715745     
    6420.500 -999.25000000    -999.25000000    173.71864972     98.27047704      80.99052390     
    6421.000 -999.25000000    -999.25000000    169.35289251     98.30881556      86.08583588     
    6421.500 -999.25000000    -999.25000000    172.26104273     135.43831919     93.54918876     
    6422.000 -999.25000000    -999.25000000    171.99150512     152.60287031     105.48640583    
    6422.500 -999.25000000    -999.25000000    192.29980427     164.35171049     105.48640583    
    6423.000 -999.25000000    -999.25000000    156.93291719     170.53847410     96.17808688     
    6423.500 -999.25000000    -999.25000000    136.62604798     170.53847410     109.45727693    
    6424.000 -999.25000000    -999.25000000    222.42602744     172.12121730     125.72602392    
    6424.500 -999.25000000    -999.25000000    1042.75300490    176.95812877     137.89405480    
    6425.000 -999.25000000    -999.25000000    1363.10872351    180.25801713     144.41281141    
    6425.500 -999.25000000    -999.25000000    871.02978232     195.88578188     139.17382982    
    6426.000 -999.25000000    -999.25000000    390.09683160     225.00048593     153.98016772    
    6426.500 -999.25000000    -999.25000000    263.26193549     258.44253821     161.35371232    
    6427.000 -999.25000000    -999.25000000    240.03120690     334.16332378     164.35996974    
    6427.500 -999.25000000    -999.25000000    207.04995053     406.40006335     170.19746935    
    6428.000 -999.25000000    -999.25000000    212.86842134     398.96031193     172.12121730    
    6428.500 -999.25000000    -999.25000000    241.41951580     294.12538129     146.25888979    
    6429.000 -999.25000000    -999.25000000    284.03971721     141.76912230     112.42657654    
    6429.500 -999.25000000    -999.25000000    292.23749629     117.85307769     74.76539622     
    6430.000 -999.25000000    -999.25000000    289.89566165     76.34405635      49.72013418     
    6430.500 -999.25000000    -999.25000000    67.44392318      54.24127573      33.06465114     
    6431.000 -999.25000000    -999.25000000    46.51444582      45.09092797      27.63447762     
    6431.500 -999.25000000    -999.25000000    31.62554114      42.26734030      25.66580974     
    6432.000 -999.25000000    -999.25000000    31.64062574      41.11201964      24.96426950     
    6432.500 -999.25000000    -999.25000000    54.07303011      40.73397345      32.98729099     
    6433.000 -999.25000000    -999.25000000    92.98410826      43.45512753      40.36006156     
    6433.500 -999.25000000    -999.25000000    295.43040806     49.00016000      49.00016000     
    6434.000 -999.25000000    -999.25000000    918.80368368     53.74249927      53.74249927     
    6434.500 -999.25000000    -999.25000000    1701.45067632    134.12490704     112.53322054    
    6435.000 -999.25000000    -999.25000000    1747.30080869    260.47619238     132.89155947    
    6435.500 -999.25000000    -999.25000000    1997.49804989    479.61946999     183.61944131    
    6436.000 -999.25000000    -999.25000000    1795.72720523    1202.31387877    210.91098662    
    6436.500 -999.25000000    -999.25000000    1733.17907065    1670.30311695    256.06602602    
    6437.000 -999.25000000    -999.25000000    1624.64763702    1454.16855741    258.44253821    
    6437.500 -999.25000000    -999.25000000    1508.90846297    1242.82544465    258.44253821    
    6438.000 -999.25000000    -999.25000000    1388.52776839    1062.19810489    263.26193549    
    6438.500 -999.25000000    -999.25000000    1289.60966862    812.56193771     263.26193549    
    6439.000 -999.25000000    -999.25000000    1254.35992996    621.59487912     263.26193549    
    6439.500 -999.25000000    -999.25000000    1427.54786126    373.97747238     233.47027802    
    6440.000 -999.25000000    -999.25000000    1522.91242674    203.25959638     162.84041190    
    6440.500 -999.25000000    -999.25000000    633.01426813     132.89155947     91.83663315     
