###############################################
##         ENVERUS                           ##
##         ESS - Open Hole                   ##
##         PERMIAN / DELAWARE                ##
##         Nov 03 2023  V4.0                 ##
##         42-109-32599-00-00                ##
###############################################
## Copyright 2017-2023  ENVERUS.  All Rights Reserved. 
## Confidential - Property of ENVERUS, use governed by terms and 
## conditions found within the existing Information Services Subscription Agreement 
## (as may be amended, the “ISSA”) between Customer and ENVERUS. 
## 
~VERSION INFORMATION
# MNEM.UNIT                               DATA : DESCRIPTION OF MNEMONIC
#-----.-----     ----------------------------- : -----------------------------
VERS.                                     2.00 : CWLS LOG ASCII STANDARD - VERSION 2.00
WRAP.                                       NO : MULTIPLE LINES PER DEPTH STEP
VEND.                                  ENVERUS : VENDOR
TYPE.                          ESS - OPEN HOLE : ENVERUS ESSENTIAL CURVES – ACCESSIBLE THROUGH ENVERUS PRISM(TM)
DOC.                                  21933172 : ENVERUS HEADER RAW DOCUMENT ID
#___________________________________________________________________________________________________ 
~WELL INFORMATION 
# uOzh0bdZpl++Qd8K/evm6vwbqlxLNv7zXaBwNvlB7bYnaXF7FEkKOyKwz7AUW0q8cTh4whY6gpezG6wl1Vx46w== 
# MNEM.UNIT                                              DATA : DESCRIPTION OF MNEMONIC 
#-----.-----                    ----------------------------- : ----------------------------- 
CNTY.                                               CULBERSON : COUNTY 
STATE.                                                  TEXAS : STATE 
CNTRY.                                                    USA : COUNTRY 
API.                                             42-109-32599 : API (10 Digit) 
API_14.                                    42-109-32599-00-00 : API (14 Digits) 
API_14_std.                                 42-109-32599-0000 : API (14 Digits Standard) 
UWI.                                           42109325990000 : UNIQUE WELL ID 
WELL.                                           COMANCHE 46 6 : WELL NAME
STRT.FT                                                 190.0 : START DEPTH
STOP.FT                                                5230.0 : STOP DEPTH
STEP.FT                                                   0.5 : STEP BETWEEN DEPTHS
NULL.                                                 -999.25 : NULL VALUE
SRVC.                                             HALLIBURTON :  
DATE.                                  12/31/2013 12-00-00 AM : 
#___________________________________________________________________________________________________ 
~PARAMETER INFORMATION 
# MNEM.UNIT                                              DATA : DESCRIPTION OF MNEMONIC 
#-----.-----                    ----------------------------- : -----------------------------
#___________________________________________________________________________________________________ 
~CURVE INFORMATION 
# MNEM.UNIT           : CURVE DESCRIPTION 
#-----.-----          : ----------------------------- 
 DEPT.FT               : MEASURED DEPTH 
 CALI.IN               : CALIPER (CALD) 
 GR.API                : GAMMA RAY (GRD) 
 PE.B/E                : PHOTOELECTRIC EFFECT/FACTOR 
 RESS_LL.OHMM          : SHALLOW LATEROLOG (LLS) 
 RESD_LL.OHMM          : DEEP LATEROLOG (LLD) 
 DPHI_LS.V/V           : DENSITY POROSITY - LIMESTONE 
 NPHI_LS.V/V           : NEUTRON POROSITY - LIMESTONE 
 RHOB.G/CC             : BULK DENSITY 
 #___________________________________________________________________________________________________ 
~A         DEPT           CALI             GR             PE        RESS_LL        RESD_LL        DPHI_LS        NPHI_LS           RHOB
# ...
         2874.5          8.740         58.079         2.2487         3.6958         4.7757        0.18230        0.14180         2.4016
         2875.0          8.750         50.720         2.2082         4.7991         5.4195        0.20170        0.16740         2.3762
         2875.5          8.753         48.057         2.1981         6.6380         6.9853        0.21740        0.18150         2.3659
         2876.0          8.756         45.233         2.2385         8.4769        10.1389        0.20500        0.18670         2.3688
         2876.5          8.759         40.761         2.3703        10.3158        12.2691        0.18500        0.16600         2.4272
         2877.0          8.762         41.340         2.4236         9.1900        10.5180        0.16490        0.14530         2.4490
         2877.5          8.765         47.756         2.4918         7.3137         7.7256        0.16670        0.15320         2.4490
         2878.0          8.768         50.914         2.4136         5.4375         5.3065        0.19180        0.16640         2.4152
         2878.5          8.771         47.252         2.2554         3.5612         4.7931        0.21880        0.17970         2.3613
         2879.0          8.774         49.358         2.1742         3.8309         5.0492        0.21990        0.19070         2.3510
         2879.5          8.777         55.213         2.2082         4.4253         5.7104        0.19850        0.18750         2.3933
         2880.0          8.780         60.747         2.2757         5.0198         6.9893        0.17720        0.17880         2.4431
         2880.5          8.783         65.904         2.2893         5.0909         6.5032        0.15550        0.16830         2.4630
         2881.0          8.760         67.414         2.3254         4.0944         5.6931        0.15530        0.16540         2.4557
         2881.5          8.745         66.216         2.4513         3.6561         4.8829        0.17340        0.17650         2.4336
         2882.0          8.755         64.221         2.3585         4.2683         4.9132        0.19530        0.18930         2.4039
         2882.5          8.759         58.859         2.2070         5.8129         6.7321        0.21300        0.19710         2.3741
         2883.0          8.740         53.603         2.1474         7.3576         9.7600        0.21030        0.18310         2.3771
         2883.5          8.723         51.651         2.2139         7.6665         9.1258        0.16380        0.16870         2.4215
         2884.0          8.723         50.450         2.2868         5.4104         6.5543        0.15350        0.15440         2.4660
         2884.5          8.723         45.172         2.2476         3.5393         5.0414        0.15950        0.15470         2.4485
         2885.0          8.711         45.265         2.1959         3.1861         4.3416        0.18380        0.16260         2.4230
         2885.5          8.696         48.799         2.1919         3.2360         4.4673        0.19670        0.16730         2.3975
         2886.0          8.675         53.282         2.1880         3.5838         5.0465        0.19660        0.15770         2.3928
         2886.5          8.655         52.454         2.2487         3.9316         5.1623        0.18690        0.14970         2.4085
         2887.0          8.643         48.356         2.2487         3.5865         4.7931        0.18440        0.15160         2.4116
         2887.5          8.609         44.170         2.2150         3.5520         5.0052        0.19140        0.15380         2.3950
         2888.0          8.613         42.238         2.2294         3.6385         4.7665        0.20710        0.17050         2.3743
         2888.5          8.571         50.094         2.2082         3.7035         4.6761        0.21710        0.16850         2.3660
         2889.0          8.576         55.056         2.1837         3.9102         5.3466        0.20110        0.15630         2.3751
         2889.5          8.524         53.133         2.1493         4.3313         6.0254        0.19560        0.14830         2.3864
         2890.0          8.530         51.601         2.0913         4.7523         6.5298        0.19920        0.14400         2.3977
         2890.5          8.542         52.112         2.0739         5.1733         6.9248        0.20120        0.14130         2.4003
         2891.0          8.522         51.126         2.0717         5.1661         6.8952        0.18910        0.13710         2.4050
         2891.5          8.533         48.480         2.1272         4.7088         6.8186        0.18170        0.14290         2.4087
         2892.0          8.537         47.874         2.1067         5.1435         6.9462        0.18730        0.14460         2.4117
         2892.5          8.521         52.673         2.1144         7.7742         9.2249        0.19200        0.13810         2.4134
         2893.0          8.482         59.574         2.1778         9.8788        12.7329        0.17610        0.13560         2.4360
         2893.5          8.493         64.362         2.2545         8.1468        10.6263        0.14100        0.12470         2.4933
         2894.0          8.523         68.789         2.3628         5.2601         7.2462        0.13400        0.12340         2.4933
         2894.5          8.488         65.977         2.3249         3.9569         5.7349        0.14760        0.12350         2.4669
         2895.0          8.463         57.195         2.1789         4.2338         5.6992        0.16690        0.12520         2.4411
         2895.5          8.443         51.259         2.1047         5.1102         6.6839        0.17080        0.12660         2.4352
         2896.0          8.456         51.979         2.1642         5.9866         7.6686        0.14900        0.12530         2.4598
         2896.5          8.462         54.864         2.3859         5.7932         7.6214        0.13200        0.11890         2.4934
         2897.0          8.478         57.216         2.4078         4.8263         6.5036        0.14990        0.11780         2.4934
         2897.5          8.455         55.583         2.2112         3.8593         5.3859        0.17230        0.12470         2.4453
         2898.0          8.480         51.626         2.0372         4.0947         5.1305        0.17880        0.13160         2.4206
         2898.5          8.460         47.318         2.1028         4.6831         5.6392        0.17660        0.14390         2.4215
         2899.0          8.452         45.807         2.1827         5.2715         6.4152        0.17350        0.14880         2.4264
         2899.5          8.437         48.684         2.2487         5.3892         6.5712        0.17390        0.14520         2.4290
         2900.0          8.437         52.511         2.2634         5.1511         6.1876        0.17550        0.13970         2.4227
         2900.5          8.443         53.084         2.2652         4.8534         5.8247        0.18140        0.13410         2.4096
         2901.0          8.453         51.105         2.2141         4.7024         5.6681        0.18830        0.12940         2.4044
         2901.5          8.445         50.382         2.1287         4.9846         5.8518        0.18530        0.12810         2.4044
         2902.0          8.452         50.234         2.1471         5.0476         5.8734        0.17590        0.13270         2.4154
         2902.5          8.490         53.438         2.1428         4.7983         5.6759        0.16640        0.13840         2.4265
         2903.0          8.500         55.175         2.1113         4.5489         5.6075        0.16930        0.14240         2.4359
         2903.5          8.467         52.651         2.1813         4.4491         6.7693        0.17550        0.12960         2.4390
