~Version Information Block
 VERS.                2.00:     CWLS LOG ASCII STANDARD - VERSION 2.000000
 WRAP.                  NO:     One Line Per Depth Step
#
~Well Information Block
#MNEM.UNIT                     Data                         Information
#----------   ------------------------------------------   ----------------
 STRT.FT                                        4.0000:     START DEPTH
 STOP.FT                                    10300.0000:     STOP DEPTH
 STEP.FT                                        0.5000:     STEP
 NULL.                                       -999.2500:     NULL VALUE
 COMP.                            MONSANTO OIL COMPANY:     COMPANY
 WELL.                               UNIVERSITY_6-46-1:     WELL
 FLD .                                         WILDCAT:     FIELD
 LOC .                                                :     LOCATION
 CNTY.                                       CULBERSON:     COUNTY
 STAT.                                           TEXAS:     STATE
 CTRY.                                             USA:     COUNTRY
 SRVC.                                                :     SERVICE COMPANY
 DATE.                                      10/31/2016:     DATE
 API .                                  42109315500000:     API NUMBER
 UWI .                                  42109315500000:     UWI NUMBER
 TVD .                                              NO:     TVD flag
 WSTA.                                             LOC:     Well status
#
~Curve Information Block
#MNEM.UNIT       API CODE      Curve Description
#----------    -------------   -------------------
 DEPT.FT                   :   Depth in Feet
 CALI.IN                   :   Caliper
 GR  .GAPI                 :   Gamma Ray
 DPHI.V/V                  :   Density Porosity
 NPHI.V/V                  :   Neutron Porosity
 DRHO.G/C3                 :   Delta Rho
 RHOB.G/C3                 :   Bulk Density
#
~Parameter Information Block
#MNEM.UNIT            Value               Description
#----------    --------------------    -------------------
 RUN .                         ONE:    Run Number
 PDAT.                          GL:    Permanent Datum
 EPD .FT                          :    Elevation Of Perm. Datum
 LMF .               KELLY BUSHING:    Log Measured From
 EKB .FT                          :    Elevation Of Kelly Bushing
 DF .FT                           :    Elevation Of Derrick Floor
 GL .FT                           :    Elevation Of Ground Level
 TD  .FT                          :    Total Depth
 CSGD.FT                          :    Casing Bottom (Driller) 1
 CSGL.FT                          :    Casing Bottom (Logger) 1
 MUD .                            :    Drilling Fluid Type
 MUDV .CP                         :    Drilling Fluid Viscosity
 MUDD .LB/USG                     :    Drilling Fluid Density
 FL .ML/30MIN                     :    Drilling Fluid Loss
 PH.                              :    Drilling Fluid Ph
 MUDS .                           :    Mud Sample Source
 RM .OHMM                         :    Resistivity Of Mud Sample
 RMT .DEGF                        :    Mud Sample Temperature
 RMF .OHMM                        :    Mud Filtrate Resistivity
 RMFT.DEGF                        :    Mud Filtrate Sample Temperature
 RMC .OHMM                        :    Mud Cake Resistivity
 RMCT.DEGF                        :    Mud Cake Sample Temperature
 RMB .OHMM                        :    Mud Resistivity At Bht
 TMAX .DEGF                       :    Bottom Hole Temperature   
#
~Other Information Block
<DescLogPlotStart>   NEURALOG PLOT DEFINITION
PLOTDEFVERSION: 3
LASFILE: E:\nds\projects\Texas Standard Oil LLC\pdf\Pradeep+Ekta\42109315500000
DEPTHSCALE: 240.000000
RESOLUTION: 200
DEPTHLABELFREQ: 100.000000
HEAVYGRIDFREQ: 100.000000
MEDIUMGRIDFREQ: 50.000000
LIGHTGRIDFREQ: 10.000000
#
#   TRACK 1
#
STARTTRACK: 
 LEFTX: 0.500000 inch
 RIGHTX: 3.000000 inch
 SCALETYPE: Linear
 NUMCHARTDIVISIONS: 10
CURVE: CALI  6.000000   16.000000  (0,0,255)      Solid             2     N    
CURVE: GR    0.000000   100.000000 (0,131,131)    Dot               2     Y    
BACKUP: 100.000000 200.000000 (0,131,131)    Dot               2    
ENDTRACK: 
#
#   TRACK 2
#
STARTTRACK: 
 LEFTX: 3.500000 inch
 RIGHTX: 8.500000 inch
 SCALETYPE: Linear
 NUMCHARTDIVISIONS: 10
CURVE: DPHI  0.300000   -0.100000  (255,0,255)    Solid             2     Y    
BACKUP: 0.700000   0.300000   (255,0,255)    Solid             2    
CURVE: NPHI  0.300000   -0.100000  (255,0,0)      Dot               2     Y    
BACKUP: 0.700000   0.300000   (255,0,0)      Dot               2    
CURVE: DRHO  -0.050000  0.950000   (255,131,0)    Short_Dash        2     N    
ENDTRACK: 
#
#   TRACK 3
#
STARTTRACK: 
 LEFTX: 8.500000 inch
 RIGHTX: 13.500000 inch
 SCALETYPE: Linear
 NUMCHARTDIVISIONS: 10
CURVE: RHOB  2.000000   3.000000   (255,255,0)    Solid             2     Y    
BACKUP: 1.000000   2.000000   (255,255,0)    Solid             2    
ENDTRACK: 
<DescLogPlotEnd>
~A DEPTH     CALI             GR               DPHI             NPHI             DRHO             RHOB            
# ...
    4099.000 8.60754278       118.00056524     0.09301130       0.16305242       0.05658966       2.54114495      
    4099.500 8.60135921       121.87411741     0.10367775       0.15786117       0.04955156       2.54164334      
    4100.000 8.59517563       127.23816202     0.11825329       0.16852052       0.04204465       2.51781164      
    4100.500 8.58899563       124.74088500     0.12086259       0.17742935       0.03443025       2.51502237      
    4101.000 8.58281911       101.70870394     0.10962889       0.18761035       0.03455206       2.51928176      
    4101.500 8.57662360       86.93748857      0.08956871       0.16792721       0.03667306       2.53097023      
    4102.000 8.56639726       70.20105168      0.05253188       0.13627798       0.04403706       2.54442526      
    4102.500 8.55511494       67.04841021      0.02096289       0.10473993       0.05894407       2.54687638      
    4103.000 8.57204012       75.59922255      0.03511468       0.08836510       0.06012920       2.67631290      
    4103.500 8.56107788       84.77420430      0.05217603       0.09077232       0.06245318       2.67194067      
    4104.000 8.55529849       84.61553410      0.06833052       0.10598596       0.04363204       2.61196198      
    4104.500 8.55505520       79.84019258      0.07526112       0.12246740       0.03131728       2.58071338      
    4105.000 8.55378069       67.97477250      0.07183388       0.12487462       0.02987004       2.59901664      
    4105.500 8.57557879       59.28830028      0.05787362       0.11685055       0.01388413       2.61536861      
    4106.000 8.56578971       66.73829127      0.04469274       0.11109729       0.01552777       2.60942714      
    4106.500 8.55476906       77.28685571      0.04182548       0.11163490       0.02123258       2.62022136      
    4107.000 8.55504213       87.63616617      0.04984955       0.13052859       0.02677895       2.63059043      
    4107.500 8.57272991       92.31896600      0.06108325       0.15857573       0.02792979       2.62173715      
    4108.000 8.55573315       81.95219653      0.07004614       0.15494082       0.03036819       2.61369076      
    4108.500 8.55488844       76.60154809      0.07071214       0.13777733       0.03591340       2.59956662      
    4109.000 8.57213025       74.61319747      0.06308927       0.11725176       0.03703116       2.59142533      
    4109.500 8.57538097       94.37628841      0.06068205       0.10295927       0.03937675       2.59290315      
    4110.000 8.56720807       103.32224928     0.06902708       0.11737469       0.03805121       2.60369483      
    4110.500 8.55746918       112.71488341     0.07822568       0.13994225       0.03162271       2.56740986      
    4111.000 8.55511647       112.78265882     0.07913741       0.16201103       0.02606077       2.56922642      
    4111.500 8.55496015       110.15914009     0.07913741       0.17301906       0.02824448       2.57146508      
    4112.000 8.56471863       102.90709752     0.08154463       0.17431805       0.03031523       2.57312418      
    4112.500 8.56985655       95.22455461      0.08114343       0.16740221       0.03229725       2.57304266      
    4113.000 8.55543271       95.37543202      0.07592778       0.16058175       0.03452521       2.57502103      
    4113.500 8.55495847       100.39965166     0.07392177       0.16178536       0.04115816       2.57804735      
    4114.000 8.55525708       102.64290593     0.08544754       0.16198023       0.04707112       2.57915130      
    4114.500 8.56642842       104.13928683     0.09489013       0.15452045       0.03151872       2.57669858      
    4115.000 8.57484681       101.84969447     0.09647218       0.13317062       0.02671767       2.54298041      
    4115.500 8.57405670       102.06172509     0.08416741       0.12126379       0.01260681       2.54392374      
    4116.000 8.57313580       115.51278148     0.07229609       0.12028606       0.01414465       2.58417106      
    4116.500 8.57230025       129.74249502     0.06589769       0.13172116       0.02478601       2.59558595      
    4117.000 8.57147682       143.11719462     0.07231695       0.17055968       0.03000485       2.59712026      
    4117.500 8.57065340       141.91160630     0.08395186       0.19388164       0.03706703       2.59363941      
    4118.000 8.56982998       145.27653990     0.09329990       0.19471615       0.04025237       2.58974371      
    4118.500 8.56900656       139.12243448     0.09839519       0.19267202       0.04103091       2.54747676      
    4119.000 8.56818314       132.77761224     0.10080241       0.18621464       0.03724465       2.54150067      
    4119.500 8.56735972       129.11889008     0.10481444       0.17783350       0.03695993       2.53806352      
    4120.000 8.56653630       131.97223922     0.10973778       0.17683049       0.03477180       2.53098527      
    4120.500 8.56571288       141.07251049     0.11645422       0.17590134       0.02961132       2.51814378      
    4121.000 8.56488946       149.95273250     0.12527583       0.17552859       0.02456595       2.49876318      
    4121.500 8.56406604       158.91591520     0.13049147       0.17382146       0.01949635       2.48902692      
    4122.000 8.56324261       167.96826742     0.12721123       0.17637713       0.02802943       2.49373877      
    4122.500 8.56241919       170.04008016     0.12086259       0.18224674       0.02994327       2.49500590      
    4123.000 8.56159577       145.99198397     0.11404213       0.18826479       0.04788375       2.50118130      
    4123.500 8.56077235       109.01152305     0.09919759       0.15897693       0.06693423       2.51726150      
    4124.000 8.55994893       92.18997996      0.07024496       0.10032988       0.06741621       2.53932439      
    4124.500 8.55912551       49.85571142      0.03435908       0.05185557       0.06718307       2.60221090      
    4125.000 8.55830209       32.36472946      0.01735206       0.05586760       0.06731911       2.63115067      
    4125.500 8.55747856       28.35671343      0.01469535       0.02896916       0.05595784       2.64882679      
    4126.000 8.55664018       34.43152973      0.02704917       0.02692699       0.04495255       2.68938103      
    4126.500 8.55585235       49.39768426      0.04105548       0.03528741       0.03716173       2.69389541      
    4127.000 8.55510023       68.41150781      0.05516429       0.05749069       0.03592585       2.66589024      
    4127.500 8.56401919       81.35175889      0.06926881       0.08179316       0.04000947       2.65470628      
    4128.000 8.57012504       101.02415685     0.08154463       0.10609562       0.04202005       2.56892824      
    4128.500 8.55554561       100.84167243     0.08593057       0.12075159       0.04089663       2.57017246      
    4129.000 8.55502619       103.92913487     0.08977098       0.12848546       0.02659440       2.55837842      
    4129.500 8.55510750       102.22594077     0.09772058       0.13089268       0.01273765       2.55497928      
    4130.000 8.55390129       101.18739394     0.08946841       0.12094283       0.02896210       2.54831582      
    4130.500 8.55201605       107.24936805     0.07541499       0.10765597       0.03188918       2.58354416      
    4131.000 8.55011166       118.60327195     0.06950853       0.10040120       0.03458136       2.59204504      
    4131.500 8.54820760       128.25089999     0.07512538       0.10561685       0.03727582       2.58760199      
    4132.000 8.54630503       131.54913666     0.08639652       0.12659579       0.03886621       2.57480564      
    4132.500 8.54440247       132.43985283     0.09799398       0.15351053       0.03838034       2.55480371      
    4133.000 8.54249991       104.37858170     0.10682046       0.16077978       0.02643815       2.54263619      
    4133.500 8.54059734       87.11390044      0.10922768       0.14881738       0.01253237       2.52758877      
