~VERSION INFORMATION
VERS. 2.0 : CWLS Log ASCII Standard - Version 2.0
WRAP. NO : One line per depth step
#--------------------------------------------------#
#----------------DRILLING INFO, INC.---------------#
#---------------WWW.DRILLINGINFO.COM---------------#
#------------------COPYRIGHT 2015------------------#
#--------------------------------------------------#
#THIS FILE MAY BE USED ONLY IN ACCORDANCE WITH A CURRENT SUBSCRIPTION AGREEMENT BETWEEN
#THE USER AND DRILLING INFO, INC. NO PART OF THIS FILE MAY BE REPRODUCED, USED, COPIED,
#MODIFIED, PROPAGATED, OR DISTRIBUTED EXCEPT IN ACCORDANCE WITH THE SUBSCRIPTION
#AGREEMENT. UNAUTHORIZED USE OR DISTRIBUTION OF ALL OR ANY PART OF THIS FILE MAY VIOLATE
#COPYRIGHT, TRADEMARK, AND/OR OTHER LAWS AND IS SUBJECT TO CIVIL AS WELL AS CRIMINAL
#SANCTIONS.
#--------------------------------------------------#
#THIS FILE IS PROVIDED "AS-IS" AND ALL WARRANTIES ARE EXPRESSLY DISCLAIMED, WHETHER
#EXPRESS, ORAL, IMPLIED, STATUTORY OR OTHERWISE, INCLUDING ANY IMPLIED WARRANTY OF FITNESS
#FOR A PARTICULAR PURPOSE, MERCHANTABILITY, TITLE OR NON-INFRINGEMENT, AND ANY WARRANTIES
#ARISING BY VIRTUE OF CUSTOM OF TRADE OR COURSE OF DEALING.  FURTHER, DRILLING INFO,
#INC. AND ITS LICENSORS DO NOT REPRESENT OR WARRANT THAT THIS FILE WILL MEET USER'S
#REQUIREMENTS OR ARE SUITABLE FOR USER'S NEEDS OR THAT THE DATA OR RESULTS PROVIDED IN
#CONJUNCTION THEREWITH ARE CORRECT, ACCURATE, TIMELY OR RELIABLE. THESE DISCLAIMERS SHALL
#APPLY REGARDLESS OF ANY FAILURE OF ESSENTIAL PURPOSE OF ANY LIMITED REMEDY.  SOME
#JURISDICTIONS DO NOT ALLOW THE EXCLUSION OF CERTAIN WARRANTIES SO SOME OF THE ABOVE
#EXCLUSIONS MAY NOT APPLY. IN NO EVENT SHALL DRILLING INFO, INC. OR ANY OF ITS AFFILIATES
#BE LIABLE UNDER ANY LEGAL THEORY, WHETHER IN TORT (INCLUDING WITHOUT LIMITATION
#NEGLIGENCE), CONTRACT, STRICT LIABILITY, STATUTORY OR OTHERWISE, FOR ANY SPECIAL,
#INCIDENTAL, CONSEQUENTIAL, EXEMPLARY, PUNITIVE OR INDIRECT DAMAGE OF ANY KIND, INCLUDING
#WITHOUT LIMITATION LOSS OF REVENUE, PROFITS, GOODWILL, USE, AND/OR DATA OR THE COST OF
#PROCUREMENT OF SUBSTITUTE GOODS OR SERVICES, EVEN IF APPRISED OF THE POSSIBILITY OF SUCH
#DAMAGES IN ADVANCE.
#--------------------------------------------------#
~WELL INFORMATION
#MNEMONIC     .UNIT              VALUE :DESCRIPTION
#--------------------------------------------------#
STRT       .ft                97.00000 :START DEPTH
STOP       .ft                8647.00000 :STOP DEPTH
STEP       .ft                0.50000 :STEP
NULL       .                -999.25000 :NULL VALUE
COMP       .                 :COMPANY
WELL       .                 :WELL
FLD       .                 :FIELD
LOC       .                 :LOCATION
CNTY       .                 :COUNTY
STAT       .                 :STATE
CTRY       .                 :COUNTRY
SRVC       .                 :SERVICE COMPANY
DATE       .                 :DATE
API       .                42109002030000 :API NUMBER
~CURVE INFORMATION
#MNEMONIC     .UNIT      API CODE :CURVE DESCRIPTION
#--------------------------------------------------#
DEPTH       .ft                      :Measured Depth
DT       .us/ft        UNKNOWN   :DT
GR       .gAPI        UNKNOWN   :GR
ILD       .ohmm        UNKNOWN   :ILD
ILS       .ohmm        UNKNOWN   :ILS
SP       .mV        UNKNOWN   :SP
~A    DEPTH    DT    GR    ILD    ILS    SP
# ...
8055.50000    67.62767    26.25376    31.58934    48.20440    -18.93263
8056.00000    69.44430    31.77095    30.58404    46.72082    -18.23923
8056.50000    67.72883    34.17070    29.57874    45.23724    -17.54583
8057.00000    69.15441    34.62256    28.57343    43.68779    -16.85243
8057.50000    71.29179    35.07441    27.56813    42.12188    -16.15903
8058.00000    73.42918    35.52626    26.56283    42.28120    -15.46563
8058.50000    74.95257    35.97811    25.94685    43.81326    -14.77223
8059.00000    74.43064    36.42996    28.14943    45.34533    -14.93593
8059.50000    73.90872    39.79926    30.35200    46.87739    -15.23067
8060.00000    73.38679    43.84589    32.55457    48.40946    -15.52541
8060.50000    75.60379    47.89252    33.70256    49.94152    -15.82015
8061.00000    73.53659    42.15632    31.99854    49.20364    -16.11489
8061.50000    68.76229    36.16531    30.29451    48.02203    -16.08687
8062.00000    63.98799    30.17430    28.59049    46.84041    -15.68467
8062.50000    63.55123    24.18329    26.88646    45.65880    -15.28246
8063.00000    67.46491    21.85799    25.18244    44.47718    -14.88026
8063.50000    71.37858    27.32566    23.47841    43.29557    -14.47805
8064.00000    75.29225    32.79333    21.77439    42.11395    -14.37404
8064.50000    78.45177    38.26100    22.93545    40.93233    -14.48256
8065.00000    76.83048    43.72867    24.86329    42.11424    -14.59108
8065.50000    75.20920    49.19634    26.79114    44.52036    -14.69960
8066.00000    73.58791    51.35462    28.71898    46.92648    -14.80812
8066.50000    71.96663    48.75518    30.64682    49.33259    -14.91664
8067.00000    70.34534    46.15575    32.57467    51.73871    -15.02516
8067.50000    68.72406    43.55633    34.50251    54.14483    -15.13368
8068.00000    67.10277    40.95690    36.43036    56.55094    -15.24221
8068.50000    65.48149    38.35746    38.35820    58.95706    -15.35073
8069.00000    63.96845    35.75804    40.28605    58.97577    -15.45925
8069.50000    66.23567    34.54024    40.51140    58.68459    -15.56777
8070.00000    68.50289    34.07700    38.86050    58.39340    -15.67629
8070.50000    70.77011    35.25840    37.20960    58.10222    -15.78481
8071.00000    73.03732    36.43981    35.55870    57.81103    -15.89333
8071.50000    75.30454    37.62122    33.90779    57.51984    -16.00185
8072.00000    77.57176    38.80263    32.25689    57.22866    -16.11037
8072.50000    75.36843    39.98403    32.71729    56.93747    -16.21889
8073.00000    71.03363    41.16544    36.88673    60.43638    -16.32741
8073.50000    66.69882    42.33386    41.05617    64.82146    -17.59134
8074.00000    62.36402    43.36248    45.22560    76.71518    -18.91939
8074.50000    58.02921    44.32483    99.11034    91.19352    -20.24745
8075.00000    53.69441    40.01920    101.22866    116.70276    -21.57550
8075.50000    49.35961    34.58125    111.35387    128.13344    -22.90356
8076.00000    48.04043    22.48462    121.81652    139.56412    -24.23162
8076.50000    48.48756    14.56233    132.81562    150.99480    -25.55967
8077.00000    48.93470    13.01639    143.81473    162.42547    -26.88773
8077.50000    49.38183    11.47046    154.81383    173.85615    -28.19855
8078.00000    49.82897    9.92452    165.81294    185.28683    -28.05450
8078.50000    49.99742    8.37858    171.15840    196.71751    -27.91044
8079.00000    49.39714    6.83265    175.16885    205.77520    -27.76639
8079.50000    48.79687    7.74739    179.17931    210.88680    -27.62234
8080.00000    48.19659    9.40571    179.25614    215.99840    -27.47828
8080.50000    47.59632    11.06403    175.57022    221.11000    -27.42662
8081.00000    48.11202    12.32339    171.88430    226.22160    -27.42935
8081.50000    50.70449    12.05264    168.19838    231.33320    -27.43208
8082.00000    52.06009    11.78189    164.51246    236.44481    -26.96253
8082.50000    51.98467    11.51114    160.82654    241.55641    -24.60267
8083.00000    51.90925    11.24038    157.14062    248.95679    -22.24281
8083.50000    51.83383    11.94778    153.45470    260.03600    -19.88294
8084.00000    48.96115    14.48477    149.76878    271.11522    -17.52308
8084.50000    47.96240    13.66807    177.39782    282.19443    -15.16322
8085.00000    48.26702    12.31008    210.77025    293.27365    -12.80336
8085.50000    48.57165    10.95210    224.27230    304.35286    -10.45669
8086.00000    48.37947    9.59412    236.45110    315.43208    -8.95376
8086.50000    47.90277    8.74455    248.62990    326.51129    -7.45083
8087.00000    47.82304    8.69687    260.80871    337.59050    -5.94790
8087.50000    48.12783    8.64919    267.90366    348.66972    -4.44496
8088.00000    48.43262    8.60152    266.22848    359.74893    -2.94203
8088.50000    48.48905    8.55384    264.55329    364.60459    -1.43910
8089.00000    48.27710    8.50616    262.87810    364.73570    0.06383
8089.50000    48.06514    8.45848    261.20292    364.86682    1.56676
8090.00000    47.85318    8.72279    259.52773    364.99793    3.06970
8090.50000    47.68923    9.41857    257.85254    365.12905    4.57263
8091.00000    47.84363    10.11435    256.17736    365.26017    6.07556
8091.50000    47.99803    10.81012    258.48179    365.39128    7.57849
8092.00000    48.15242    11.50590    267.06054    365.52240    9.08143
8092.50000    48.30682    12.20794    275.63930    365.65352    10.58436
8093.00000    48.46122    12.91259    284.21806    365.78463    12.08729
8093.50000    48.56625    13.61725    292.79681    365.91575    12.95547
8094.00000    48.39727    14.32191    300.80463    366.04687    13.31153
8094.50000    48.22829    14.67761    305.21803    366.17798    13.66759
8095.00000    48.05931    14.70773    309.63143    366.30910    14.02365
8095.50000    47.89033    14.73784    314.04484    366.44021    14.21689
8096.00000    47.72136    14.76796    318.45824    366.57133    13.53401
8096.50000    47.55238    14.79807    322.87165    366.70245    12.85113
8097.00000    47.54870    14.96323    327.28505    366.83356    12.16825
8097.50000    47.65212    15.78871    329.30797    366.96468    11.48536
8098.00000    47.75554    16.61420    329.29559    367.09580    10.80248
8098.50000    47.85896    17.43969    329.28320    366.93827    10.11960
8099.00000    47.96238    18.26517    329.27082    363.73992    9.43672
8099.50000    48.06580    17.79844    329.25843    360.54156    8.75384
8100.00000    48.16921    17.32779    329.24605    357.34321    8.07095
8100.50000    48.27263    16.85715    329.23367    354.14486    7.52644
8101.00000    48.37605    16.38650    329.22128    350.94650    7.32238
8101.50000    48.24742    16.01967    332.88327    347.74815    7.11831
8102.00000    48.00845    16.50850    339.25456    344.54979    6.91424
8102.50000    47.76947    16.99733    345.62585    341.35144    6.71017
8103.00000    47.53050    17.48616    351.99714    338.15309    6.50611
8103.50000    47.29153    17.72735    358.36844    334.95473    6.30204
8104.00000    47.05255    17.62486    364.73973    331.38310    6.09797
8104.50000    47.22760    17.52236    371.11102    322.52002    5.89390
8105.00000    47.45268    17.41987    377.48231    313.65694    5.68984
8105.50000    47.67775    17.31737    383.34983    304.79386    5.18018
8106.00000    47.90282    17.21487    388.97645    295.93078    4.31941
8106.50000    48.07513    17.11238    394.60307    287.06770    3.45865
8107.00000    48.16214    18.11360    400.22969    278.20462    2.59788
8107.50000    48.24916    19.14220    405.85631    269.34154    1.73711
8108.00000    48.33617    20.17081    411.48293    260.47846    0.87634
8108.50000    48.42319    21.19941    414.45538    251.61538    0.01558
8109.00000    48.51020    22.64100    389.27052    242.75230    -0.84519
8109.50000    48.59722    24.16775    364.08566    233.88923    -1.70596
8110.00000    48.68424    25.69451    338.90081    225.02615    -2.56672
8110.50000    51.19855    27.22127    313.71595    216.16307    -3.42749
