~VERSION INFORMATION
VERS. 2.0 : CWLS Log ASCII Standard - Version 2.0
WRAP. NO : One line per depth step
#--------------------------------------------------#
#----------------DRILLING INFO, INC.---------------#
#---------------WWW.DRILLINGINFO.COM---------------#
#------------------COPYRIGHT 2015------------------#
#--------------------------------------------------#
#THIS FILE MAY BE USED ONLY IN ACCORDANCE WITH A CURRENT SUBSCRIPTION AGREEMENT BETWEEN
#THE USER AND DRILLING INFO, INC. NO PART OF THIS FILE MAY BE REPRODUCED, USED, COPIED,
#MODIFIED, PROPAGATED, OR DISTRIBUTED EXCEPT IN ACCORDANCE WITH THE SUBSCRIPTION
#AGREEMENT. UNAUTHORIZED USE OR DISTRIBUTION OF ALL OR ANY PART OF THIS FILE MAY VIOLATE
#COPYRIGHT, TRADEMARK, AND/OR OTHER LAWS AND IS SUBJECT TO CIVIL AS WELL AS CRIMINAL
#SANCTIONS.
#--------------------------------------------------#
#THIS FILE IS PROVIDED "AS-IS" AND ALL WARRANTIES ARE EXPRESSLY DISCLAIMED, WHETHER
#EXPRESS, ORAL, IMPLIED, STATUTORY OR OTHERWISE, INCLUDING ANY IMPLIED WARRANTY OF FITNESS
#FOR A PARTICULAR PURPOSE, MERCHANTABILITY, TITLE OR NON-INFRINGEMENT, AND ANY WARRANTIES
#ARISING BY VIRTUE OF CUSTOM OF TRADE OR COURSE OF DEALING.  FURTHER, DRILLING INFO,
#INC. AND ITS LICENSORS DO NOT REPRESENT OR WARRANT THAT THIS FILE WILL MEET USER'S
#REQUIREMENTS OR ARE SUITABLE FOR USER'S NEEDS OR THAT THE DATA OR RESULTS PROVIDED IN
#CONJUNCTION THEREWITH ARE CORRECT, ACCURATE, TIMELY OR RELIABLE. THESE DISCLAIMERS SHALL
#APPLY REGARDLESS OF ANY FAILURE OF ESSENTIAL PURPOSE OF ANY LIMITED REMEDY.  SOME
#JURISDICTIONS DO NOT ALLOW THE EXCLUSION OF CERTAIN WARRANTIES SO SOME OF THE ABOVE
#EXCLUSIONS MAY NOT APPLY. IN NO EVENT SHALL DRILLING INFO, INC. OR ANY OF ITS AFFILIATES
#BE LIABLE UNDER ANY LEGAL THEORY, WHETHER IN TORT (INCLUDING WITHOUT LIMITATION
#NEGLIGENCE), CONTRACT, STRICT LIABILITY, STATUTORY OR OTHERWISE, FOR ANY SPECIAL,
#INCIDENTAL, CONSEQUENTIAL, EXEMPLARY, PUNITIVE OR INDIRECT DAMAGE OF ANY KIND, INCLUDING
#WITHOUT LIMITATION LOSS OF REVENUE, PROFITS, GOODWILL, USE, AND/OR DATA OR THE COST OF
#PROCUREMENT OF SUBSTITUTE GOODS OR SERVICES, EVEN IF APPRISED OF THE POSSIBILITY OF SUCH
#DAMAGES IN ADVANCE.
#--------------------------------------------------#
~WELL INFORMATION
#MNEMONIC     .UNIT              VALUE :DESCRIPTION
#--------------------------------------------------#
STRT       .ft                97.00000 :START DEPTH
STOP       .ft                8647.00000 :STOP DEPTH
STEP       .ft                0.50000 :STEP
NULL       .                -999.25000 :NULL VALUE
COMP       .                 :COMPANY
WELL       .                 :WELL
FLD       .                 :FIELD
LOC       .                 :LOCATION
CNTY       .                 :COUNTY
STAT       .                 :STATE
CTRY       .                 :COUNTRY
SRVC       .                 :SERVICE COMPANY
DATE       .                 :DATE
API       .                42109002030000 :API NUMBER
~CURVE INFORMATION
#MNEMONIC     .UNIT      API CODE :CURVE DESCRIPTION
#--------------------------------------------------#
DEPTH       .ft                      :Measured Depth
DT       .us/ft        UNKNOWN   :DT
GR       .gAPI        UNKNOWN   :GR
ILD       .ohmm        UNKNOWN   :ILD
ILS       .ohmm        UNKNOWN   :ILS
SP       .mV        UNKNOWN   :SP
~A    DEPTH    DT    GR    ILD    ILS    SP
# ...
6948.50000    68.61255    40.25846    44.56510    83.96005    -34.21312
6949.00000    68.24150    40.43085    45.23516    80.71624    -34.12049
6949.50000    67.87046    40.60323    45.90521    77.47244    -34.02786
6950.00000    67.31500    40.67018    46.49588    76.73812    -33.93523
6950.50000    66.06576    40.47047    46.10026    76.38631    -33.84260
6951.00000    64.81653    40.27076    45.70463    76.03450    -33.74997
6951.50000    64.30974    40.08049    45.30900    75.68269    -33.65734
6952.00000    65.09646    40.65668    44.91337    75.33089    -33.56471
6952.50000    65.88319    41.23287    44.49918    74.97908    -33.47208
6953.00000    66.66992    41.80906    44.05732    74.63045    -33.37945
6953.50000    67.45665    42.38525    43.61546    74.29119    -33.28682
6954.00000    67.23699    42.63849    43.17360    73.95193    -33.19419
6954.50000    66.64407    41.61320    42.73174    73.61267    -33.10156
6955.00000    66.05115    40.58791    42.28988    73.27341    -33.00893
6955.50000    65.45823    39.56262    41.84802    72.90041    -32.91630
6956.00000    64.86531    38.53733    41.40616    72.26116    -32.82367
6956.50000    64.27239    37.51204    40.96430    71.62191    -32.73104
6957.00000    65.04105    36.48675    40.52244    70.98266    -32.63841
6957.50000    65.97962    36.07205    40.08058    70.34342    -32.54578
6958.00000    66.91818    36.22274    39.67528    69.70417    -32.45315
6958.50000    67.85675    36.37342    40.43110    69.21050    -32.36052
6959.00000    68.79531    36.52411    41.18692    69.43774    -32.26789
6959.50000    68.69756    36.51385    41.94273    69.66497    -32.17526
6960.00000    67.33428    35.84835    42.69855    69.89220    -32.08263
6960.50000    65.97099    35.18285    43.45437    70.11943    -31.99000
6961.00000    64.60771    34.51735    44.21018    70.34667    -31.89737
6961.50000    64.94703    33.85185    43.97619    70.57390    -31.80474
6962.00000    65.46053    35.02847    43.19315    70.80113    -31.71211
6962.50000    65.97403    36.70946    42.41011    70.87864    -31.61948
6963.00000    66.48753    38.39044    41.64643    70.53937    -31.52685
6963.50000    67.00103    40.07143    40.93994    70.20010    -31.43422
6964.00000    67.51453    41.75242    40.23345    69.86083    -31.49455
6964.50000    68.02804    43.30365    39.52696    69.52155    -31.64264
6965.00000    68.23050    42.87849    38.82046    69.18228    -31.79073
6965.50000    67.60569    42.45332    38.11397    68.84301    -31.93883
6966.00000    66.98087    42.02815    37.40748    68.50374    -32.08692
6966.50000    66.35606    41.55091    37.25476    68.16446    -32.23501
6967.00000    65.73125    40.89344    37.67110    67.82519    -32.38310
6967.50000    65.29252    40.23597    38.08744    67.48592    -32.53120
6968.00000    65.77081    39.57850    38.50377    67.33953    -32.67929
6968.50000    65.45550    38.92104    38.92011    67.19672    -32.82738
6969.00000    65.81246    38.26357    39.33644    67.05392    -32.97547
6969.50000    66.26738    37.60610    39.75278    66.91112    -33.12357
6970.00000    66.72229    36.94863    40.16911    66.76831    -33.27166
6970.50000    66.70199    36.29116    39.54420    66.62551    -33.41975
6971.00000    65.10718    35.63369    38.53434    66.48270    -33.56784
6971.50000    66.05857    35.35549    37.52447    66.33990    -33.63453
6972.00000    67.00996    35.96622    36.51461    65.05391    -33.62711
6972.50000    67.96136    36.57695    35.50474    63.72541    -33.61969
6973.00000    68.91275    37.29548    34.49488    62.39692    -33.61227
6973.50000    69.86414    39.03597    33.48501    61.06843    -33.60486
6974.00000    70.81553    40.77646    32.67647    59.73993    -33.59744
6974.50000    70.57587    42.51694    31.89332    58.41144    -33.59002
6975.00000    68.99459    44.25743    31.11018    57.08295    -33.58260
6975.50000    67.41330    45.99792    30.32703    55.75445    -33.57519
6976.00000    65.83202    47.24196    29.54389    54.42596    -33.56777
6976.50000    66.20635    47.67614    29.26554    53.21820    -33.56035
6977.00000    66.67317    48.11032    29.56811    55.91285    -33.55293
6977.50000    67.13999    48.54450    29.87069    56.41356    -33.54552
6978.00000    67.60681    48.40967    30.17326    56.05374    -33.53810
6978.50000    68.07364    47.93412    30.47584    55.69392    -33.53068
6979.00000    68.54046    47.45857    30.77841    55.33410    -33.52326
6979.50000    69.00728    46.44804    31.08098    54.97428    -33.51584
6980.00000    69.15251    45.36516    31.22452    54.61445    -33.50843
6980.50000    68.67331    44.28229    31.02713    54.25463    -33.50101
6981.00000    68.19411    43.19941    30.82973    53.89481    -33.49359
6981.50000    67.71491    42.11654    30.63235    53.79714    -33.48617
6982.00000    67.23571    41.61092    30.43496    53.85195    -33.47876
6982.50000    66.94496    42.40473    30.23757    53.90676    -33.47134
6983.00000    67.37946    43.19853    30.04018    53.96158    -33.46392
6983.50000    67.81396    43.99234    29.84279    54.01639    -33.45650
6984.00000    68.24846    44.78615    29.64540    54.07120    -33.44908
6984.50000    68.68296    45.57996    29.44363    53.20448    -33.44167
6985.00000    69.11746    46.37376    29.14663    52.16957    -33.43425
6985.50000    69.73635    47.16757    28.84962    51.13467    -33.42682
6986.00000    71.67439    47.96138    28.55261    50.09977    -33.41940
6986.50000    73.61244    48.37272    28.25561    49.41091    -33.41197
6987.00000    75.55048    47.74744    27.95860    49.47301    -33.40454
6987.50000    77.25019    47.12217    27.42068    49.53511    -33.39711
6988.00000    76.13614    46.49690    26.79110    49.59721    -33.38969
6988.50000    75.02210    45.87163    26.16152    49.65931    -33.38226
6989.00000    74.30816    44.64930    25.53193    49.53445    -33.37483
6989.50000    75.05774    42.11248    24.90235    48.86077    -33.36740
6990.00000    75.80731    39.57565    24.27277    48.18709    -33.35998
6990.50000    71.06183    37.03883    23.64318    47.51341    -33.35255
6991.00000    65.73412    34.33104    26.19456    46.83973    -33.34512
6991.50000    60.40640    31.14184    28.78750    46.46370    -33.33769
6992.00000    57.61663    27.95263    31.38044    52.47538    -33.33027
6992.50000    55.36436    24.76343    36.94077    58.85568    -33.32284
6993.00000    53.11210    21.57422    42.50454    65.29133    -33.31541
6993.50000    50.85983    21.10948    48.06830    71.72698    -33.30798
6994.00000    52.70962    22.80642    53.63207    78.16264    -33.30056
6994.50000    56.01941    24.50336    59.19584    84.59829    -33.29313
6995.00000    59.32919    26.20030    64.32360    90.48557    -33.28570
6995.50000    62.63898    27.89723    60.91038    88.03873    -33.20572
6996.00000    65.94876    29.59417    57.49716    85.59189    -33.01187
6996.50000    66.64288    30.57752    54.08394    83.14505    -32.81801
6997.00000    65.04202    29.98446    50.67072    80.69821    -32.62415
6997.50000    63.80232    29.39140    47.25750    78.25137    -32.43029
6998.00000    63.04810    28.79834    43.84428    75.80453    -32.23643
6998.50000    62.60706    28.20528    40.43106    73.35769    -32.06517
6999.00000    63.09627    29.28249    38.95887    73.06062    -32.13088
6999.50000    63.58548    30.52215    39.62893    73.10974    -32.19659
7000.00000    64.07469    31.76182    40.29901    73.15885    -32.26230
7000.50000    64.56389    33.22429    40.96907    73.20797    -32.32801
7001.00000    65.05310    34.75922    41.63914    73.25708    -32.39372
7001.50000    65.54231    36.29415    42.30922    73.30620    -32.45943
7002.00000    66.03152    37.82907    42.90018    73.06351    -32.52513
7002.50000    66.52072    39.36400    42.39762    72.28045    -32.59084
7003.00000    66.38032    40.89893    41.89505    71.49739    -32.65655
7003.50000    66.14439    41.41907    41.39249    70.71433    -32.72226
7004.00000    65.90846    40.86780    40.88993    69.93127    -32.78797
