###############################################
##         ENVERUS                           ##
##         EPlus - Open Hole                 ##
##         PERMIAN / DELAWARE                ##
##         Copyright ©                       ##
##         Enverus Version - V4.0            ##
##         Nov 20 2023                       ##
##         42-109-00406-00-00                ##
###############################################
## Copyright 2017-2023  ENVERUS.  All Rights Reserved. 
## Confidential - Property of ENVERUS, use governed by terms and 
## conditions found within the existing Information Services Subscription Agreement 
## (as may be amended, the “ISSA”) between Customer and ENVERUS. 
## 
#___________________________________________________________________________________________________
~VERSION INFORMATION
# MNEM.UNIT                               DATA : DESCRIPTION OF MNEMONIC
#-----.-----     ----------------------------- : -----------------------------
VERS.                                     2.00 : CWLS LOG ASCII STANDARD - VERSION 2.00
WRAP.                                       NO : MULTIPLE LINES PER DEPTH STEP
VEND.                                  ENVERUS : VENDOR
ENV_TYPE.                    EPLUS - OPEN HOLE : Enverus Essential Plus Curves – Accessible through Enverus Core(TM)
ENV_VERS.                                 V4.0 : EPlus - Open Hole Version number 
ENV_DOC.                     29582122,44184337 : ENVERUS Header Document id
ENV_REF.                               PERMIAN : ENVERUS BASIN OR PLAY APPLIED REFERENCE LIMITS 
#___________________________________________________________________________________________________ 
~WELL INFORMATION 
# uyaQ8P8kQDJ9DXFS5hR1PxmExEOYaAUkY5f3/tnOS+scoPAUWgXA1zCIHGRbWCuSuUcwDzaESCjqjWQ81XhadA== 
# MNEM.UNIT                                              DATA : DESCRIPTION OF MNEMONIC 
#-----.-----                    ----------------------------- : ----------------------------- 
CNTY.                                               CULBERSON : COUNTY 
STATE.                                                  TEXAS : STATE 
CNTRY.                                                    USA : COUNTRY 
API.                                             42-109-00406 : API (10 Digit) 
API_14.                                    42-109-00406-00-00 : API (14 Digits) 
API_14_std.                                 42-109-00406-0000 : API (14 Digits Standard) 
UWI.                                           42109004060000 : UNIQUE WELL ID
STRT.FT                                                 100.5 : START DEPTH
STOP.FT                                                 12629 : STOP DEPTH
STEP.FT                                                   0.5 : STEP DEPTH
NULL.                                               -999.2500 : NULL VALUE
WELL.                                      CULBERSON FEE 1-BT : WELL NAME 
GR_ELEV.                                                 4049 : GROUND ELEVATION 
SLAT.                                                 31.7941 : SURFACE LATITUDE 
SLONG.                                              -104.4647 : SURFACE LONGITUDE
#___________________________________________________________________________________________________ 
~CURVE INFORMATION 
# MNEM.UNIT           : CURVE DESCRIPTION 
#-----.-----          : ----------------------------- 
DEPT.FT               : MEASURED DEPTH 
GR_E.API              : ENVERUS GAMMA RAY - CLEANED BLENDED AND LUMPED 
GR_F.                 : ENVERUS GAMMA RAY - OUTLIER INDICATOR - 0=(IN BOUNDS) 1=(OUT OF BOUNDS) 2=(REPEATING) 
GR_S.                 : ENVERUS GAMMA RAY - SOURCE INDICATOR 
GR_U.                 : ENVERUS GAMMA RAY - OPTION INDICATOR - 0=(NO OPTION) 1=(OTHER OPTIONS) 
DT_E.US/FT            : ENVERUS SONIC TRAVEL TIME - CLEANED BLENDED AND LUMPED 
DT_F.                 : ENVERUS SONIC TRAVEL TIME - OUTLIER INDICATOR - 0=(IN BOUNDS) 1=(OUT OF BOUNDS) 2=(REPEATING) 
DT_S.                 : ENVERUS SONIC TRAVEL TIME - SOURCE INDICATOR 
DT_U.                 : ENVERUS SONIC TRAVEL TIME - OPTION INDICATOR - 0=(NO OPTION) 1=(OTHER OPTIONS)
#___________________________________________________________________________________________________ 
~A         DEPT           GR_E           GR_F           GR_S           GR_U           DT_E           DT_F           DT_S           DT_U
         100.50         11.006           0.00           0.00           0.00     -999.25000        -999.25        -999.25        -999.25
         101.00         10.696           0.00           0.00           0.00     -999.25000        -999.25        -999.25        -999.25
         101.50         10.222           0.00           0.00           0.00     -999.25000        -999.25        -999.25        -999.25
         102.00          9.463           0.00           0.00           0.00     -999.25000        -999.25        -999.25        -999.25
         102.50          8.734           0.00           0.00           0.00     -999.25000        -999.25        -999.25        -999.25
         103.00          8.333           0.00           0.00           0.00     -999.25000        -999.25        -999.25        -999.25
         103.50          8.333           0.00           0.00           0.00     -999.25000        -999.25        -999.25        -999.25
         104.00          8.333           0.00           0.00           0.00     -999.25000        -999.25        -999.25        -999.25
         104.50          8.388           0.00           0.00           0.00     -999.25000        -999.25        -999.25        -999.25
         105.00          8.692           0.00           0.00           0.00     -999.25000        -999.25        -999.25        -999.25
         105.50          8.995           0.00           0.00           0.00     -999.25000        -999.25        -999.25        -999.25
         106.00          9.299           0.00           0.00           0.00     -999.25000        -999.25        -999.25        -999.25
         106.50          9.603           0.00           0.00           0.00     -999.25000        -999.25        -999.25        -999.25
         107.00          9.906           0.00           0.00           0.00     -999.25000        -999.25        -999.25        -999.25
         107.50         10.119           0.00           0.00           0.00     -999.25000        -999.25        -999.25        -999.25
         108.00         10.022           0.00           0.00           0.00     -999.25000        -999.25        -999.25        -999.25
         108.50          9.512           0.00           0.00           0.00     -999.25000        -999.25        -999.25        -999.25
         109.00          8.710           0.00           0.00           0.00     -999.25000        -999.25        -999.25        -999.25
         109.50          8.564           0.00           0.00           0.00     -999.25000        -999.25        -999.25        -999.25
         110.00          9.050           0.00           0.00           0.00     -999.25000        -999.25        -999.25        -999.25
         110.50          9.354           0.00           0.00           0.00     -999.25000        -999.25        -999.25        -999.25
         111.00          9.524           0.00           0.00           0.00     -999.25000        -999.25        -999.25        -999.25
         111.50          9.524           0.00           0.00           0.00     -999.25000        -999.25        -999.25        -999.25
         112.00          9.669           0.00           0.00           0.00     -999.25000        -999.25        -999.25        -999.25
         112.50         10.049           0.00           0.00           0.00     -999.25000        -999.25        -999.25        -999.25
         113.00         10.583           0.00           0.00           0.00     -999.25000        -999.25        -999.25        -999.25
         113.50         11.355           0.00           0.00           0.00     -999.25000        -999.25        -999.25        -999.25
         114.00         12.435           0.00           0.00           0.00     -999.25000        -999.25        -999.25        -999.25
         114.50         13.210           0.00           0.00           0.00     -999.25000        -999.25        -999.25        -999.25
         115.00         12.938           0.00           0.00           0.00     -999.25000        -999.25        -999.25        -999.25
         115.50         12.367           0.00           0.00           0.00     -999.25000        -999.25        -999.25        -999.25
         116.00         11.911           0.00           0.00           0.00     -999.25000        -999.25        -999.25        -999.25
         116.50         11.456           0.00           0.00           0.00     -999.25000        -999.25        -999.25        -999.25
         117.00         11.310           0.00           0.00           0.00     -999.25000        -999.25        -999.25        -999.25
         117.50         11.097           0.00           0.00           0.00     -999.25000        -999.25        -999.25        -999.25
         118.00         11.012           0.00           0.00           0.00     -999.25000        -999.25        -999.25        -999.25
         118.50         11.236           0.00           0.00           0.00     -999.25000        -999.25        -999.25        -999.25
         119.00         11.540           0.00           0.00           0.00     -999.25000        -999.25        -999.25        -999.25
         119.50         11.962           0.00           0.00           0.00     -999.25000        -999.25        -999.25        -999.25
         120.00         12.418           0.00           0.00           0.00     -999.25000        -999.25        -999.25        -999.25
         120.50         11.754           0.00           0.00           0.00     -999.25000        -999.25        -999.25        -999.25
         121.00         11.352           0.00           0.00           0.00     -999.25000        -999.25        -999.25        -999.25
         121.50         11.310           0.00           0.00           0.00     -999.25000        -999.25        -999.25        -999.25
         122.00         11.577           0.00           0.00           0.00     -999.25000        -999.25        -999.25        -999.25
         122.50         11.880           0.00           0.00           0.00     -999.25000        -999.25        -999.25        -999.25
         123.00         12.184           0.00           0.00           0.00     -999.25000        -999.25        -999.25        -999.25
         123.50         12.202           0.00           0.00           0.00     -999.25000        -999.25        -999.25        -999.25
         124.00         12.494           0.00           0.00           0.00     -999.25000        -999.25        -999.25        -999.25
         124.50         12.797           0.00           0.00           0.00     -999.25000        -999.25        -999.25        -999.25
         125.00         13.090           0.00           0.00           0.00     -999.25000        -999.25        -999.25        -999.25
         125.50         12.780           0.00           0.00           0.00     -999.25000        -999.25        -999.25        -999.25
         126.00         12.307           0.00           0.00           0.00     -999.25000        -999.25        -999.25        -999.25
         126.50         11.535           0.00           0.00           0.00     -999.25000        -999.25        -999.25        -999.25
         127.00         10.654           0.00           0.00           0.00     -999.25000        -999.25        -999.25        -999.25
         127.50         10.083           0.00           0.00           0.00     -999.25000        -999.25        -999.25        -999.25
         128.00          9.821           0.00           0.00           0.00     -999.25000        -999.25        -999.25        -999.25
         128.50          9.870           0.00           0.00           0.00     -999.25000        -999.25        -999.25        -999.25
         129.00         10.065           0.00           0.00           0.00     -999.25000        -999.25        -999.25        -999.25
         129.50          9.761           0.00           0.00           0.00     -999.25000        -999.25        -999.25        -999.25
