~Version Information Block
 VERS.                2.00:     CWLS LOG ASCII STANDARD - VERSION 2.000000
 WRAP.                  NO:     One Line Per Depth Step
#
~Well Information Block
#MNEM.UNIT                     Data                         Information
#----------   ------------------------------------------   ----------------
 STRT.FT                                      250.0000:     START DEPTH
 STOP.FT                                    10290.0000:     STOP DEPTH
 STEP.FT                                        0.5000:     STEP
 NULL.                                       -999.2500:     NULL VALUE
 COMP.                                                :     COMPANY
 WELL.                                                :     WELL
 FLD .                                                :     FIELD
 LOC .                                                :     LOCATION
 CNTY.                                                :     COUNTY
 STAT.                                                :     STATE
 CTRY.                                                :     COUNTRY
 SRVC.                                                :     SERVICE COMPANY
 DATE.                                                :     DATE
 API .                                                4210931550:     API NUMBER
 UWI .                                                :     UWI NUMBER
 TVD .                                              NO:     TVD flag
 WSTA.                                             LOC:     Well status
#
~Curve Information Block
#MNEM.UNIT       API CODE      Curve Description
#----------    -------------   -------------------
 DEPT.FT                   :   Depth in Feet
 LLS .OHMM                 :   Latero-Log Shallow (Resistivity)
 LLD .OHMM                 :   Latero-Log Deep (Resistivity)
 SFLU.OHMM                 :   SFL Resistivity (Unaveraged)
 ILD .OHMM                 :   Deep Induction Standard Processed Resistivity
 ILM .OHMM                 :   Medium Induction Standard Processed Resistivity
#
~Parameter Information Block
#MNEM.UNIT            Value               Description
#----------    --------------------    -------------------
 RUN .                         ONE:    Run Number
 PDAT.                          GL:    Permanent Datum
 EPD .FT                          :    Elevation Of Perm. Datum
 LMF .               KELLY BUSHING:    Log Measured From
 EKB .FT                          :    Elevation Of Kelly Bushing
 DF .FT                           :    Elevation Of Derrick Floor
 GL .FT                           :    Elevation Of Ground Level
 TD  .FT                          :    Total Depth
 CSGD.FT                          :    Casing Bottom (Driller) 1
 CSGL.FT                          :    Casing Bottom (Logger) 1
 MUD .                            :    Drilling Fluid Type
 MUDV .CP                         :    Drilling Fluid Viscosity
 MUDD .LB/USG                     :    Drilling Fluid Density
 FL .ML/30MIN                     :    Drilling Fluid Loss
 PH.                              :    Drilling Fluid Ph
 MUDS .                           :    Mud Sample Source
 RM .OHMM                         :    Resistivity Of Mud Sample
 RMT .DEGF                        :    Mud Sample Temperature
 RMF .OHMM                        :    Mud Filtrate Resistivity
 RMFT.DEGF                        :    Mud Filtrate Sample Temperature
 RMC .OHMM                        :    Mud Cake Resistivity
 RMCT.DEGF                        :    Mud Cake Sample Temperature
 RMB .OHMM                        :    Mud Resistivity At Bht
 TMAX .DEGF                       :    Bottom Hole Temperature
#
~Other Information Block
<DescLogPlotStart>   NEURALOG PLOT DEFINITION
PLOTDEFVERSION: 3
LASFILE: E:\nds\projects\Texas Standard Oil LLC\pdf\Pradeep+Ekta\42109315500000
DEPTHSCALE: 240.000000
RESOLUTION: 200
DEPTHLABELFREQ: 100.000000
HEAVYGRIDFREQ: 100.000000
MEDIUMGRIDFREQ: 50.000000
LIGHTGRIDFREQ: 10.000000
#
#   TRACK 1
#
STARTTRACK: 
 LEFTX: 1.000000 inch
 RIGHTX: 6.000000 inch
 SCALETYPE: Log
 NUMCYCLES: 4
 STARTCYCLE: 2
CURVE: SFLU  0.200000   2000.000000 (0,0,255)      Solid             2     N   
CURVE: ILD   0.200000   2000.000000 (0,131,131)    Dot               2     N   
CURVE: ILM   0.200000   2000.000000 (255,0,255)    Short_Dash        2     N   
ENDTRACK: 
#
#   TRACK 2
#
STARTTRACK: 
 LEFTX: 1.000000 inch
 RIGHTX: 6.000000 inch
 SCALETYPE: Log
 NUMCYCLES: 4
 STARTCYCLE: 2
CURVE: LLS   0.200000   2000.000000 (255,0,0)      Solid             2     Y   
BACKUP: 2000.000000 20000000.000000 (255,0,0)      Solid             2    
CURVE: LLD   0.200000   2000.000000 (255,131,0)    Dot               2     Y   
BACKUP: 2000.000000 20000000.000000 (255,131,0)    Dot               2    
ENDTRACK: 
<DescLogPlotEnd>
~A DEPTH     LLS              LLD              SFLU             ILD              ILM             
# ...
    9762.000 -999.25000000    -999.25000000    20.36427907      13.82128910      14.07902641     
    9762.500 -999.25000000    -999.25000000    20.37655594      13.82128910      13.82128910     
    9763.000 -999.25000000    -999.25000000    20.00000000      13.82128910      13.69419524     
    9763.500 -999.25000000    -999.25000000    20.18561714      14.07902641      13.69419524     
    9764.000 -999.25000000    -999.25000000    20.00000000      13.07604284      13.82128910     
    9764.500 -999.25000000    -999.25000000    20.00000000      12.95580189      14.07902641     
    9765.000 -999.25000000    -999.25000000    20.37295697      12.95580189      14.07902641     
    9765.500 -999.25000000    -999.25000000    20.94547319      13.07604284      16.02290025     
    9766.000 -999.25000000    -999.25000000    21.33606120      13.07604284      16.47317217     
    9766.500 -999.25000000    -999.25000000    21.93564236      12.71862687      14.88143597     
    9767.000 -999.25000000    -999.25000000    21.13986513      12.48044255      11.92218821     
    9767.500 -999.25000000    -999.25000000    20.94547319      12.60459916      11.38402375     
    9768.000 -999.25000000    -999.25000000    20.94547319      13.31320634      14.47467202     
    9768.500 -999.25000000    -999.25000000    20.56203547      13.81515469      18.23516236     
    9769.000 -999.25000000    -999.25000000    21.33606120      14.20969184      19.88743461     
    9769.500 -999.25000000    -999.25000000    21.73393284      14.88143597      21.68974874     
    9770.000 -999.25000000    -999.25000000    25.90401046      15.15894274      22.99045023     
    9770.500 -999.25000000    -999.25000000    28.94086051      15.58493591      22.34469489     
    9771.000 -999.25000000    -999.25000000    31.74181829      16.47317217      21.33606120     
    9771.500 -999.25000000    -999.25000000    33.24237020      17.09327902      20.18561714     
    9772.000 -999.25000000    -999.25000000    31.44678024      16.17160650      17.95445020     
    9772.500 -999.25000000    -999.25000000    26.86888785      15.29963072      12.51516887     
    9773.000 -999.25000000    -999.25000000    22.35500057      14.74459351      12.21891009     
    9773.500 -999.25000000    -999.25000000    20.37295697      13.94956251      11.91470435     
    9774.000 -999.25000000    -999.25000000    20.00000000      13.31988290      12.25722284     
    9774.500 -999.25000000    -999.25000000    20.37295697      12.60167254      13.19739972     
    9775.000 -999.25000000    -999.25000000    20.56203547      12.03283634      13.85569608     
    9775.500 -999.25000000    -999.25000000    20.75286878      12.03283634      14.83735947     
    9776.000 -999.25000000    -999.25000000    20.56203547      12.25722284      16.82827962     
    9776.500 -999.25000000    -999.25000000    20.56203547      13.41998253      18.45241990     
    9777.000 -999.25000000    -999.25000000    20.56203547      14.87277335      18.35285866     
    9777.500 -999.25000000    -999.25000000    27.38036437      19.29535892      20.88171248     
    9778.000 -999.25000000    -999.25000000    41.11201964      20.58614126      22.18099307     
    9778.500 -999.25000000    -999.25000000    50.84469454      20.56203547      25.42979941     
    9779.000 -999.25000000    -999.25000000    63.46503285      20.75286878      25.42979941     
    9779.500 -999.25000000    -999.25000000    68.96723807      17.73672883      18.57520891     
    9780.000 -999.25000000    -999.25000000    40.79673887      15.87556144      15.31737034     
    9780.500 -999.25000000    -999.25000000    28.41105545      14.34156996      12.94351185     
    9781.000 -999.25000000    -999.25000000    20.18561714      13.56827006      9.35271053      
    9781.500 -999.25000000    -999.25000000    18.40440030      13.07604284      8.31546549      
    9782.000 -999.25000000    -999.25000000    17.41203190      12.83666662      18.40440030     
    9782.500 -999.25000000    -999.25000000    19.45332701      12.71862687      49.29756013     
    9783.000 -999.25000000    -999.25000000    21.73393284      12.71848055      50.40448799     
    9783.500 -999.25000000    -999.25000000    27.12858783      13.41976240      42.77467196     
    9784.000 -999.25000000    -999.25000000    33.62846366      13.82231974      21.87954326     
    9784.500 -999.25000000    -999.25000000    41.11201964      17.25191930      24.05862029     
    9785.000 -999.25000000    -999.25000000    61.16265999      24.50726179      36.12437206     
    9785.500 -999.25000000    -999.25000000    286.08586121     42.65961745      49.45492349     
    9786.000 -999.25000000    -999.25000000    1073.50974285    53.10593018      62.30321200     
    9786.500 -999.25000000    -999.25000000    1551.31146685    68.48734090      70.25332868     
    9787.000 -999.25000000    -999.25000000    1062.19810489    77.90389261      88.50500055     
    9787.500 -999.25000000    -999.25000000    475.50860533     90.99214803      89.32640281     
    9788.000 -999.25000000    -999.25000000    216.83795940     97.97160127      77.76770874     
    9788.500 -999.25000000    -999.25000000    154.06002912     77.76770874      76.34405635     
    9789.000 -999.25000000    -999.25000000    118.94685526     64.64851917      77.76770874     
    9789.500 -999.25000000    -999.25000000    67.70469125      54.24127573      60.04298746     
    9790.000 -999.25000000    -999.25000000    47.42656134      39.62056530      27.38036437     
    9790.500 -999.25000000    -999.25000000    34.49372734      32.93668949      21.53407814     
    9791.000 -999.25000000    -999.25000000    33.55088788      22.13922392      18.92159659     
    9791.500 -999.25000000    -999.25000000    30.59029440      18.92159659      11.38402375     
    9792.000 -999.25000000    -999.25000000    24.73471019      18.92159659      9.99795848      
    9792.500 -999.25000000    -999.25000000    20.75286878      19.09720522      13.76048209     
    9793.000 -999.25000000    -999.25000000    22.34469489      19.45332701      18.48411131     
    9793.500 -999.25000000    -999.25000000    22.13922392      16.93609752      25.91880040     
    9794.000 -999.25000000    -999.25000000    28.41105545      15.29963072      25.42979941     
    9794.500 -999.25000000    -999.25000000    34.81385869      12.37098038      13.82128910     
    9795.000 -999.25000000    -999.25000000    35.46306225      10.87015189      13.44350283     
    9795.500 -999.25000000    -999.25000000    31.74181829      11.59631130      13.07604284     
    9796.000 -999.25000000    -999.25000000    28.94086051      13.44350283      12.60167254     
    9796.500 -999.25000000    -999.25000000    26.14442187      14.07902641      12.48579368     
    9797.000 -999.25000000    -999.25000000    18.92159659      14.87720104      21.53407814     
    9797.500 -999.25000000    -999.25000000    20.00000000      18.47511632      367.13126421    
    9798.000 -999.25000000    -999.25000000    24.73471019      23.73419571      1440.79672891   
    9798.500 -999.25000000    -999.25000000    31.60818608      28.42608884      1467.66448794   
    9799.000 -999.25000000    -999.25000000    38.35265826      35.91761110      265.70523188    
    9799.500 -999.25000000    -999.25000000    44.38594840      41.79970391      207.04995053    
    9800.000 -999.25000000    -999.25000000    41.49518741      43.05553526      42.65961745     
    9800.500 -999.25000000    -999.25000000    37.48421766      35.46306225      19.27444365     
    9801.000 -999.25000000    -999.25000000    27.38036437      24.28190490      6.53993793      
    9801.500 -999.25000000    -999.25000000    17.49366220      22.55207281      5.96284150      
    9802.000 -999.25000000    -999.25000000    11.35571428      20.75286878      5.90801010      
    9802.500 -999.25000000    -999.25000000    10.90409366      18.57520891      6.36117756      
