###############################################
##         ENVERUS                           ##
##         ESS - Open Hole                   ##
##         PERMIAN / DELAWARE                ##
##         Nov 03 2023  V4.0                 ##
##         42-109-32599-00-00                ##
###############################################
## Copyright 2017-2023  ENVERUS.  All Rights Reserved. 
## Confidential - Property of ENVERUS, use governed by terms and 
## conditions found within the existing Information Services Subscription Agreement 
## (as may be amended, the “ISSA”) between Customer and ENVERUS. 
## 
~VERSION INFORMATION
# MNEM.UNIT                               DATA : DESCRIPTION OF MNEMONIC
#-----.-----     ----------------------------- : -----------------------------
VERS.                                     2.00 : CWLS LOG ASCII STANDARD - VERSION 2.00
WRAP.                                       NO : MULTIPLE LINES PER DEPTH STEP
VEND.                                  ENVERUS : VENDOR
TYPE.                          ESS - OPEN HOLE : ENVERUS ESSENTIAL CURVES – ACCESSIBLE THROUGH ENVERUS PRISM(TM)
DOC.                                  21933172 : ENVERUS HEADER RAW DOCUMENT ID
#___________________________________________________________________________________________________ 
~WELL INFORMATION 
# uOzh0bdZpl++Qd8K/evm6vwbqlxLNv7zXaBwNvlB7bYnaXF7FEkKOyKwz7AUW0q8cTh4whY6gpezG6wl1Vx46w== 
# MNEM.UNIT                                              DATA : DESCRIPTION OF MNEMONIC 
#-----.-----                    ----------------------------- : ----------------------------- 
CNTY.                                               CULBERSON : COUNTY 
STATE.                                                  TEXAS : STATE 
CNTRY.                                                    USA : COUNTRY 
API.                                             42-109-32599 : API (10 Digit) 
API_14.                                    42-109-32599-00-00 : API (14 Digits) 
API_14_std.                                 42-109-32599-0000 : API (14 Digits Standard) 
UWI.                                           42109325990000 : UNIQUE WELL ID 
WELL.                                           COMANCHE 46 6 : WELL NAME
STRT.FT                                                 190.0 : START DEPTH
STOP.FT                                                5230.0 : STOP DEPTH
STEP.FT                                                   0.5 : STEP BETWEEN DEPTHS
NULL.                                                 -999.25 : NULL VALUE
SRVC.                                             HALLIBURTON :  
DATE.                                  12/31/2013 12-00-00 AM : 
#___________________________________________________________________________________________________ 
~PARAMETER INFORMATION 
# MNEM.UNIT                                              DATA : DESCRIPTION OF MNEMONIC 
#-----.-----                    ----------------------------- : -----------------------------
#___________________________________________________________________________________________________ 
~CURVE INFORMATION 
# MNEM.UNIT           : CURVE DESCRIPTION 
#-----.-----          : ----------------------------- 
 DEPT.FT               : MEASURED DEPTH 
 CALI.IN               : CALIPER (CALD) 
 GR.API                : GAMMA RAY (GRD) 
 PE.B/E                : PHOTOELECTRIC EFFECT/FACTOR 
 RESS_LL.OHMM          : SHALLOW LATEROLOG (LLS) 
 RESD_LL.OHMM          : DEEP LATEROLOG (LLD) 
 DPHI_LS.V/V           : DENSITY POROSITY - LIMESTONE 
 NPHI_LS.V/V           : NEUTRON POROSITY - LIMESTONE 
 RHOB.G/CC             : BULK DENSITY 
 #___________________________________________________________________________________________________ 
~A         DEPT           CALI             GR             PE        RESS_LL        RESD_LL        DPHI_LS        NPHI_LS           RHOB
# ...
         4025.0          7.815         63.464         2.3250         6.6687         7.8033        0.13650        0.10550         2.4929
         4025.5          7.775         63.187         2.4158         7.4737         8.7595        0.12430        0.09800         2.4937
         4026.0          7.799         65.329         2.4649         7.5557         9.7444        0.12340        0.10370         2.4990
         4026.5          7.842         74.925         2.5143         7.4968        12.0870        0.13350        0.13090         2.5056
         4027.0          7.864         87.837         2.5729        11.8012        15.8194        0.12780        0.14270         2.5123
         4027.5          7.924         92.943         2.5887        16.1057        19.5518        0.11860        0.14040         2.5170
         4028.0          7.957        103.452         2.6333        20.4101        22.5377        0.11080        0.13640         2.5270
         4028.5          7.925        116.816         2.7173        20.0023        20.9681        0.10590        0.13670         2.5371
         4029.0          7.886        125.998         2.7687        14.6748        15.1704        0.10100        0.14450         2.5472
         4029.5          7.882        122.817         2.7887         9.3473         9.3727        0.09620        0.14170         2.5573
         4030.0          7.958        105.344         2.7123         4.0198         6.8821        0.09580        0.13600         2.5508
         4030.5          7.891         82.872         2.5840         4.6877         7.3006        0.10530        0.12890         2.5194
         4031.0          7.890         49.429         2.4672         5.8427         8.1344        0.11100        0.11680         2.5297
         4031.5          7.862         49.600         2.5975         6.9977         8.9683        0.09950        0.10450         2.5468
         4032.0          7.806         54.583         2.8161         8.1526         9.8021        0.08790        0.09180         2.5640
         4032.5          7.815         56.727         2.9163         8.7388        10.4689        0.08650        0.08680         2.5811
         4033.0          7.819         64.414         2.9067         8.9153        10.0858        0.10520        0.10050         2.5680
         4033.5          7.827         78.680         2.7882         6.7013         7.7739        0.10790        0.10880         2.5549
         4034.0          7.839         83.133         2.6697         4.4874         6.2357        0.09860        0.13090         2.5417
         4034.5          7.765         79.193         2.5096         3.9006         4.8908        0.12460        0.13380         2.5286
         4035.0          7.684         71.677         2.4513         3.3139         4.1746        0.15220        0.13640         2.5005
         4035.5          7.600         67.007         2.4652         3.1803         3.9506        0.15210        0.13690         2.4686
         4036.0          7.699         64.099         2.5344         3.2925         3.9378        0.15460        0.13560         2.4584
         4036.5          7.616         59.507         2.3255         3.1277         3.9371        0.16390        0.12960         2.4440
         4037.0          7.621         57.558         2.2835         3.2764         4.0107        0.17260        0.12380         2.4388
         4037.5          7.724         59.633         2.2692         3.4610         4.0847        0.17340        0.13100         2.4399
         4038.0          7.689         64.069         2.2909         3.4758         4.1692        0.16170        0.12270         2.4472
         4038.5          7.682         68.318         2.4243         4.1378         4.5541        0.14800        0.12850         2.4577
         4039.0          7.683         73.724         2.4786         4.9616         5.0811        0.14040        0.13700         2.4683
         4039.5          7.685         81.764         2.4826         5.7855         5.9696        0.13820        0.13560         2.4796
         4040.0          7.717         89.240         2.5102         6.6093         7.0992        0.13480        0.13070         2.4998
         4040.5          7.722         78.828         2.6504         7.4331         8.0029        0.13070        0.12570         2.5201
         4041.0          7.725         63.695         2.7490         6.2554         7.5446        0.10800        0.10340         2.5403
         4041.5          7.740         54.636         2.8170         4.6677         5.7448        0.09290        0.08190         2.5605
         4042.0          7.704         52.564         2.7969         3.0800         3.9449        0.10460        0.08430         2.5373
         4042.5          7.652         51.467         2.6657         2.3232         3.1203        0.13770        0.11380         2.4605
         4043.0          7.691         52.066         2.5293         2.2356         2.8701        0.16270        0.14690         2.4421
         4043.5          7.752         53.712         2.3291         2.6098         3.2781        0.17310        0.16350         2.4367
         4044.0          7.807         56.715         2.2512         2.9841         3.9808        0.16310        0.15420         2.4507
         4044.5          7.848         62.020         2.2518         3.1888         4.0811        0.15310        0.14360         2.4618
         4045.0          7.845         63.822         2.2116         2.7199         3.3083        0.16540        0.13510         2.4468
         4045.5          7.780         67.757         2.1937         2.2509         2.7683        0.17780        0.14000         2.4124
         4046.0          7.662         68.795         2.1969         1.9574         2.6161        0.18870        0.14810         2.3994
         4046.5          7.591         65.822         2.2216         2.4783         3.4004        0.18230        0.15300         2.4112
         4047.0          7.687         64.784         2.2889         3.1294         4.1847        0.15160        0.11630         2.4690
         4047.5          7.840         64.457         2.4057         3.5201         4.2470        0.10140        0.10030         2.5386
         4048.0          7.853         61.603         2.5572         3.0734         3.7741        0.08680        0.08430         2.5630
         4048.5          7.866         58.612         2.4367         2.6266         3.5247        0.10800        0.08940         2.5390
         4049.0          7.871         54.544         2.2791         2.5139         3.4117        0.13290        0.10730         2.5149
         4049.5          7.874         49.207         2.2974         2.3821         3.3040        0.13970        0.09730         2.4909
         4050.0          7.784         49.138         2.4333         2.1755         3.1963        0.12370        0.09530         2.4687
         4050.5          7.734         51.099         2.6185         1.9689         3.0129        0.12560        0.11690         2.4539
         4051.0          7.724         52.882         2.5181         1.6838         2.5265        0.15230        0.14130         2.4390
         4051.5          7.724         56.580         2.3953         1.6401         2.3920        0.17330        0.15720         2.4242
         4052.0          7.687         60.588         2.3194         1.6798         2.3994        0.18630        0.15310         2.4093
         4052.5          7.645         61.690         2.2700         1.6278         2.2649        0.19330        0.15910         2.3945
         4053.0          7.611         58.778         2.2028         1.5632         2.1205        0.19830        0.16470         2.3908
         4053.5          7.630         62.150         2.1757         1.6398         2.2515        0.19740        0.16800         2.3958
         4054.0          7.637         64.719         2.1658         1.7164         2.3446        0.19190        0.16090         2.4011
