~VERSION INFORMATION
VERS. 2.0 : CWLS Log ASCII Standard - Version 2.0
WRAP. NO : One line per depth step
#--------------------------------------------------#
#----------------DRILLING INFO, INC.---------------#
#---------------WWW.DRILLINGINFO.COM---------------#
#------------------COPYRIGHT 2015------------------#
#--------------------------------------------------#
#THIS FILE MAY BE USED ONLY IN ACCORDANCE WITH A CURRENT SUBSCRIPTION AGREEMENT BETWEEN
#THE USER AND DRILLING INFO, INC. NO PART OF THIS FILE MAY BE REPRODUCED, USED, COPIED,
#MODIFIED, PROPAGATED, OR DISTRIBUTED EXCEPT IN ACCORDANCE WITH THE SUBSCRIPTION
#AGREEMENT. UNAUTHORIZED USE OR DISTRIBUTION OF ALL OR ANY PART OF THIS FILE MAY VIOLATE
#COPYRIGHT, TRADEMARK, AND/OR OTHER LAWS AND IS SUBJECT TO CIVIL AS WELL AS CRIMINAL
#SANCTIONS.
#--------------------------------------------------#
#THIS FILE IS PROVIDED "AS-IS" AND ALL WARRANTIES ARE EXPRESSLY DISCLAIMED, WHETHER
#EXPRESS, ORAL, IMPLIED, STATUTORY OR OTHERWISE, INCLUDING ANY IMPLIED WARRANTY OF FITNESS
#FOR A PARTICULAR PURPOSE, MERCHANTABILITY, TITLE OR NON-INFRINGEMENT, AND ANY WARRANTIES
#ARISING BY VIRTUE OF CUSTOM OF TRADE OR COURSE OF DEALING.  FURTHER, DRILLING INFO,
#INC. AND ITS LICENSORS DO NOT REPRESENT OR WARRANT THAT THIS FILE WILL MEET USER'S
#REQUIREMENTS OR ARE SUITABLE FOR USER'S NEEDS OR THAT THE DATA OR RESULTS PROVIDED IN
#CONJUNCTION THEREWITH ARE CORRECT, ACCURATE, TIMELY OR RELIABLE. THESE DISCLAIMERS SHALL
#APPLY REGARDLESS OF ANY FAILURE OF ESSENTIAL PURPOSE OF ANY LIMITED REMEDY.  SOME
#JURISDICTIONS DO NOT ALLOW THE EXCLUSION OF CERTAIN WARRANTIES SO SOME OF THE ABOVE
#EXCLUSIONS MAY NOT APPLY. IN NO EVENT SHALL DRILLING INFO, INC. OR ANY OF ITS AFFILIATES
#BE LIABLE UNDER ANY LEGAL THEORY, WHETHER IN TORT (INCLUDING WITHOUT LIMITATION
#NEGLIGENCE), CONTRACT, STRICT LIABILITY, STATUTORY OR OTHERWISE, FOR ANY SPECIAL,
#INCIDENTAL, CONSEQUENTIAL, EXEMPLARY, PUNITIVE OR INDIRECT DAMAGE OF ANY KIND, INCLUDING
#WITHOUT LIMITATION LOSS OF REVENUE, PROFITS, GOODWILL, USE, AND/OR DATA OR THE COST OF
#PROCUREMENT OF SUBSTITUTE GOODS OR SERVICES, EVEN IF APPRISED OF THE POSSIBILITY OF SUCH
#DAMAGES IN ADVANCE.
#--------------------------------------------------#
~WELL INFORMATION
#MNEMONIC     .UNIT              VALUE :DESCRIPTION
#--------------------------------------------------#
STRT       .ft                97.00000 :START DEPTH
STOP       .ft                8647.00000 :STOP DEPTH
STEP       .ft                0.50000 :STEP
NULL       .                -999.25000 :NULL VALUE
COMP       .                 :COMPANY
WELL       .                 :WELL
FLD       .                 :FIELD
LOC       .                 :LOCATION
CNTY       .                 :COUNTY
STAT       .                 :STATE
CTRY       .                 :COUNTRY
SRVC       .                 :SERVICE COMPANY
DATE       .                 :DATE
API       .                42109002030000 :API NUMBER
~CURVE INFORMATION
#MNEMONIC     .UNIT      API CODE :CURVE DESCRIPTION
#--------------------------------------------------#
DEPTH       .ft                      :Measured Depth
DT       .us/ft        UNKNOWN   :DT
GR       .gAPI        UNKNOWN   :GR
ILD       .ohmm        UNKNOWN   :ILD
ILS       .ohmm        UNKNOWN   :ILS
SP       .mV        UNKNOWN   :SP
~A    DEPTH    DT    GR    ILD    ILS    SP
# ...
2601.50000    73.08629    38.60321    568.39599    534.45450    -102.12533
2602.00000    72.40765    39.98671    573.05292    537.35729    -101.88615
2602.50000    71.72902    38.89535    577.65990    540.26007    -101.64697
2603.00000    70.87442    37.58166    582.26688    543.16286    -101.40780
2603.50000    69.98341    36.26796    586.87386    546.06565    -101.16862
2604.00000    69.09240    34.95427    591.48085    546.64621    -100.92944
2604.50000    68.20139    33.64057    588.44675    545.66000    -100.69027
2605.00000    67.31038    32.32688    581.84794    544.67379    -100.45109
2605.50000    66.41937    29.76998    575.24914    543.68759    -100.21191
2606.00000    65.52836    28.70430    568.65033    542.70138    -100.05448
2606.50000    64.63735    28.36964    559.65175    541.71517    -99.99875
2607.00000    63.74634    28.03498    549.43011    540.72897    -99.94303
2607.50000    64.31364    27.70033    539.20847    539.74276    -99.88730
2608.00000    66.75131    27.90503    526.94663    538.75655    -99.83158
2608.50000    69.18897    29.25914    509.54735    537.77035    -99.77586
2609.00000    71.62664    30.70522    492.14808    536.78414    -99.72013
2609.50000    74.06430    32.44713    474.74880    535.79793    -99.66441
2610.00000    75.87210    34.18903    457.34953    534.81173    -99.60868
2610.50000    74.29116    35.93093    439.95025    533.82552    -99.55296
2611.00000    72.71023    37.41555    438.13985    532.83931    -99.49724
2611.50000    73.22419    37.33947    440.59408    531.85311    -99.44151
2612.00000    77.38376    37.26339    443.04831    530.86690    -99.38579
2612.50000    79.76821    37.18731    445.50255    529.88070    -99.33006
2613.00000    79.46037    37.11122    447.95678    528.89449    -99.27434
2613.50000    79.15253    37.03514    450.41101    527.90828    -99.21861
2614.00000    78.84469    36.95906    450.95510    527.51021    -99.16289
2614.50000    78.53685    37.32977    445.01272    529.64472    -99.10717
2615.00000    78.22901    38.14741    439.07034    531.77922    -99.05144
2615.50000    78.33001    38.96506    440.51724    533.91373    -98.99572
2616.00000    78.98444    39.78271    447.99940    536.04824    -98.93999
2616.50000    79.63888    40.64961    455.48156    538.18275    -98.88427
2617.00000    80.29332    41.67161    462.96373    540.31725    -98.82855
2617.50000    80.28536    42.69361    470.44589    542.45176    -98.87490
2618.00000    79.58799    43.71560    477.92806    544.58627    -99.02359
2618.50000    78.89061    44.70483    485.41022    546.72078    -99.17227
2619.00000    78.19323    44.15840    491.64355    548.85529    -99.32096
2619.50000    77.49586    43.61196    496.14661    550.98979    -99.46964
2620.00000    76.79848    43.06553    500.64967    553.12430    -99.61833
2620.50000    76.10110    42.51909    505.15273    555.25881    -99.76701
2621.00000    75.40373    41.97266    509.65578    557.39332    -99.91570
2621.50000    75.20382    41.42623    514.15884    559.52782    -100.06439
2622.00000    75.61838    40.87979    518.66190    561.66233    -100.21307
2622.50000    76.03293    41.89607    513.27775    562.37093    -100.36176
2623.00000    76.44748    45.52997    506.67534    561.87337    -100.51044
2623.50000    76.86204    45.95073    498.92980    561.37581    -100.65913
2624.00000    77.27659    46.37149    491.03002    560.87825    -100.80781
2624.50000    77.69115    46.79225    483.13023    560.38069    -100.95650
2625.00000    78.10570    47.56084    475.23045    559.88313    -101.10518
2625.50000    78.52026    48.77695    476.05988    559.38557    -101.25387
2626.00000    78.88592    49.99306    478.44569    558.88801    -101.40255
2626.50000    78.92057    54.45566    480.83150    558.39045    -101.55124
2627.00000    78.95522    55.12227    483.21731    557.89289    -101.69992
2627.50000    78.98988    55.07850    485.60311    557.39533    -101.84861
2628.00000    79.02453    55.03474    487.98892    556.89777    -101.80999
2628.50000    79.05918    55.01338    490.37473    556.40021    -101.76569
2629.00000    79.53899    55.27916    492.76054    555.90265    -101.72140
2629.50000    80.12580    55.54494    490.34231    555.40509    -101.67711
2630.00000    80.71261    55.81072    487.80912    554.90753    -101.63281
2630.50000    81.29943    56.07649    485.27592    554.40997    -101.58852
2631.00000    81.88624    54.05196    482.74273    553.91241    -101.54423
2631.50000    76.49906    51.10050    480.20954    553.41485    -101.49993
2632.00000    76.43835    48.14904    477.67634    552.91729    -101.45564
2632.50000    76.37764    45.19758    475.14315    552.41973    -101.48551
2633.00000    76.31693    42.60700    483.60907    551.92217    -101.80228
2633.50000    76.25622    41.01873    497.29691    551.42462    -102.11904
2634.00000    76.19551    39.43045    510.98476    550.92706    -102.43580
2634.50000    76.13480    37.84217    524.67260    550.42950    -102.75256
2635.00000    74.65778    37.09665    535.56660    549.93194    -103.06932
2635.50000    74.45874    36.70092    535.36121    549.43438    -103.38608
2636.00000    74.25969    36.30519    535.15582    548.93682    -103.70285
2636.50000    74.06064    35.90946    534.95044    548.02374    -104.01961
2637.00000    73.86159    35.51373    534.74505    544.65679    -104.33637
2637.50000    73.66254    35.18180    534.53966    541.28984    -104.65313
2638.00000    72.67254    34.88335    534.33427    537.92289    -104.96989
2638.50000    71.59181    34.58490    534.12888    534.55594    -105.28665
2639.00000    70.51107    34.28645    533.92349    531.18898    -105.39638
2639.50000    70.05406    33.54520    533.71810    527.82203    -105.50093
2640.00000    70.90008    30.87842    533.51272    524.45508    -105.60548
2640.50000    71.74611    28.21163    533.30733    521.08813    -105.71003
2641.00000    75.04324    25.93702    536.71168    517.72118    -105.81457
2641.50000    78.51845    23.83521    547.76114    514.35422    -105.91912
2642.00000    81.99365    23.36308    558.81060    510.98727    -106.02367
2642.50000    85.46886    23.12311    569.86006    507.62032    -106.12822
2643.00000    88.94406    23.09659    564.41047    504.25337    -106.23276
2643.50000    89.25261    25.18939    539.71325    500.88642    -106.33731
2644.00000    82.90040    27.28220    515.01603    497.51946    -106.44186
2644.50000    76.54820    29.37500    490.31882    494.15251    -106.54640
2645.00000    73.74426    31.43067    464.84405    490.78556    -106.65095
2645.50000    74.49904    32.70111    437.19667    487.41861    -106.75550
2646.00000    75.25382    32.07668    409.54929    484.51035    -106.86005
2646.50000    76.00860    31.45226    381.90191    486.55433    -106.96459
2647.00000    76.76338    30.82784    355.33283    488.59830    -107.06914
2647.50000    77.51816    30.20341    361.19097    490.64227    -107.17369
2648.00000    78.14993    30.49367    367.04911    492.68625    -107.20675
2648.50000    78.15003    31.82050    372.90726    494.73022    -107.23149
2649.00000    78.15013    33.14734    378.76540    496.77420    -107.25622
2649.50000    78.15022    34.77774    384.62354    498.81817    -107.28096
2650.00000    78.15032    36.99587    390.48169    500.86214    -107.30570
2650.50000    77.07400    39.21399    396.33983    502.90612    -107.33044
2651.00000    75.31526    41.43212    402.19797    504.95009    -107.35518
2651.50000    73.55653    40.86158    408.05612    506.99407    -107.37991
2652.00000    72.17135    39.68444    423.17353    509.03804    -107.40465
2652.50000    72.72895    38.50730    439.08990    511.08201    -107.42939
2653.00000    73.28655    37.33017    455.00627    513.12599    -107.45413
2653.50000    73.79231    36.15303    466.39849    516.93405    -107.47886
2654.00000    72.45392    35.53603    476.20875    521.88843    -107.50360
2654.50000    71.11554    35.30284    486.01901    526.84282    -107.55733
2655.00000    70.36325    35.06965    495.82927    531.79721    -107.71411
