~Version Information Block
 VERS.                2.00:     CWLS LOG ASCII STANDARD - VERSION 2.000000
 WRAP.                  NO:     One Line Per Depth Step
#
~Well Information Block
#MNEM.UNIT                     Data                         Information
#----------   ------------------------------------------   ----------------
 STRT.FT                                      250.0000:     START DEPTH
 STOP.FT                                    10290.0000:     STOP DEPTH
 STEP.FT                                        0.5000:     STEP
 NULL.                                       -999.2500:     NULL VALUE
 COMP.                                                :     COMPANY
 WELL.                                                :     WELL
 FLD .                                                :     FIELD
 LOC .                                                :     LOCATION
 CNTY.                                                :     COUNTY
 STAT.                                                :     STATE
 CTRY.                                                :     COUNTRY
 SRVC.                                                :     SERVICE COMPANY
 DATE.                                                :     DATE
 API .                                                4210931550:     API NUMBER
 UWI .                                                :     UWI NUMBER
 TVD .                                              NO:     TVD flag
 WSTA.                                             LOC:     Well status
#
~Curve Information Block
#MNEM.UNIT       API CODE      Curve Description
#----------    -------------   -------------------
 DEPT.FT                   :   Depth in Feet
 LLS .OHMM                 :   Latero-Log Shallow (Resistivity)
 LLD .OHMM                 :   Latero-Log Deep (Resistivity)
 SFLU.OHMM                 :   SFL Resistivity (Unaveraged)
 ILD .OHMM                 :   Deep Induction Standard Processed Resistivity
 ILM .OHMM                 :   Medium Induction Standard Processed Resistivity
#
~Parameter Information Block
#MNEM.UNIT            Value               Description
#----------    --------------------    -------------------
 RUN .                         ONE:    Run Number
 PDAT.                          GL:    Permanent Datum
 EPD .FT                          :    Elevation Of Perm. Datum
 LMF .               KELLY BUSHING:    Log Measured From
 EKB .FT                          :    Elevation Of Kelly Bushing
 DF .FT                           :    Elevation Of Derrick Floor
 GL .FT                           :    Elevation Of Ground Level
 TD  .FT                          :    Total Depth
 CSGD.FT                          :    Casing Bottom (Driller) 1
 CSGL.FT                          :    Casing Bottom (Logger) 1
 MUD .                            :    Drilling Fluid Type
 MUDV .CP                         :    Drilling Fluid Viscosity
 MUDD .LB/USG                     :    Drilling Fluid Density
 FL .ML/30MIN                     :    Drilling Fluid Loss
 PH.                              :    Drilling Fluid Ph
 MUDS .                           :    Mud Sample Source
 RM .OHMM                         :    Resistivity Of Mud Sample
 RMT .DEGF                        :    Mud Sample Temperature
 RMF .OHMM                        :    Mud Filtrate Resistivity
 RMFT.DEGF                        :    Mud Filtrate Sample Temperature
 RMC .OHMM                        :    Mud Cake Resistivity
 RMCT.DEGF                        :    Mud Cake Sample Temperature
 RMB .OHMM                        :    Mud Resistivity At Bht
 TMAX .DEGF                       :    Bottom Hole Temperature
#
~Other Information Block
<DescLogPlotStart>   NEURALOG PLOT DEFINITION
PLOTDEFVERSION: 3
LASFILE: E:\nds\projects\Texas Standard Oil LLC\pdf\Pradeep+Ekta\42109315500000
DEPTHSCALE: 240.000000
RESOLUTION: 200
DEPTHLABELFREQ: 100.000000
HEAVYGRIDFREQ: 100.000000
MEDIUMGRIDFREQ: 50.000000
LIGHTGRIDFREQ: 10.000000
#
#   TRACK 1
#
STARTTRACK: 
 LEFTX: 1.000000 inch
 RIGHTX: 6.000000 inch
 SCALETYPE: Log
 NUMCYCLES: 4
 STARTCYCLE: 2
CURVE: SFLU  0.200000   2000.000000 (0,0,255)      Solid             2     N   
CURVE: ILD   0.200000   2000.000000 (0,131,131)    Dot               2     N   
CURVE: ILM   0.200000   2000.000000 (255,0,255)    Short_Dash        2     N   
ENDTRACK: 
#
#   TRACK 2
#
STARTTRACK: 
 LEFTX: 1.000000 inch
 RIGHTX: 6.000000 inch
 SCALETYPE: Log
 NUMCYCLES: 4
 STARTCYCLE: 2
CURVE: LLS   0.200000   2000.000000 (255,0,0)      Solid             2     Y   
BACKUP: 2000.000000 20000000.000000 (255,0,0)      Solid             2    
CURVE: LLD   0.200000   2000.000000 (255,131,0)    Dot               2     Y   
BACKUP: 2000.000000 20000000.000000 (255,131,0)    Dot               2    
ENDTRACK: 
<DescLogPlotEnd>
~A DEPTH     LLS              LLD              SFLU             ILD              ILM             
# ...
    4432.000 -999.25000000    -999.25000000    1072.05621368    835.39636925     261.37417100    
    4432.500 -999.25000000    -999.25000000    1670.30311695    805.09001238     297.76359376    
    4433.000 -999.25000000    -999.25000000    1781.88447636    761.67942158     308.02976444    
    4433.500 -999.25000000    -999.25000000    1831.95859034    663.11931915     305.19727218    
    4434.000 -999.25000000    -999.25000000    1162.61505052    526.36957451     285.40227131    
    4434.500 -999.25000000    -999.25000000    794.41428841     433.54883119     154.78446994    
    4435.000 -999.25000000    -999.25000000    542.82288995     388.05527060     155.94891016    
    4435.500 -999.25000000    -999.25000000    370.91061195     363.75530324     141.76912230    
    4436.000 -999.25000000    -999.25000000    350.55905480     337.84153745     156.93291719    
    4436.500 -999.25000000    -999.25000000    347.33548382     367.13126421     190.94735487    
    4437.000 -999.25000000    -999.25000000    783.13519523     471.13605891     249.21782816    
    4437.500 -999.25000000    -999.25000000    1734.26893143    593.53624856     310.41552105    
    4438.000 -999.25000000    -999.25000000    1725.56836350    768.74845942     527.53775962    
    4438.500 -999.25000000    -999.25000000    1880.90423134    1594.90607035    783.08396417    
    4439.000 -999.25000000    -999.25000000    1885.45757482    1848.96073617    950.73851750    
    4439.500 -999.25000000    -999.25000000    1882.80582518    1918.56197708    1254.35992996   
    4440.000 -999.25000000    -999.25000000    1902.68285698    1883.43987574    1314.71774898   
    4440.500 -999.25000000    -999.25000000    1900.10591857    1887.76566698    1313.33582973   
    4441.000 -999.25000000    -999.25000000    1901.08051549    1890.46010754    1310.76846524   
    4441.500 -999.25000000    -999.25000000    1900.91981201    1893.15805597    1401.41449614   
    4442.000 -999.25000000    -999.25000000    1900.91981201    1895.90377514    1609.70816562   
    4442.500 -999.25000000    -999.25000000    1900.91981201    1898.73494846    1551.31146685   
    4443.000 -999.25000000    -999.25000000    1900.78723496    1900.91981201    1798.42189149   
    4443.500 -999.25000000    -999.25000000    1900.91981201    1815.11278800    988.37526641    
    4444.000 -999.25000000    -999.25000000    1900.91981201    1701.45067632    482.32336910    
    4444.500 -999.25000000    -999.25000000    1733.17907065    1551.31146685    391.65675610    
    4445.000 -999.25000000    -999.25000000    1551.31146685    1580.24008796    433.54883119    
    4445.500 -999.25000000    -999.25000000    1454.16855741    1624.64763702    561.53267279    
    4446.000 -999.25000000    -999.25000000    1414.42082376    1685.80496144    907.82242904    
    4446.500 -999.25000000    -999.25000000    1737.08849470    1717.24159685    1815.11278800   
    4447.000 -999.25000000    -999.25000000    1903.18909198    1815.11278800    1848.96073617   
    4447.500 -999.25000000    -999.25000000    1902.26296119    1832.24202509    1866.12067648   
    4448.000 -999.25000000    -999.25000000    1883.43987574    1831.78611953    1866.12067648   
    4448.500 -999.25000000    -999.25000000    1883.43987574    1831.35335150    1831.95859034   
    4449.000 -999.25000000    -999.25000000    1881.69466151    1884.42605117    1765.49913127   
    4449.500 -999.25000000    -999.25000000    1902.68217516    1883.43987574    1780.63986110   
    4450.000 -999.25000000    -999.25000000    1900.10503616    1883.43987574    831.18985845    
    4450.500 -999.25000000    -999.25000000    1901.08094576    1883.43987574    859.51826979    
    4451.000 -999.25000000    -999.25000000    1899.66033986    1881.08061096    1242.82544465   
    4451.500 -999.25000000    -999.25000000    1897.61909046    1875.76510531    1654.94381991   
    4452.000 -999.25000000    -999.25000000    1895.58770163    1870.42907628    1848.96073617   
    4452.500 -999.25000000    -999.25000000    1893.56055345    1865.10221112    1866.12067648   
    4453.000 -999.25000000    -999.25000000    1891.53604793    1859.82519575    1866.12067648   
    4453.500 -999.25000000    -999.25000000    1889.51370692    1854.64542210    1866.12067648   
    4454.000 -999.25000000    -999.25000000    1887.49352810    1848.96073617    1866.12067648   
    4454.500 -999.25000000    -999.25000000    1885.47550917    1815.11278800    1866.12067648   
    4455.000 -999.25000000    -999.25000000    1883.45964780    1781.88447636    1866.12067648   
    4455.500 -999.25000000    -999.25000000    1881.44594169    1782.51115173    1866.12067648   
    4456.000 -999.25000000    -999.25000000    1879.43438855    1779.97852398    1866.12893711   
    4456.500 -999.25000000    -999.25000000    1877.42498606    1828.98665173    1867.34035180   
    4457.000 -999.25000000    -999.25000000    1875.41773193    1851.61603835    1866.12067648   
    4457.500 -999.25000000    -999.25000000    1873.41262386    1848.96073617    1831.95859034   
    4458.000 -999.25000000    -999.25000000    1871.40965956    1883.43987574    1701.45067632   
    4458.500 -999.25000000    -999.25000000    1869.40883674    1883.39219924    1325.84998745   
    4459.000 -999.25000000    -999.25000000    1867.41015310    1883.43987574    1350.57423706   
    4459.500 -999.25000000    -999.25000000    1865.41360635    1883.43987574    1685.80496144   
    4460.000 -999.25000000    -999.25000000    1863.41919422    1883.43987574    1478.30116657   
    4460.500 -999.25000000    -999.25000000    1861.42691443    1883.43987574    1227.26789552   
    4461.000 -999.25000000    -999.25000000    1859.43676468    1883.43987574    1006.56076900   
    4461.500 -999.25000000    -999.25000000    1857.44874271    1883.43987574    823.61988050    
    4462.000 -999.25000000    -999.25000000    1855.46284623    1883.13547660    765.44953055    
    4462.500 -999.25000000    -999.25000000    1853.51140961    1889.15095507    927.95500686    
    4463.000 -999.25000000    -999.25000000    1850.86954388    1875.77324785    1036.39185199   
    4463.500 -999.25000000    -999.25000000    1850.92125918    1551.31146685    747.73575848    
    4464.000 -999.25000000    -999.25000000    1890.28049309    1325.84998745    347.33548382    
    4464.500 -999.25000000    -999.25000000    1509.50287973    740.85994325     258.44253821    
    4465.000 -999.25000000    -999.25000000    802.67646111     507.27403524     152.71121604    
    4465.500 -999.25000000    -999.25000000    405.64051896     380.95134761     110.62809868    
    4466.000 -999.25000000    -999.25000000    204.99446364     180.25801713     111.16912996    
    4466.500 -999.25000000    -999.25000000    170.39046293     165.87703522     99.48886843     
    4467.000 -999.25000000    -999.25000000    171.64572901     159.85937844     90.07896630     
    4467.500 -999.25000000    -999.25000000    183.73794661     156.93291719     89.16189066     
    4468.000 -999.25000000    -999.25000000    201.39051975     158.38938916     96.23523018     
    4468.500 -999.25000000    -999.25000000    350.47450459     181.93096602     96.17808688     
    4469.000 -999.25000000    -999.25000000    820.10320891     194.08451127     125.72602392    
    4469.500 -999.25000000    -999.25000000    1052.03696247    209.16258049     152.10162049    
    4470.000 -999.25000000    -999.25000000    1565.70896684    213.06812235     144.97831549    
    4470.500 -999.25000000    -999.25000000    1304.19621201    205.04169959     128.00487280    
    4471.000 -999.25000000    -999.25000000    1033.16435421    167.25637637     98.88086169     
    4471.500 -999.25000000    -999.25000000    516.73360457     149.58247825     82.19994373     
    4472.000 -999.25000000    -999.25000000    298.54450072     133.43129624     72.89790558     
    4472.500 -999.25000000    -999.25000000    104.51640403     121.16495819     65.38119224     
