~Version Information Block
 VERS.                2.00:     CWLS LOG ASCII STANDARD - VERSION 2.000000
 WRAP.                  NO:     One Line Per Depth Step
#
~Well Information Block
#MNEM.UNIT                     Data                         Information
#----------   ------------------------------------------   ----------------
 STRT.FT                                        4.0000:     START DEPTH
 STOP.FT                                    10300.0000:     STOP DEPTH
 STEP.FT                                        0.5000:     STEP
 NULL.                                       -999.2500:     NULL VALUE
 COMP.                            MONSANTO OIL COMPANY:     COMPANY
 WELL.                               UNIVERSITY_6-46-1:     WELL
 FLD .                                         WILDCAT:     FIELD
 LOC .                                                :     LOCATION
 CNTY.                                       CULBERSON:     COUNTY
 STAT.                                           TEXAS:     STATE
 CTRY.                                             USA:     COUNTRY
 SRVC.                                                :     SERVICE COMPANY
 DATE.                                      10/31/2016:     DATE
 API .                                  42109315500000:     API NUMBER
 UWI .                                  42109315500000:     UWI NUMBER
 TVD .                                              NO:     TVD flag
 WSTA.                                             LOC:     Well status
#
~Curve Information Block
#MNEM.UNIT       API CODE      Curve Description
#----------    -------------   -------------------
 DEPT.FT                   :   Depth in Feet
 CALI.IN                   :   Caliper
 GR  .GAPI                 :   Gamma Ray
 DPHI.V/V                  :   Density Porosity
 NPHI.V/V                  :   Neutron Porosity
 DRHO.G/C3                 :   Delta Rho
 RHOB.G/C3                 :   Bulk Density
#
~Parameter Information Block
#MNEM.UNIT            Value               Description
#----------    --------------------    -------------------
 RUN .                         ONE:    Run Number
 PDAT.                          GL:    Permanent Datum
 EPD .FT                          :    Elevation Of Perm. Datum
 LMF .               KELLY BUSHING:    Log Measured From
 EKB .FT                          :    Elevation Of Kelly Bushing
 DF .FT                           :    Elevation Of Derrick Floor
 GL .FT                           :    Elevation Of Ground Level
 TD  .FT                          :    Total Depth
 CSGD.FT                          :    Casing Bottom (Driller) 1
 CSGL.FT                          :    Casing Bottom (Logger) 1
 MUD .                            :    Drilling Fluid Type
 MUDV .CP                         :    Drilling Fluid Viscosity
 MUDD .LB/USG                     :    Drilling Fluid Density
 FL .ML/30MIN                     :    Drilling Fluid Loss
 PH.                              :    Drilling Fluid Ph
 MUDS .                           :    Mud Sample Source
 RM .OHMM                         :    Resistivity Of Mud Sample
 RMT .DEGF                        :    Mud Sample Temperature
 RMF .OHMM                        :    Mud Filtrate Resistivity
 RMFT.DEGF                        :    Mud Filtrate Sample Temperature
 RMC .OHMM                        :    Mud Cake Resistivity
 RMCT.DEGF                        :    Mud Cake Sample Temperature
 RMB .OHMM                        :    Mud Resistivity At Bht
 TMAX .DEGF                       :    Bottom Hole Temperature   
#
~Other Information Block
<DescLogPlotStart>   NEURALOG PLOT DEFINITION
PLOTDEFVERSION: 3
LASFILE: E:\nds\projects\Texas Standard Oil LLC\pdf\Pradeep+Ekta\42109315500000
DEPTHSCALE: 240.000000
RESOLUTION: 200
DEPTHLABELFREQ: 100.000000
HEAVYGRIDFREQ: 100.000000
MEDIUMGRIDFREQ: 50.000000
LIGHTGRIDFREQ: 10.000000
#
#   TRACK 1
#
STARTTRACK: 
 LEFTX: 0.500000 inch
 RIGHTX: 3.000000 inch
 SCALETYPE: Linear
 NUMCHARTDIVISIONS: 10
CURVE: CALI  6.000000   16.000000  (0,0,255)      Solid             2     N    
CURVE: GR    0.000000   100.000000 (0,131,131)    Dot               2     Y    
BACKUP: 100.000000 200.000000 (0,131,131)    Dot               2    
ENDTRACK: 
#
#   TRACK 2
#
STARTTRACK: 
 LEFTX: 3.500000 inch
 RIGHTX: 8.500000 inch
 SCALETYPE: Linear
 NUMCHARTDIVISIONS: 10
CURVE: DPHI  0.300000   -0.100000  (255,0,255)    Solid             2     Y    
BACKUP: 0.700000   0.300000   (255,0,255)    Solid             2    
CURVE: NPHI  0.300000   -0.100000  (255,0,0)      Dot               2     Y    
BACKUP: 0.700000   0.300000   (255,0,0)      Dot               2    
CURVE: DRHO  -0.050000  0.950000   (255,131,0)    Short_Dash        2     N    
ENDTRACK: 
#
#   TRACK 3
#
STARTTRACK: 
 LEFTX: 8.500000 inch
 RIGHTX: 13.500000 inch
 SCALETYPE: Linear
 NUMCHARTDIVISIONS: 10
CURVE: RHOB  2.000000   3.000000   (255,255,0)    Solid             2     Y    
BACKUP: 1.000000   2.000000   (255,255,0)    Solid             2    
ENDTRACK: 
<DescLogPlotEnd>
~A DEPTH     CALI             GR               DPHI             NPHI             DRHO             RHOB            
# ...
    8894.000 9.13654542       146.47532627     0.09965578       0.22821665       0.03096984       2.38995957      
    8894.500 9.25227806       135.18362172     0.19395099       0.28816449       -0.00797857      2.39302348      
    8895.000 9.23944624       108.04426140     0.21153460       0.28655968       -0.02486227      2.39648420      
    8895.500 9.13379233       92.12664000      0.15697091       0.20932949       -0.01099177      2.36081371      
    8896.000 9.02610152       84.55254418      0.08241825       0.12006018       -0.00175728      2.61990955      
    8896.500 8.91624430       79.16681355      0.02577733       0.12006018       0.00752879       2.67480022      
    8897.000 8.89569148       79.83922001      0.02978937       0.12006018       0.01444144       2.67827882      
    8897.500 8.89545014       82.62518197      0.02016048       0.11925777       0.02011193       2.68151322      
    8898.000 8.89537811       85.54186689      0.01862075       0.12586724       0.02330415       2.68323292      
    8898.500 8.89647481       87.64312094      0.01612482       0.13170427       0.02535558       2.68339707      
    8899.000 8.92277741       85.63330437      0.01173521       0.13249321       0.02749619       2.68998100      
    8899.500 8.92835433       76.32367937      0.00812437       0.11855486       0.02715929       2.69577440      
    8900.000 8.93668839       67.47321832      0.00420352       0.07131394       0.02605314       2.69836272      
    8900.500 8.93646397       56.64217635      0.00067621       0.02459378       0.02492840       2.70089236      
    8901.000 8.93865382       59.08647983      0.00050150       0.01438315       0.02381217       2.70342181      
    8901.500 8.90120606       67.38384959      0.00451354       0.00812437       0.02268770       2.70575570      
    8902.000 8.92831321       77.10112211      0.00710732       0.00772317       0.02063847       2.70463315      
    8902.500 8.95464653       75.04612586      0.00761785       0.00772317       0.01649456       2.70152604      
    8903.000 8.98627053       61.92185438      0.00812437       0.00892678       0.01244406       2.69945213      
    8903.500 9.03534948       46.46890552      0.00932798       0.00892678       0.00981558       2.69919753      
    8904.000 9.08494267       30.99854740      0.00812437       0.00892678       0.00747145       2.69650385      
    8904.500 9.13457486       24.75548947      0.00692076       0.00852558       0.00516351       2.69884520      
    8905.000 9.18416588       22.00854156      0.00611836       0.00611836       0.00525153       2.69929037      
    8905.500 9.23379437       21.51066926      0.00245778       0.00371113       0.00857501       2.70225179      
    8906.000 9.28506909       23.62034212      -0.00069293      0.00130391       0.01179990       2.70818297      
    8906.500 9.30273128       25.55025023      -0.00395306      -0.00070211      0.01315593       2.71418840      
    8907.000 9.31127608       26.12218426      -0.00672016      -0.00110331      0.01442749       2.72019003      
    8907.500 9.31954587       25.16478132      -0.01033099      -0.00150451      0.01570623       2.72430925      
    8908.000 9.32792160       26.08171907      -0.01161255      -0.00110331      0.01692379       2.72829320      
    8908.500 9.33631372       35.44872122      -0.00987320      -0.00070211      0.01777834       2.72804485      
    8909.000 9.34470585       48.30359344      -0.00393164      -0.00030090      0.01860018       2.72278659      
    8909.500 9.35309798       60.95306427      -0.00144957      0.00010030       0.01942061       2.70641216      
    8910.000 9.36149010       73.58223632      0.00019913       0.00090271       0.02024145       2.71373779      
    8910.500 9.36988223       80.28685041      0.00067281       0.00170512       0.02106400       2.71133769      
    8911.000 9.37827436       76.83683377      0.00094430       0.00170512       0.02188728       2.70957335      
    8911.500 9.38666648       54.76564557      -0.00205501      -0.00070211      0.02278942       2.71420275      
    8912.000 9.39505892       23.37441579      -0.00529829      -0.00150451      0.02048115       2.71910673      
    8912.500 9.40345129       28.06512402      -0.00872618      -0.00190572      0.01706512       2.72448301      
    8913.000 9.41184404       22.02042007      -0.00391174      -0.00230692      0.01347827       2.72012013      
    8913.500 9.42002522       21.79243050      -0.00070211      -0.00230692      0.01604792       2.71682630      
    8914.000 9.42789942       21.65840872      -0.00290758      -0.00190572      0.02003770       2.70687881      
    8914.500 9.43578652       20.19866244      -0.00990916      -0.00110331      0.02806672       2.72168908      
    8915.000 9.43689561       18.82644371      -0.01795386      -0.00071120      0.03385833       2.73182221      
    8915.500 9.43689176       18.12131103      -0.01915747      -0.00028703      0.03308043       2.73973276      
    8916.000 9.43687551       17.30402058      -0.01503675      -0.00030224      0.03237450       2.73883365      
    8916.500 9.43688300       15.87682688      -0.01113814      -0.00030090      0.02938186       2.73432337      
    8917.000 9.43689400       14.73676685      -0.00623872      -0.00030090      0.02270833       2.72548593      
    8917.500 9.43681490       13.60119025      0.00010030       -0.00030090      0.01621732       2.71559477      
    8918.000 9.43216650       12.80935153      0.00153059       -0.00028152      0.01908837       2.71093386      
    8918.500 9.41943993       12.17850515      0.00102006       0.00008930       0.02259762       2.70559247      
    8919.000 9.39740348       10.92896853      -0.00148847      0.00010107       0.02575006       2.71085032      
    8919.500 9.39667063       10.67249440      -0.00030090      0.00010234       0.02183883       2.71207382      
    8920.000 9.39675165       12.02045025      0.00778153       0.00010185       0.02233307       2.67627577      
    8920.500 9.39674308       13.33242087      0.01632133       0.00007831       0.02661084       2.67900536      
    8921.000 9.39689190       13.33962021      0.01855567       -0.00070211      0.03371557       2.68469036      
    8921.500 9.41762924       12.42066225      0.00111013       -0.00070211      0.08261442       2.70237522      
    8922.000 9.43573460       12.07856436      -0.00511535      -0.00070211      0.07814043       2.71403913      
    8922.500 9.45508210       11.94402579      0.00172811       -0.00070151      0.06147010       2.70751040      
    8923.000 9.42547052       12.35273224      0.01083404       -0.00067960      0.03308647       2.70138914      
    8923.500 9.43653153       12.72721501      0.01416216       -0.00076536      0.02525455       2.69356175      
    8924.000 9.43065913       12.32107439      0.01241591       -0.00030090      0.02365935       2.68676926      
    8924.500 9.42204769       11.29251117      0.01253761       0.00090271       0.02686755       2.68826832      
    8925.000 9.43633264       10.76046958      0.01494483       0.00170512       0.03097619       2.68667550      
    8925.500 9.43752496       10.14149201      0.01534604       0.00250752       0.03520659       2.68460412      
    8926.000 9.41896355       10.59467771      0.01209056       0.00370689       0.03655652       2.68617264      
    8926.500 9.39777481       11.17407058      0.00932798       0.00453431       0.03697233       2.68972930      
    8927.000 9.39729930       12.68276610      0.01053159       0.00570297       0.03870894       2.69227473      
    8927.500 9.43790969       13.30906101      0.01281951       0.00651705       0.04215798       2.69046133      
    8928.000 9.43991566       12.79862017      0.00914263       0.00652223       0.04287762       2.69071684      
    8928.500 9.44848431       12.03889145      0.00260481       0.00655175       0.04063136       2.69819637      
