###############################################
##         ENVERUS                           ##
##         Petrophysical Curves              ##
##         PERMIAN / DELAWARE                ##
##         Jan 21 2022                       ##
##         42-389-30261-00-00                ##
###############################################
## Copyright 2017-2022  ENVERUS.  All Rights Reserved. 
## Confidential - Property of ENVERUS, use governed by terms and 
## conditions found within the existing Information Services Subscription Agreement 
## (as may be amended, the “ISSA”) between Customer and ENVERUS. 
## 
~VERSION INFORMATION
# MNEM.UNIT                               DATA : DESCRIPTION OF MNEMONIC
#-----.-----     ----------------------------- : -----------------------------
VERS.                                     2.00 : CWLS LOG ASCII STANDARD - VERSION 2.00
WRAP.                                       NO : MULTIPLE LINES PER DEPTH STEP
VEND.                                  ENVERUS : VENDOR
TYPE.                     PETROPHYSICAL CURVES : ENVERUS PETROPHYSICAL CURVES - ACCESSIBLE THROUGH ENVERUS CORE(TM)
#___________________________________________________________________________________________________ 
~WELL INFORMATION 
# uyaQ8P8kQDJ9DXFS5hR1PxmExEOYaAUkY5f3/tnOS+scoPAUWgXA1zCIHGRbWCuSuUcwDzaESCjqjWQ81XhadA== 
# MNEM.UNIT                                              DATA : DESCRIPTION OF MNEMONIC 
#-----.-----                    ----------------------------- : ----------------------------- 
CNTY.                                                  REEVES : COUNTY 
STATE.                                                  TEXAS : STATE 
CNTRY.                                                    USA : COUNTRY 
API.                                             42-389-30261 : API (10 Digit) 
API_14.                                    42-389-30261-00-00 : API (14 Digits) 
API_14_std.                                 42-389-30261-0000 : API (14 Digits Standard) 
UWI.                                           42389302610000 : UNIQUE WELL ID
STRT.FT                                                 202.0 : START DEPTH
STOP.FT                                               18968.0 : STOP DEPTH
STEP.FT                                                   0.5 : STEP BETWEEN DEPTHS
NULL.                                                 -999.25 : NULL VALUE
COMP.                                                      BP : COMPANY 
WELL.                                                TXL-39 1 : WELL NAME 
FLD.                                            CHAPMAN  DEEP : FIELD NAME
#___________________________________________________________________________________________________ 
~CURVE INFORMATION 
#    Zone Description
#          1 = Upper Avalon
#          2 = Middle Avalon
#          3 = Lower Avalon
#          4 = 1st Bone Spring
#          5 = 2nd Bone Spring
#          6 = 2nd Bone Spring Sand
#          7 = 3rd Bone Spring
#          8 = 3rd Bone Spring Sand
#          9 = Wolfcamp XY
#          10 = Wolfcamp A Upper
#          11 = Wolfcamp A Lower
#          12 = Wolfcamp B Upper
#          13 = Wolfcamp B Lower
#          14 = Wolfcamp C
#          15 = Wolfcamp D
#          16 = Pennsylvanian Shale
#          17 = Lower Pennsylvanian Shale
#          18 = Barnett
#          19 = Barnett Lower
#          20 = Mississippian Lime
#          21 = Woodford
#          22 = Base Woodford 
# MNEM.UNIT           : CURVE DESCRIPTION 
#-----.-----          : ----------------------------- 
 DEPT.FT               : MEASURED DEPTH 
 TVD_I.FT              : ENVERUS TRUE VERTICAL DEPTH 
 ZONE_I.               : ENVERUS DEFINED ZONE CODE 
 GR_N_I.API            : ENVERUS NORMALIZED GAMMA RAY LEVERAGED IN GEOLOGICAL MODELLING 
 RESD_I.OHMM           : ENVERUS DEEP RESISTIVITY LEVERAGED IN GEOLOGICAL MODELLING 
 TEMP_I.DEGF           : ENVERUS INTERPRETED TEMPERATURE DERIVED FROM BOTTOM HOLE TEMPERATURES 
 #___________________________________________________________________________________________________ 
~A         DEPT          TVD_I         ZONE_I         GR_N_I         RESD_I         TEMP_I
# ...
        18946.0      18946.000          22.00       -999.250      -999.2500        304.640
        18946.5      18946.500          22.00       -999.250      -999.2500        304.647
        18947.0      18946.998          22.00       -999.250      -999.2500        304.653
        18947.5      18947.500          22.00       -999.250      -999.2500        304.659
        18948.0      18948.000          22.00       -999.250      -999.2500        304.666
        18948.5      18948.500          22.00       -999.250      -999.2500        304.672
        18949.0      18949.000          22.00       -999.250      -999.2500        304.679
        18949.5      18949.500          22.00       -999.250      -999.2500        304.685
        18950.0      18950.000          22.00       -999.250      -999.2500        304.691
        18950.5      18950.500          22.00       -999.250      -999.2500        304.698
        18951.0      18951.000          22.00       -999.250      -999.2500        304.704
        18951.5      18951.500          22.00       -999.250      -999.2500        304.710
        18952.0      18952.000          22.00       -999.250      -999.2500        304.717
        18952.5      18952.500          22.00       -999.250      -999.2500        304.723
        18953.0      18953.000          22.00       -999.250      -999.2500        304.730
        18953.5      18953.500          22.00       -999.250      -999.2500        304.736
        18954.0      18954.000          22.00       -999.250      -999.2500        304.742
        18954.5      18954.500          22.00       -999.250      -999.2500        304.749
        18955.0      18955.000          22.00       -999.250      -999.2500        304.755
        18955.5      18955.500          22.00       -999.250      -999.2500        304.761
        18956.0      18956.000          22.00       -999.250      -999.2500        304.768
        18956.5      18956.502          22.00       -999.250      -999.2500        304.774
        18957.0      18957.000          22.00       -999.250      -999.2500        304.781
        18957.5      18957.500          22.00       -999.250      -999.2500        304.787
        18958.0      18958.000          22.00       -999.250      -999.2500        304.793
        18958.5      18958.500          22.00       -999.250      -999.2500        304.800
        18959.0      18959.000          22.00       -999.250      -999.2500        304.806
        18959.5      18959.500          22.00       -999.250      -999.2500        304.812
        18960.0      18960.000          22.00       -999.250      -999.2500        304.819
        18960.5      18960.500          22.00       -999.250      -999.2500        304.825
        18961.0      18961.000          22.00       -999.250      -999.2500        304.832
        18961.5      18961.500          22.00       -999.250      -999.2500        304.838
        18962.0      18962.000          22.00       -999.250      -999.2500        304.844
        18962.5      18962.500          22.00       -999.250      -999.2500        304.851
        18963.0      18963.000          22.00       -999.250      -999.2500        304.857
        18963.5      18963.500          22.00       -999.250      -999.2500        304.863
        18964.0      18963.998          22.00       -999.250      -999.2500        304.870
        18964.5       -999.250          22.00       -999.250      -999.2500        304.876
        18965.0       -999.250          22.00       -999.250      -999.2500        304.883
        18965.5       -999.250          22.00       -999.250      -999.2500        304.889
        18966.0       -999.250          22.00       -999.250      -999.2500        304.895
        18966.5       -999.250          22.00       -999.250      -999.2500        304.902
        18967.0       -999.250          22.00       -999.250      -999.2500        304.908
        18967.5       -999.250          22.00       -999.250      -999.2500        304.914
        18968.0       -999.250          22.00       -999.250      -999.2500        304.921
