###############################################
##         ENVERUS                           ##
##         Petrophysical Curves              ##
##         PERMIAN / DELAWARE                ##
##         Jan 21 2022                       ##
##         42-389-30261-00-00                ##
###############################################
## Copyright 2017-2022  ENVERUS.  All Rights Reserved. 
## Confidential - Property of ENVERUS, use governed by terms and 
## conditions found within the existing Information Services Subscription Agreement 
## (as may be amended, the “ISSA”) between Customer and ENVERUS. 
## 
~VERSION INFORMATION
# MNEM.UNIT                               DATA : DESCRIPTION OF MNEMONIC
#-----.-----     ----------------------------- : -----------------------------
VERS.                                     2.00 : CWLS LOG ASCII STANDARD - VERSION 2.00
WRAP.                                       NO : MULTIPLE LINES PER DEPTH STEP
VEND.                                  ENVERUS : VENDOR
TYPE.                     PETROPHYSICAL CURVES : ENVERUS PETROPHYSICAL CURVES - ACCESSIBLE THROUGH ENVERUS CORE(TM)
#___________________________________________________________________________________________________ 
~WELL INFORMATION 
# uyaQ8P8kQDJ9DXFS5hR1PxmExEOYaAUkY5f3/tnOS+scoPAUWgXA1zCIHGRbWCuSuUcwDzaESCjqjWQ81XhadA== 
# MNEM.UNIT                                              DATA : DESCRIPTION OF MNEMONIC 
#-----.-----                    ----------------------------- : ----------------------------- 
CNTY.                                                  REEVES : COUNTY 
STATE.                                                  TEXAS : STATE 
CNTRY.                                                    USA : COUNTRY 
API.                                             42-389-30261 : API (10 Digit) 
API_14.                                    42-389-30261-00-00 : API (14 Digits) 
API_14_std.                                 42-389-30261-0000 : API (14 Digits Standard) 
UWI.                                           42389302610000 : UNIQUE WELL ID
STRT.FT                                                 202.0 : START DEPTH
STOP.FT                                               18968.0 : STOP DEPTH
STEP.FT                                                   0.5 : STEP BETWEEN DEPTHS
NULL.                                                 -999.25 : NULL VALUE
COMP.                                                      BP : COMPANY 
WELL.                                                TXL-39 1 : WELL NAME 
FLD.                                            CHAPMAN  DEEP : FIELD NAME
#___________________________________________________________________________________________________ 
~CURVE INFORMATION 
#    Zone Description
#          1 = Upper Avalon
#          2 = Middle Avalon
#          3 = Lower Avalon
#          4 = 1st Bone Spring
#          5 = 2nd Bone Spring
#          6 = 2nd Bone Spring Sand
#          7 = 3rd Bone Spring
#          8 = 3rd Bone Spring Sand
#          9 = Wolfcamp XY
#          10 = Wolfcamp A Upper
#          11 = Wolfcamp A Lower
#          12 = Wolfcamp B Upper
#          13 = Wolfcamp B Lower
#          14 = Wolfcamp C
#          15 = Wolfcamp D
#          16 = Pennsylvanian Shale
#          17 = Lower Pennsylvanian Shale
#          18 = Barnett
#          19 = Barnett Lower
#          20 = Mississippian Lime
#          21 = Woodford
#          22 = Base Woodford 
# MNEM.UNIT           : CURVE DESCRIPTION 
#-----.-----          : ----------------------------- 
 DEPT.FT               : MEASURED DEPTH 
 TVD_I.FT              : ENVERUS TRUE VERTICAL DEPTH 
 ZONE_I.               : ENVERUS DEFINED ZONE CODE 
 GR_N_I.API            : ENVERUS NORMALIZED GAMMA RAY LEVERAGED IN GEOLOGICAL MODELLING 
 RESD_I.OHMM           : ENVERUS DEEP RESISTIVITY LEVERAGED IN GEOLOGICAL MODELLING 
 TEMP_I.DEGF           : ENVERUS INTERPRETED TEMPERATURE DERIVED FROM BOTTOM HOLE TEMPERATURES 
 #___________________________________________________________________________________________________ 
~A         DEPT          TVD_I         ZONE_I         GR_N_I         RESD_I         TEMP_I
          202.0        202.000        -999.25          8.377      -999.2500       -999.250
          202.5        202.500        -999.25          8.007      -999.2500         65.583
          203.0        203.000        -999.25          7.636      -999.2500         65.589
          203.5        203.500        -999.25          7.265      -999.2500         65.596
          204.0        204.000        -999.25          6.895      -999.2500         65.602
          204.5        204.500        -999.25          6.524      -999.2500         65.608
          205.0        205.000        -999.25          6.722      -999.2500         65.615
          205.5        205.500        -999.25          7.090      -999.2500         65.621
          206.0        206.000        -999.25          7.457      -999.2500         65.627
          206.5        206.500        -999.25          7.824      -999.2500         65.634
          207.0        207.000        -999.25          8.192      -999.2500         65.640
          207.5        207.500        -999.25          8.559      -999.2500         65.647
          208.0        208.000        -999.25          9.118      -999.2500         65.653
          208.5        208.500        -999.25         10.199      -999.2500         65.659
          209.0        209.000        -999.25         11.280      -999.2500         65.666
          209.5        209.500        -999.25         12.361      -999.2500         65.672
          210.0        210.000        -999.25         13.442      -999.2500         65.678
          210.5        210.500        -999.25         14.523      -999.2500         65.685
          211.0        211.000        -999.25         15.604      -999.2500         65.691
          211.5        211.500        -999.25         16.669      -999.2500         65.698
          212.0        212.000        -999.25         15.721      -999.2500         65.704
          212.5        212.500        -999.25         14.773      -999.2500         65.710
          213.0        213.000        -999.25         13.825      -999.2500         65.717
          213.5        213.500        -999.25         12.878      -999.2500         65.723
          214.0        214.000        -999.25         11.930      -999.2500         65.729
          214.5        214.500        -999.25         10.934      -999.2500         65.736
          215.0        215.000        -999.25          9.796      -999.2500         65.742
          215.5        215.500        -999.25          8.658      -999.2500         65.749
          216.0        216.000        -999.25          7.520      -999.2500         65.755
          216.5        216.500        -999.25          6.382      -999.2500         65.761
          217.0        217.000        -999.25          5.244      -999.2500         65.768
          217.5        217.500        -999.25          4.106      -999.2500         65.774
          218.0        218.000        -999.25          3.874      -999.2500         65.780
          218.5        218.500        -999.25          4.132      -999.2500         65.787
          219.0        219.000        -999.25          4.391      -999.2500         65.793
          219.5        219.500        -999.25          4.649      -999.2500         65.800
          220.0        220.000        -999.25          4.907      -999.2500         65.806
          220.5        220.500        -999.25          5.166      -999.2500         65.812
          221.0        221.000        -999.25          5.424      -999.2500         65.819
          221.5        221.500        -999.25          5.682      -999.2500         65.825
          222.0        222.000        -999.25          5.941      -999.2500         65.831
          222.5        222.500        -999.25          6.199      -999.2500         65.838
          223.0        223.000        -999.25          6.432      -999.2500         65.844
          223.5        223.500        -999.25          6.360      -999.2500         65.851
          224.0        224.000        -999.25          6.287      -999.2500         65.857
          224.5        224.500        -999.25          6.215      -999.2500         65.863
          225.0        225.000        -999.25          6.143      -999.2500         65.870
          225.5        225.500        -999.25          6.071      -999.2500         65.876
          226.0        226.000        -999.25          5.998      -999.2500         65.882
          226.5        226.500        -999.25          5.926      -999.2500         65.889
          227.0        227.000        -999.25          5.854      -999.2500         65.895
          227.5        227.500        -999.25          5.782      -999.2500         65.902
          228.0        228.000        -999.25          5.709      -999.2500         65.908
          228.5        228.500        -999.25          5.637      -999.2500         65.914
          229.0        229.000        -999.25          5.565      -999.2500         65.921
          229.5        229.500        -999.25          5.493      -999.2500         65.927
          230.0        230.000        -999.25          5.420      -999.2500         65.934
          230.5        230.500        -999.25          5.348      -999.2500         65.940
          231.0        231.000        -999.25          5.276      -999.2500         65.946
          231.5        231.500        -999.25          5.204      -999.2500         65.953
          232.0        232.000        -999.25          5.131      -999.2500         65.959
          232.5        232.500        -999.25          5.059      -999.2500         65.965
          233.0        233.000        -999.25          4.987      -999.2500         65.972
          233.5        233.500        -999.25          4.915      -999.2500         65.978
          234.0        234.000        -999.25          4.842      -999.2500         65.985
          234.5        234.500        -999.25          4.770      -999.2500         65.991
          235.0        235.000        -999.25          5.137      -999.2500         65.997
          235.5        235.500        -999.25          6.124      -999.2500         66.004
          236.0        236.000        -999.25          7.111      -999.2500         66.010
          236.5        236.500        -999.25          8.098      -999.2500         66.016
          237.0        237.000        -999.25          9.085      -999.2500         66.023
          237.5        237.500        -999.25         10.383      -999.2500         66.029
          238.0        238.000        -999.25         11.913      -999.2500         66.036
          238.5        238.500        -999.25         13.443      -999.2500         66.042
          239.0        239.000        -999.25         14.973      -999.2500         66.048
          239.5        239.500        -999.25         16.504      -999.2500         66.055
          240.0        240.000        -999.25         18.034      -999.2500         66.061
          240.5        240.500        -999.25         19.564      -999.2500         66.067
          241.0        241.000        -999.25         21.094      -999.2500         66.074
          241.5        241.500        -999.25         21.680      -999.2500         66.080
          242.0        242.000        -999.25         21.471      -999.2500         66.087
          242.5        242.500        -999.25         21.262      -999.2500         66.093
          243.0        243.000        -999.25         21.053      -999.2500         66.099
          243.5        243.500        -999.25         20.845      -999.2500         66.106
          244.0        244.000        -999.25         20.636      -999.2500         66.112
          244.5        244.500        -999.25         20.427      -999.2500         66.118
          245.0        245.000        -999.25         20.218      -999.2500         66.125
          245.5        245.500        -999.25         19.950      -999.2500         66.131
