###############################################
##         ENVERUS                           ##
##         ESS - Open Hole                   ##
##         PERMIAN / DELAWARE                ##
##         Nov 04 2023  V4.0                 ##
##         42-389-30469-00-00                ##
###############################################
## Copyright 2017-2023  ENVERUS.  All Rights Reserved. 
## Confidential - Property of ENVERUS, use governed by terms and 
## conditions found within the existing Information Services Subscription Agreement 
## (as may be amended, the “ISSA”) between Customer and ENVERUS. 
## 
~VERSION INFORMATION
# MNEM.UNIT                               DATA : DESCRIPTION OF MNEMONIC
#-----.-----     ----------------------------- : -----------------------------
VERS.                                     2.00 : CWLS LOG ASCII STANDARD - VERSION 2.00
WRAP.                                       NO : MULTIPLE LINES PER DEPTH STEP
VEND.                                  ENVERUS : VENDOR
TYPE.                          ESS - OPEN HOLE : ENVERUS ESSENTIAL CURVES – ACCESSIBLE THROUGH ENVERUS PRISM(TM)
DOC.                                  32305858 : ENVERUS HEADER RAW DOCUMENT ID
#___________________________________________________________________________________________________ 
~WELL INFORMATION 
# QLEmRB3tAfi4h2ohjzYx3rsZtS9yBcz1q2joqn0STWfPGhk373gRG/+4vKKA+3S/hWA+0diIcqk9K+n3WoLixw== 
# MNEM.UNIT                                              DATA : DESCRIPTION OF MNEMONIC 
#-----.-----                    ----------------------------- : ----------------------------- 
CNTY.                                                  REEVES : COUNTY 
STATE.                                                  TEXAS : STATE 
CNTRY.                                                    USA : COUNTRY 
API.                                             42-389-30469 : API (10 Digit) 
API_14.                                    42-389-30469-00-00 : API (14 Digits) 
API_14_std.                                 42-389-30469-0000 : API (14 Digits Standard) 
UWI.                                           42389304690000 : UNIQUE WELL ID 
WELL.                                                 WYNNE 1 : WELL NAME
STRT.FT                                                  30.0 : START DEPTH
STOP.FT                                               15871.0 : STOP DEPTH
STEP.FT                                                   0.5 : STEP BETWEEN DEPTHS
NULL.                                                 -999.25 : NULL VALUE
#___________________________________________________________________________________________________ 
~CURVE INFORMATION 
# MNEM.UNIT           : CURVE DESCRIPTION 
#-----.-----          : ----------------------------- 
 DEPT.FT               : MEASURED DEPTH 
 CALI.IN               : CALIPER (CAL - CAL) 
 GR.API                : GAMMA RAY (GR) 
 DT.US/FT              : SONIC DELTA TRANSIT TIME (DT) 
 #___________________________________________________________________________________________________ 
~A         DEPT           CALI             GR             DT
# ...
         5508.0         13.589         28.270         68.558
         5508.5         13.599         26.189         67.378
         5509.0         13.609         33.549         66.198
         5509.5         13.619         48.621         66.112
         5510.0         13.629         63.038         67.847
         5510.5         13.639         76.426         69.581
         5511.0         13.635         89.813         70.507
         5511.5         13.591         97.233         70.130
         5512.0         13.547         97.549         69.752
         5512.5         13.503         97.865         69.375
         5513.0         13.459         98.181         68.998
         5513.5         13.416         98.497         68.621
         5514.0         13.383         98.813         68.243
         5514.5         13.380         99.129         67.866
         5515.0         13.377        100.864         67.489
         5515.5         13.374        102.818         67.112
         5516.0         13.370        104.773         67.074
         5516.5         13.367        106.727         67.195
         5517.0         13.364        108.681         67.315
         5517.5         13.361        110.636         67.436
         5518.0         13.357        112.590         67.691
         5518.5         13.354        114.544         68.112
         5519.0         13.351         91.142         68.533
         5519.5         13.348         59.246         68.954
         5520.0         13.345         42.824         69.273
         5520.5         13.365         51.780         68.609
         5521.0         13.442         60.736         67.945
         5521.5         13.519         69.692         67.281
         5522.0         13.597         78.648         66.618
         5522.5         13.674         87.604         65.954
         5523.0         13.751         96.560         66.389
         5523.5         13.828        105.516         67.625
         5524.0         13.750        114.472         68.861
         5524.5         13.629        117.486         70.097
         5525.0         13.534        101.581         69.047
         5525.5         13.503         85.676         67.392
         5526.0         13.472         69.772         65.737
         5526.5         13.441         60.701         64.082
         5527.0         13.411         64.206         62.427
         5527.5         13.380         67.711         60.772
         5528.0         13.349         71.216         59.756
         5528.5         13.318         74.721         60.422
         5529.0         13.287         78.227         61.089
         5529.5         13.257         90.999         61.755
         5530.0         13.226        106.806         62.422
         5530.5         13.306        122.612         63.088
         5531.0         13.414        124.552         63.755
         5531.5         13.522        124.478         64.421
         5532.0         13.630        124.405         65.088
         5532.5         13.738        124.332         65.754
         5533.0         13.846        124.259         66.421
         5533.5         13.954        123.589         67.087
         5534.0         14.062        116.504         66.577
         5534.5         14.023        109.420         65.475
         5535.0         13.945        102.336         64.374
         5535.5         13.866         84.014         63.273
         5536.0         13.788         73.669         62.451
         5536.5         13.710         86.399         61.668
         5537.0         13.631         99.129         60.884
         5537.5         13.553        111.859         60.101
         5538.0         13.475        124.589         62.242
         5538.5         13.453        132.741         64.432
         5539.0         13.445        133.454         66.621
         5539.5         13.437        125.488         68.811
         5540.0         13.429        106.910         68.133
         5540.5         13.420         83.299         66.519
         5541.0         13.430         69.330         64.905
         5541.5         13.444         63.078         64.816
         5542.0         13.459         56.827         64.987
         5542.5         13.473         50.575         65.158
         5543.0         13.487         44.323         65.329
         5543.5         13.501         40.815         65.501
         5544.0         13.515         44.478         65.672
         5544.5         13.529         48.140         66.074
         5545.0         13.538         51.146         66.502
         5545.5         13.537         47.056         66.929
         5546.0         13.535         42.965         67.357
         5546.5         13.533         38.875         67.785
         5547.0         13.531         34.784         66.977
         5547.5         13.529         30.693         65.538
         5548.0         13.528         27.116         64.099
         5548.5         13.526         31.690         62.659
         5549.0         13.524         36.263         64.420
         5549.5         13.522         40.837         66.226
         5550.0         13.521         45.411         68.031
         5550.5         13.519         49.985         69.837
         5551.0         13.555         54.559         71.642
         5551.5         13.672         59.133         73.448
         5552.0         13.789         55.255         73.315
         5552.5         13.907         50.821         72.964
         5553.0         14.024         46.387         72.612
         5553.5         14.141         41.953         72.260
         5554.0         14.387         37.519         72.294
         5554.5         14.921         40.626         72.395
         5555.0         15.456         46.160         72.495
         5555.5         15.990         51.694         72.596
         5556.0         16.524         57.228         72.696
         5556.5         17.058         56.907         71.331
         5557.0         16.238         55.412         69.545
         5557.5         15.005         55.353         67.760
         5558.0         14.399         58.386         67.576
         5558.5         15.156         61.419         67.515
         5559.0         15.913         64.452         67.454
         5559.5         16.669         67.485         67.393
         5560.0         17.025         64.674         67.332
         5560.5         16.291         55.994         67.272
         5561.0         13.993         47.313         67.083
         5561.5         13.962         38.633         66.554
         5562.0         13.930         44.031         66.025
         5562.5         13.898         51.170         65.496
         5563.0         13.867         58.309         64.966
         5563.5         13.835         65.449         64.437
         5564.0         13.803         72.588         65.133
         5564.5         13.772         79.727         66.353
         5565.0         13.740         86.866         67.573
         5565.5         13.708         82.183         68.793
         5566.0         13.677         76.600         70.013
         5566.5         13.644         73.609         68.859
         5567.0         13.607         76.373         67.567
         5567.5         13.571         79.137         66.275
         5568.0         13.534         81.901         64.983
         5568.5         13.498         84.665         63.691
         5569.0         13.462         77.457         62.951
         5569.5         13.425         59.301         62.395
         5570.0         13.389         52.108         61.840
         5570.5         13.352         57.020         61.285
         5571.0         13.316         61.933         60.730
         5571.5         13.308         66.846         63.029
         5572.0         13.355         71.758         65.367
         5572.5         13.402         76.671         65.811
         5573.0         13.449         78.541         65.811
         5573.5         13.496         80.251         65.812
