###############################################
##         ENVERUS                           ##
##         Petrophysical Curves              ##
##         PERMIAN / DELAWARE                ##
##         Jan 21 2022                       ##
##         42-389-30261-00-00                ##
###############################################
## Copyright 2017-2022  ENVERUS.  All Rights Reserved. 
## Confidential - Property of ENVERUS, use governed by terms and 
## conditions found within the existing Information Services Subscription Agreement 
## (as may be amended, the “ISSA”) between Customer and ENVERUS. 
## 
~VERSION INFORMATION
# MNEM.UNIT                               DATA : DESCRIPTION OF MNEMONIC
#-----.-----     ----------------------------- : -----------------------------
VERS.                                     2.00 : CWLS LOG ASCII STANDARD - VERSION 2.00
WRAP.                                       NO : MULTIPLE LINES PER DEPTH STEP
VEND.                                  ENVERUS : VENDOR
TYPE.                     PETROPHYSICAL CURVES : ENVERUS PETROPHYSICAL CURVES - ACCESSIBLE THROUGH ENVERUS CORE(TM)
#___________________________________________________________________________________________________ 
~WELL INFORMATION 
# uyaQ8P8kQDJ9DXFS5hR1PxmExEOYaAUkY5f3/tnOS+scoPAUWgXA1zCIHGRbWCuSuUcwDzaESCjqjWQ81XhadA== 
# MNEM.UNIT                                              DATA : DESCRIPTION OF MNEMONIC 
#-----.-----                    ----------------------------- : ----------------------------- 
CNTY.                                                  REEVES : COUNTY 
STATE.                                                  TEXAS : STATE 
CNTRY.                                                    USA : COUNTRY 
API.                                             42-389-30261 : API (10 Digit) 
API_14.                                    42-389-30261-00-00 : API (14 Digits) 
API_14_std.                                 42-389-30261-0000 : API (14 Digits Standard) 
UWI.                                           42389302610000 : UNIQUE WELL ID
STRT.FT                                                 202.0 : START DEPTH
STOP.FT                                               18968.0 : STOP DEPTH
STEP.FT                                                   0.5 : STEP BETWEEN DEPTHS
NULL.                                                 -999.25 : NULL VALUE
COMP.                                                      BP : COMPANY 
WELL.                                                TXL-39 1 : WELL NAME 
FLD.                                            CHAPMAN  DEEP : FIELD NAME
#___________________________________________________________________________________________________ 
~CURVE INFORMATION 
#    Zone Description
#          1 = Upper Avalon
#          2 = Middle Avalon
#          3 = Lower Avalon
#          4 = 1st Bone Spring
#          5 = 2nd Bone Spring
#          6 = 2nd Bone Spring Sand
#          7 = 3rd Bone Spring
#          8 = 3rd Bone Spring Sand
#          9 = Wolfcamp XY
#          10 = Wolfcamp A Upper
#          11 = Wolfcamp A Lower
#          12 = Wolfcamp B Upper
#          13 = Wolfcamp B Lower
#          14 = Wolfcamp C
#          15 = Wolfcamp D
#          16 = Pennsylvanian Shale
#          17 = Lower Pennsylvanian Shale
#          18 = Barnett
#          19 = Barnett Lower
#          20 = Mississippian Lime
#          21 = Woodford
#          22 = Base Woodford 
# MNEM.UNIT           : CURVE DESCRIPTION 
#-----.-----          : ----------------------------- 
 DEPT.FT               : MEASURED DEPTH 
 TVD_I.FT              : ENVERUS TRUE VERTICAL DEPTH 
 ZONE_I.               : ENVERUS DEFINED ZONE CODE 
 GR_N_I.API            : ENVERUS NORMALIZED GAMMA RAY LEVERAGED IN GEOLOGICAL MODELLING 
 RESD_I.OHMM           : ENVERUS DEEP RESISTIVITY LEVERAGED IN GEOLOGICAL MODELLING 
 TEMP_I.DEGF           : ENVERUS INTERPRETED TEMPERATURE DERIVED FROM BOTTOM HOLE TEMPERATURES 
 #___________________________________________________________________________________________________ 
~A         DEPT          TVD_I         ZONE_I         GR_N_I         RESD_I         TEMP_I
# ...
        17714.0      17713.998          22.00        139.034      -999.2500        288.927
        17714.5      17714.498          22.00        121.410      -999.2500        288.933
        17715.0      17715.000          22.00        103.787      -999.2500        288.940
        17715.5      17715.500          22.00         94.844      -999.2500        288.946
        17716.0      17716.000          22.00        100.341      -999.2500        288.953
        17716.5      17716.500          22.00        107.606      -999.2500        288.959
        17717.0      17717.000          22.00        114.872      -999.2500        288.965
        17717.5      17717.500          22.00        122.137      -999.2500        288.972
        17718.0      17718.000          22.00        128.442      -999.2500        288.978
        17718.5      17718.500          22.00        128.706      -999.2500        288.985
        17719.0      17719.000          22.00        128.969      -999.2500        288.991
        17719.5      17719.500          22.00        120.370      -999.2500        288.997
        17720.0      17720.000          22.00        119.421      -999.2500        289.004
        17720.5      17720.500          22.00        118.472      -999.2500        289.010
        17721.0      17721.000          22.00        119.386      -999.2500        289.016
        17721.5      17721.500          22.00        121.850      -999.2500        289.023
        17722.0      17722.000          22.00        127.635      -999.2500        289.029
        17722.5      17722.500          22.00        133.431      -999.2500        289.036
        17723.0      17723.000          22.00        139.227      -999.2500        289.042
        17723.5      17723.500          22.00        145.022      -999.2500        289.048
        17724.0      17724.002          22.00        153.336      -999.2500        289.055
        17724.5      17724.502          22.00        175.660      -999.2500        289.061
        17725.0      17725.002          22.00        183.455      -999.2500        289.067
        17725.5      17725.502          22.00        183.849      -999.2500        289.074
        17726.0      17726.000          22.00        184.243      -999.2500        289.080
        17726.5      17726.500          22.00        183.033      -999.2500        289.087
        17727.0      17727.000          22.00        181.812      -999.2500        289.093
        17727.5      17727.498          22.00        180.591      -999.2500        289.099
        17728.0      17728.000          22.00        179.371      -999.2500        289.106
        17728.5      17728.500          22.00        169.324      -999.2500        289.112
        17729.0      17729.000          22.00        156.316      -999.2500        289.118
        17729.5      17729.500          22.00        143.522      -999.2500        289.125
        17730.0      17730.000          22.00        130.980      -999.2500        289.131
        17730.5      17730.500          22.00        118.438      -999.2500        289.138
        17731.0      17731.000          22.00        109.332      -999.2500        289.144
        17731.5      17731.500          22.00        112.256      -999.2500        289.150
        17732.0      17731.998          22.00        118.893      -999.2500        289.157
        17732.5      17732.500          22.00        125.530      -999.2500        289.163
        17733.0      17733.000          22.00        132.168      -999.2500        289.169
        17733.5      17733.500          22.00        138.805      -999.2500        289.176
        17734.0      17734.000          22.00        145.442      -999.2500        289.182
        17734.5      17734.500          22.00        152.079      -999.2500        289.189
        17735.0      17735.000          22.00        168.313      -999.2500        289.195
        17735.5      17735.500          22.00        168.782      -999.2500        289.201
        17736.0      17736.000          22.00        161.362      -999.2500        289.208
        17736.5      17736.500          22.00        147.197      -999.2500        289.214
        17737.0      17737.000          22.00        142.967      -999.2500        289.220
        17737.5      17737.500          22.00        138.737      -999.2500        289.227
        17738.0      17738.000          22.00        137.026      -999.2500        289.233
        17738.5      17738.500          22.00        136.253      -999.2500        289.240
        17739.0      17739.000          22.00        136.559      -999.2500        289.246
        17739.5      17739.500          22.00        137.948      -999.2500        289.252
        17740.0      17740.000          22.00        138.363      -999.2500        289.259
        17740.5      17740.500          22.00        137.803      -999.2500        289.265
        17741.0      17741.002          22.00        136.883      -999.2500        289.271
        17741.5      17741.502          22.00        128.595      -999.2500        289.278
        17742.0      17742.000          22.00        120.306      -999.2500        289.284
        17742.5      17742.500          22.00        112.018      -999.2500        289.291
        17743.0      17743.000          22.00        103.730      -999.2500        289.297
        17743.5      17743.498          22.00         95.441      -999.2500        289.303
        17744.0      17743.998          22.00         87.153      -999.2500        289.310
        17744.5      17744.498          22.00         80.983      -999.2500        289.316
        17745.0      17744.998          22.00         81.506      -999.2500        289.322
        17745.5      17745.500          22.00         82.029      -999.2500        289.329
        17746.0      17746.000          22.00         82.552      -999.2500        289.335
        17746.5      17746.500          22.00         83.075      -999.2500        289.342
        17747.0      17747.000          22.00         83.598      -999.2500        289.348
        17747.5      17747.500          22.00         69.248      -999.2500        289.354
        17748.0      17748.000          22.00         53.252      -999.2500        289.361
        17748.5      17748.500          22.00         48.563      -999.2500        289.367
        17749.0      17749.000          22.00         46.306      -999.2500        289.374
        17749.5      17749.500          22.00         44.050      -999.2500        289.380
        17750.0      17750.000          22.00         45.486      -999.2500        289.386
        17750.5      17750.500          22.00         47.936      -999.2500        289.393
        17751.0      17751.000          22.00         51.566      -999.2500        289.399
        17751.5      17751.500          22.00         55.195      -999.2500        289.405
        17752.0      17752.000          22.00         58.824      -999.2500        289.412
        17752.5      17752.500          22.00         57.252      -999.2500        289.418
        17753.0      17753.000          22.00         54.575      -999.2500        289.425
        17753.5      17753.500          22.00         51.897      -999.2500        289.431
        17754.0      17754.002          22.00         49.219      -999.2500        289.437
        17754.5      17754.502          22.00         48.991      -999.2500        289.444
        17755.0      17755.002          22.00         50.648      -999.2500        289.450
        17755.5      17755.500          22.00         52.305      -999.2500        289.456
        17756.0      17756.000          22.00         53.962      -999.2500        289.463
        17756.5      17756.500          22.00         67.143      -999.2500        289.469
        17757.0      17757.000          22.00         83.341      -999.2500        289.476
        17757.5      17757.500          22.00         99.539      -999.2500        289.482
