###############################################
##         ENVERUS                           ##
##         Petrophysical Curves              ##
##         PERMIAN / DELAWARE                ##
##         Jan 21 2022                       ##
##         42-389-30261-00-00                ##
###############################################
## Copyright 2017-2022  ENVERUS.  All Rights Reserved. 
## Confidential - Property of ENVERUS, use governed by terms and 
## conditions found within the existing Information Services Subscription Agreement 
## (as may be amended, the “ISSA”) between Customer and ENVERUS. 
## 
~VERSION INFORMATION
# MNEM.UNIT                               DATA : DESCRIPTION OF MNEMONIC
#-----.-----     ----------------------------- : -----------------------------
VERS.                                     2.00 : CWLS LOG ASCII STANDARD - VERSION 2.00
WRAP.                                       NO : MULTIPLE LINES PER DEPTH STEP
VEND.                                  ENVERUS : VENDOR
TYPE.                     PETROPHYSICAL CURVES : ENVERUS PETROPHYSICAL CURVES - ACCESSIBLE THROUGH ENVERUS CORE(TM)
#___________________________________________________________________________________________________ 
~WELL INFORMATION 
# uyaQ8P8kQDJ9DXFS5hR1PxmExEOYaAUkY5f3/tnOS+scoPAUWgXA1zCIHGRbWCuSuUcwDzaESCjqjWQ81XhadA== 
# MNEM.UNIT                                              DATA : DESCRIPTION OF MNEMONIC 
#-----.-----                    ----------------------------- : ----------------------------- 
CNTY.                                                  REEVES : COUNTY 
STATE.                                                  TEXAS : STATE 
CNTRY.                                                    USA : COUNTRY 
API.                                             42-389-30261 : API (10 Digit) 
API_14.                                    42-389-30261-00-00 : API (14 Digits) 
API_14_std.                                 42-389-30261-0000 : API (14 Digits Standard) 
UWI.                                           42389302610000 : UNIQUE WELL ID
STRT.FT                                                 202.0 : START DEPTH
STOP.FT                                               18968.0 : STOP DEPTH
STEP.FT                                                   0.5 : STEP BETWEEN DEPTHS
NULL.                                                 -999.25 : NULL VALUE
COMP.                                                      BP : COMPANY 
WELL.                                                TXL-39 1 : WELL NAME 
FLD.                                            CHAPMAN  DEEP : FIELD NAME
#___________________________________________________________________________________________________ 
~CURVE INFORMATION 
#    Zone Description
#          1 = Upper Avalon
#          2 = Middle Avalon
#          3 = Lower Avalon
#          4 = 1st Bone Spring
#          5 = 2nd Bone Spring
#          6 = 2nd Bone Spring Sand
#          7 = 3rd Bone Spring
#          8 = 3rd Bone Spring Sand
#          9 = Wolfcamp XY
#          10 = Wolfcamp A Upper
#          11 = Wolfcamp A Lower
#          12 = Wolfcamp B Upper
#          13 = Wolfcamp B Lower
#          14 = Wolfcamp C
#          15 = Wolfcamp D
#          16 = Pennsylvanian Shale
#          17 = Lower Pennsylvanian Shale
#          18 = Barnett
#          19 = Barnett Lower
#          20 = Mississippian Lime
#          21 = Woodford
#          22 = Base Woodford 
# MNEM.UNIT           : CURVE DESCRIPTION 
#-----.-----          : ----------------------------- 
 DEPT.FT               : MEASURED DEPTH 
 TVD_I.FT              : ENVERUS TRUE VERTICAL DEPTH 
 ZONE_I.               : ENVERUS DEFINED ZONE CODE 
 GR_N_I.API            : ENVERUS NORMALIZED GAMMA RAY LEVERAGED IN GEOLOGICAL MODELLING 
 RESD_I.OHMM           : ENVERUS DEEP RESISTIVITY LEVERAGED IN GEOLOGICAL MODELLING 
 TEMP_I.DEGF           : ENVERUS INTERPRETED TEMPERATURE DERIVED FROM BOTTOM HOLE TEMPERATURES 
 #___________________________________________________________________________________________________ 
~A         DEPT          TVD_I         ZONE_I         GR_N_I         RESD_I         TEMP_I
# ...
        16438.0      16438.000          22.00         24.401      -999.2500        272.653
        16438.5      16438.500          22.00         25.159      -999.2500        272.659
        16439.0      16439.000          22.00         25.916      -999.2500        272.666
        16439.5      16439.500          22.00         26.673      -999.2500        272.672
        16440.0      16440.000          22.00         27.430      -999.2500        272.678
        16440.5      16440.500          22.00         27.132      -999.2500        272.685
        16441.0      16441.000          22.00         26.520      -999.2500        272.691
        16441.5      16441.500          22.00         25.908      -999.2500        272.697
        16442.0      16442.000          22.00         25.297      -999.2500        272.704
        16442.5      16442.500          22.00         24.685      -999.2500        272.710
        16443.0      16443.000          22.00         24.073      -999.2500        272.717
        16443.5      16443.502          22.00         23.462      -999.2500        272.723
        16444.0      16444.002          22.00         22.850      -999.2500        272.729
        16444.5      16444.502          22.00         22.238      -999.2500        272.736
        16445.0      16445.002          22.00         21.627      -999.2500        272.742
        16445.5      16445.500          22.00         21.015      -999.2500        272.748
        16446.0      16446.000          22.00         20.403      -999.2500        272.755
        16446.5      16446.500          22.00         19.792      -999.2500        272.761
        16447.0      16446.998          22.00         19.180      -999.2500        272.768
        16447.5      16447.500          22.00         18.568      -999.2500        272.774
        16448.0      16448.000          22.00         17.957      -999.2500        272.780
        16448.5      16448.500          22.00         17.345      -999.2500        272.787
        16449.0      16449.000          22.00         16.733      -999.2500        272.793
        16449.5      16449.500          22.00         17.758      -999.2500        272.800
        16450.0      16450.000          22.00         18.783      -999.2500        272.806
        16450.5      16450.500          22.00         19.808      -999.2500        272.812
        16451.0      16451.000          22.00         20.833      -999.2500        272.819
        16451.5      16451.500          22.00         21.858      -999.2500        272.825
        16452.0      16452.000          22.00         22.883      -999.2500        272.831
        16452.5      16452.500          22.00         23.908      -999.2500        272.838
        16453.0      16453.000          22.00         24.933      -999.2500        272.844
        16453.5      16453.500          22.00         25.958      -999.2500        272.851
        16454.0      16454.000          22.00         25.554      -999.2500        272.857
        16454.5      16454.500          22.00         24.599      -999.2500        272.863
        16455.0      16455.000          22.00         23.644      -999.2500        272.870
        16455.5      16455.500          22.00         22.689      -999.2500        272.876
        16456.0      16456.000          22.00         22.013      -999.2500        272.882
        16456.5      16456.502          22.00         22.612      -999.2500        272.889
        16457.0      16457.000          22.00         23.211      -999.2500        272.895
        16457.5      16457.500          22.00         23.811      -999.2500        272.902
        16458.0      16458.000          22.00         24.410      -999.2500        272.908
        16458.5      16458.500          22.00         25.009      -999.2500        272.914
        16459.0      16459.000          22.00         25.542      -999.2500        272.921
        16459.5      16459.500          22.00         24.984      -999.2500        272.927
        16460.0      16460.000          22.00         24.426      -999.2500        272.933
        16460.5      16460.500          22.00         23.868      -999.2500        272.940
        16461.0      16461.000          22.00         23.310      -999.2500        272.946
        16461.5      16461.500          22.00         22.752      -999.2500        272.953
        16462.0      16462.000          22.00         22.194      -999.2500        272.959
        16462.5      16462.500          22.00         23.280      -999.2500        272.965
        16463.0      16463.000          22.00         24.478      -999.2500        272.972
        16463.5      16463.500          22.00         25.676      -999.2500        272.978
        16464.0      16463.998          22.00         26.874      -999.2500        272.984
        16464.5      16464.498          22.00         28.072      -999.2500        272.991
        16465.0      16465.000          22.00         29.270      -999.2500        272.997
        16465.5      16465.500          22.00         30.468      -999.2500        273.004
        16466.0      16466.000          22.00         31.667      -999.2500        273.010
        16466.5      16466.500          22.00         32.865      -999.2500        273.016
        16467.0      16467.000          22.00         33.216      -999.2500        273.023
        16467.5      16467.500          22.00         32.564      -999.2500        273.029
        16468.0      16468.000          22.00         31.913      -999.2500        273.035
        16468.5      16468.500          22.00         31.261      -999.2500        273.042
        16469.0      16469.000          22.00         30.609      -999.2500        273.048
        16469.5      16469.500          22.00         29.957      -999.2500        273.055
        16470.0      16470.000          22.00         29.305      -999.2500        273.061
        16470.5      16470.500          22.00         28.653      -999.2500        273.067
        16471.0      16471.000          22.00         28.098      -999.2500        273.074
        16471.5      16471.500          22.00         27.711      -999.2500        273.080
        16472.0      16472.000          22.00         27.325      -999.2500        273.086
        16472.5      16472.500          22.00         26.939      -999.2500        273.093
        16473.0      16473.000          22.00         26.552      -999.2500        273.099
        16473.5      16473.500          22.00         26.166      -999.2500        273.106
        16474.0      16474.002          22.00         25.780      -999.2500        273.112
        16474.5      16474.502          22.00         25.393      -999.2500        273.118
        16475.0      16475.002          22.00         25.007      -999.2500        273.125
        16475.5      16475.502          22.00         25.379      -999.2500        273.131
        16476.0      16476.000          22.00         26.588      -999.2500        273.138
        16476.5      16476.500          22.00         27.797      -999.2500        273.144
        16477.0      16477.000          22.00         29.006      -999.2500        273.150
        16477.5      16477.498          22.00         27.743      -999.2500        273.157
        16478.0      16478.000          22.00         26.273      -999.2500        273.163
        16478.5      16478.500          22.00         24.802      -999.2500        273.169
        16479.0      16479.000          22.00         23.331      -999.2500        273.176
        16479.5      16479.500          22.00         21.860      -999.2500        273.182
        16480.0      16480.000          22.00         20.389      -999.2500        273.189
        16480.5      16480.500          22.00         19.874      -999.2500        273.195
        16481.0      16481.000          22.00         20.750      -999.2500        273.201
        16481.5      16481.500          22.00         21.625      -999.2500        273.208
