###############################################
##         ENVERUS                           ##
##         ESS - Open Hole                   ##
##         PERMIAN / DELAWARE                ##
##         Nov 04 2023  V4.0                 ##
##         42-389-30469-00-00                ##
###############################################
## Copyright 2017-2023  ENVERUS.  All Rights Reserved. 
## Confidential - Property of ENVERUS, use governed by terms and 
## conditions found within the existing Information Services Subscription Agreement 
## (as may be amended, the “ISSA”) between Customer and ENVERUS. 
## 
~VERSION INFORMATION
# MNEM.UNIT                               DATA : DESCRIPTION OF MNEMONIC
#-----.-----     ----------------------------- : -----------------------------
VERS.                                     2.00 : CWLS LOG ASCII STANDARD - VERSION 2.00
WRAP.                                       NO : MULTIPLE LINES PER DEPTH STEP
VEND.                                  ENVERUS : VENDOR
TYPE.                          ESS - OPEN HOLE : ENVERUS ESSENTIAL CURVES – ACCESSIBLE THROUGH ENVERUS PRISM(TM)
DOC.                                  32305858 : ENVERUS HEADER RAW DOCUMENT ID
#___________________________________________________________________________________________________ 
~WELL INFORMATION 
# QLEmRB3tAfi4h2ohjzYx3rsZtS9yBcz1q2joqn0STWfPGhk373gRG/+4vKKA+3S/hWA+0diIcqk9K+n3WoLixw== 
# MNEM.UNIT                                              DATA : DESCRIPTION OF MNEMONIC 
#-----.-----                    ----------------------------- : ----------------------------- 
CNTY.                                                  REEVES : COUNTY 
STATE.                                                  TEXAS : STATE 
CNTRY.                                                    USA : COUNTRY 
API.                                             42-389-30469 : API (10 Digit) 
API_14.                                    42-389-30469-00-00 : API (14 Digits) 
API_14_std.                                 42-389-30469-0000 : API (14 Digits Standard) 
UWI.                                           42389304690000 : UNIQUE WELL ID 
WELL.                                                 WYNNE 1 : WELL NAME
STRT.FT                                                  30.0 : START DEPTH
STOP.FT                                               15871.0 : STOP DEPTH
STEP.FT                                                   0.5 : STEP BETWEEN DEPTHS
NULL.                                                 -999.25 : NULL VALUE
#___________________________________________________________________________________________________ 
~CURVE INFORMATION 
# MNEM.UNIT           : CURVE DESCRIPTION 
#-----.-----          : ----------------------------- 
 DEPT.FT               : MEASURED DEPTH 
 CALI.IN               : CALIPER (CAL - CAL) 
 GR.API                : GAMMA RAY (GR) 
 DT.US/FT              : SONIC DELTA TRANSIT TIME (DT) 
 #___________________________________________________________________________________________________ 
~A         DEPT           CALI             GR             DT
# ...
         8676.0         12.826         44.780         64.308
         8676.5         12.827         41.321         63.285
         8677.0         12.827         36.627         61.817
         8677.5         12.827         32.842         60.349
         8678.0         12.827         35.969         58.880
         8678.5         12.828         39.096         57.654
         8679.0         12.828         42.223         58.924
         8679.5         12.828         45.350         60.194
         8680.0         12.828         48.478         61.465
         8680.5         12.829         51.605         62.735
         8681.0         12.829         54.732         64.005
         8681.5         12.829         55.783         65.275
         8682.0         12.829         53.335         66.545
         8682.5         12.830         50.887         67.816
         8683.0         12.830         51.627         66.500
         8683.5         12.830         53.095         64.501
         8684.0         12.830         54.562         65.295
         8684.5         12.831         56.030         66.350
         8685.0         12.831         57.498         67.404
         8685.5         12.831         58.965         68.459
         8686.0         12.831         60.433         69.513
         8686.5         12.832         61.901         70.568
         8687.0         12.832         63.369         71.622
         8687.5         12.832         64.836         72.677
         8688.0         12.832         66.304         72.269
         8688.5         12.833         67.772         71.765
         8689.0         12.833         61.764         71.262
         8689.5         12.833         54.608         70.440
         8690.0         12.833         47.451         67.170
         8690.5         12.834         40.294         63.900
         8691.0         12.834         33.138         60.631
         8691.5         12.834         25.981         57.361
         8692.0         12.834         25.780         58.990
         8692.5         12.835         39.542         62.038
         8693.0         12.835         53.303         65.086
         8693.5         12.835         67.065         68.135
         8694.0         12.835         80.827         71.183
         8694.5         12.836         75.109         74.231
         8695.0         12.836         61.850         75.916
         8695.5         12.836         48.592         73.700
         8696.0         12.836         49.290         71.483
         8696.5         12.837         61.860         69.267
         8697.0         12.837         74.431         67.050
         8697.5         12.837         40.551         64.834
         8698.0         12.837         23.297         62.617
         8698.5         12.838         23.755         60.400
         8699.0         12.838         24.213         58.871
         8699.5         12.838         24.671         58.629
         8700.0         12.838         25.129         58.387
         8700.5         12.839         25.587         58.145
         8701.0         12.839         26.045         57.903
         8701.5         12.839         22.189         57.661
         8702.0         12.839         20.960         57.419
         8702.5         12.840         21.789         57.177
         8703.0         12.840         22.619         56.952
         8703.5         12.840         23.449         56.753
         8704.0         12.840         24.279         56.554
         8704.5         12.841         25.109         56.356
         8705.0         12.841         25.938         56.157
         8705.5         12.841         26.768         55.958
         8706.0         12.841         32.703         60.703
         8706.5         12.842         41.227         66.906
         8707.0         12.842         49.752         70.710
         8707.5         12.842         49.447         69.045
         8708.0         12.842         47.236         67.380
         8708.5         12.843         45.026         65.715
         8709.0         12.843         42.816         64.050
         8709.5         12.843         40.606         62.385
         8710.0         12.843         38.395         60.720
         8710.5         12.844         36.378         61.363
         8711.0         12.844         43.040         62.618
         8711.5         12.844         49.702         63.873
         8712.0         12.844         49.610         65.128
         8712.5         12.845         48.117         66.383
         8713.0         12.845         46.623         67.638
         8713.5         12.845         45.130         68.893
         8714.0         12.845         43.637         69.033
         8714.5         12.846         42.143         68.153
         8715.0         12.846         40.474         67.272
         8715.5         12.846         37.473         66.392
         8716.0         12.846         34.472         65.512
         8716.5         12.847         31.471         64.631
         8717.0         12.847         28.471         63.751
         8717.5         12.847         30.258         62.871
         8718.0         12.847         32.038         61.990
         8718.5         12.848         30.304         61.110
         8719.0         12.848         28.571         60.229
         8719.5         12.848         26.837         59.349
         8720.0         12.848         25.103         58.469
         8720.5         12.849         23.370         57.588
         8721.0         12.849         21.636         56.708
         8721.5         12.849         19.902         55.828
         8722.0         12.849         18.169         54.947
         8722.5         12.850         21.673         54.381
         8723.0         12.850         26.320         55.838
         8723.5         12.850         30.966         57.295
         8724.0         12.850         35.819         58.752
         8724.5         12.851         44.904         60.209
         8725.0         12.851         53.989         65.486
         8725.5         12.851         63.074         71.590
         8726.0         12.851         72.159         75.073
         8726.5         12.852         69.009         73.262
         8727.0         12.852         63.144         71.451
         8727.5         12.852         57.278         69.640
         8728.0         12.852         51.413         67.828
         8728.5         12.853         45.548         66.017
         8729.0         12.853         39.683         64.206
         8729.5         12.853         33.817         62.395
         8730.0         12.853         27.952         60.584
         8730.5         12.854         22.087         58.772
         8731.0         12.854         25.621         56.961
         8731.5         12.854         33.068         58.188
         8732.0         12.855         40.515         62.795
         8732.5         12.855         47.961         67.402
         8733.0         12.856         55.408         70.762
         8733.5         12.856         62.855         68.166
         8734.0         12.857         53.754         65.571
         8734.5         12.857         43.425         62.975
         8735.0         12.858         33.096         60.379
         8735.5         12.858         22.767         57.784
         8736.0         12.858         48.477         61.699
         8736.5         12.859         50.317         66.029
         8737.0         12.859         47.218         69.470
         8737.5         12.860         44.120         67.019
         8738.0         12.860         41.022         64.569
         8738.5         12.861         37.924         62.118
         8739.0         12.861         34.825         59.667
         8739.5         12.862         31.727         59.149
         8740.0         12.862         28.629         58.641
         8740.5         12.863         25.530         58.133
         8741.0         12.863         22.432         57.625
         8741.5         12.864         23.370         58.329
