###############################################
##         ENVERUS                           ##
##         ESS - Open Hole                   ##
##         PERMIAN / DELAWARE                ##
##         Nov 04 2023  V4.0                 ##
##         42-389-30469-00-00                ##
###############################################
## Copyright 2017-2023  ENVERUS.  All Rights Reserved. 
## Confidential - Property of ENVERUS, use governed by terms and 
## conditions found within the existing Information Services Subscription Agreement 
## (as may be amended, the “ISSA”) between Customer and ENVERUS. 
## 
~VERSION INFORMATION
# MNEM.UNIT                               DATA : DESCRIPTION OF MNEMONIC
#-----.-----     ----------------------------- : -----------------------------
VERS.                                     2.00 : CWLS LOG ASCII STANDARD - VERSION 2.00
WRAP.                                       NO : MULTIPLE LINES PER DEPTH STEP
VEND.                                  ENVERUS : VENDOR
TYPE.                          ESS - OPEN HOLE : ENVERUS ESSENTIAL CURVES – ACCESSIBLE THROUGH ENVERUS PRISM(TM)
DOC.                                  32305858 : ENVERUS HEADER RAW DOCUMENT ID
#___________________________________________________________________________________________________ 
~WELL INFORMATION 
# QLEmRB3tAfi4h2ohjzYx3rsZtS9yBcz1q2joqn0STWfPGhk373gRG/+4vKKA+3S/hWA+0diIcqk9K+n3WoLixw== 
# MNEM.UNIT                                              DATA : DESCRIPTION OF MNEMONIC 
#-----.-----                    ----------------------------- : ----------------------------- 
CNTY.                                                  REEVES : COUNTY 
STATE.                                                  TEXAS : STATE 
CNTRY.                                                    USA : COUNTRY 
API.                                             42-389-30469 : API (10 Digit) 
API_14.                                    42-389-30469-00-00 : API (14 Digits) 
API_14_std.                                 42-389-30469-0000 : API (14 Digits Standard) 
UWI.                                           42389304690000 : UNIQUE WELL ID 
WELL.                                                 WYNNE 1 : WELL NAME
STRT.FT                                                  30.0 : START DEPTH
STOP.FT                                               15871.0 : STOP DEPTH
STEP.FT                                                   0.5 : STEP BETWEEN DEPTHS
NULL.                                                 -999.25 : NULL VALUE
#___________________________________________________________________________________________________ 
~CURVE INFORMATION 
# MNEM.UNIT           : CURVE DESCRIPTION 
#-----.-----          : ----------------------------- 
 DEPT.FT               : MEASURED DEPTH 
 CALI.IN               : CALIPER (CAL - CAL) 
 GR.API                : GAMMA RAY (GR) 
 DT.US/FT              : SONIC DELTA TRANSIT TIME (DT) 
 #___________________________________________________________________________________________________ 
~A         DEPT           CALI             GR             DT
# ...
        11844.0         10.712         63.629         75.087
        11844.5         10.717         64.393         74.348
        11845.0         10.722         65.157         73.608
        11845.5         10.726         65.922         72.869
        11846.0         10.731         66.686         72.130
        11846.5         10.735         67.450         71.390
        11847.0         10.740         68.215         72.411
        11847.5         10.745         68.979         74.455
        11848.0         10.749         69.743         76.500
        11848.5         10.745         67.525         77.212
        11849.0         10.737         63.722         74.896
        11849.5         10.729         65.311         72.580
        11850.0         10.722         66.901         70.549
        11850.5         10.714         68.490         72.877
        11851.0         10.706         70.079         75.205
        11851.5         10.699         69.711         77.534
        11852.0         10.691         68.230         78.026
        11852.5         10.683         66.749         77.155
        11853.0         10.676         65.268         76.284
        11853.5         10.668         63.787         75.412
        11854.0         10.660         62.306         74.541
        11854.5         10.653         62.730         73.669
        11855.0         10.645         63.973         72.798
        11855.5         10.637         65.217         71.927
        11856.0         10.630         66.460         71.708
        11856.5         10.622         67.704         73.018
        11857.0         10.614         68.947         74.329
        11857.5         10.606         70.190         75.640
        11858.0         10.599         71.434         76.951
        11858.5         10.591         72.677         78.363
        11859.0         10.555         71.686         79.968
        11859.5         10.514         70.493         81.573
        11860.0         10.474         69.300         82.479
        11860.5         10.433         68.107         81.229
        11861.0         10.392         66.915         79.980
        11861.5         10.352         65.722         78.730
        11862.0         10.325         64.529         77.481
        11862.5         10.326         63.336         76.232
        11863.0         10.326         49.226         74.982
        11863.5         10.326         50.979         71.791
        11864.0         10.326         52.733         67.927
        11864.5         10.326         54.487         64.063
        11865.0         10.329         56.240         62.495
        11865.5         10.337         57.994         65.125
        11866.0         10.345         59.748         67.756
        11866.5         10.352         61.501         70.386
        11867.0         10.360         62.847         73.017
        11867.5         10.367         63.192         75.648
        11868.0         10.375         63.538         71.459
        11868.5         10.383         63.883         72.417
        11869.0         10.390         64.228         73.376
        11869.5         10.398         64.574         74.334
        11870.0         10.406         64.919         75.293
        11870.5         10.378         65.264         76.252
        11871.0         10.317         64.080         77.210
        11871.5         10.257         62.838         78.169
        11872.0         10.196         61.596         79.128
        11872.5         10.135         60.354         76.630
        11873.0         10.075         59.113         72.569
        11873.5         10.056         60.051         68.508
        11874.0         10.085         61.219         64.447
        11874.5         10.115         62.386         62.531
        11875.0         10.144         63.554         67.440
        11875.5         10.173         64.721         71.706
        11876.0         10.202         65.889         72.351
        11876.5         10.232         67.056         72.997
        11877.0         10.261         66.717         73.643
        11877.5         10.290         65.759         69.551
        11878.0         10.319         64.802         67.554
        11878.5         10.325         63.844         68.141
        11879.0         10.317         62.887         68.727
        11879.5         10.310         61.929         69.314
        11880.0         10.302         60.972         69.900
        11880.5         10.294         60.014         70.487
        11881.0         10.287         59.056         71.073
        11881.5         10.279         58.099         71.660
        11882.0         10.271         58.889         72.246
        11882.5         10.263         60.601         72.833
        11883.0         10.256         62.313         72.513
        11883.5         10.250         64.025         72.029
        11884.0         10.250         65.736         71.544
        11884.5         10.250         67.448         71.799
        11885.0         10.250         69.160         72.367
        11885.5         10.250         68.693         72.934
        11886.0         10.250         66.389         73.313
        11886.5         10.247         64.085         72.410
        11887.0         10.232         62.023         71.507
        11887.5         10.217         62.494         71.989
        11888.0         10.202         62.966         72.661
        11888.5         10.187         63.437         73.333
        11889.0         10.173         63.909         74.005
        11889.5         10.168         64.380         74.095
        11890.0         10.166         64.852         73.103
        11890.5         10.165         65.323         72.111
        11891.0         10.163         65.795         71.120
        11891.5         10.161         65.896         70.128
        11892.0         10.159         64.034         69.136
        11892.5         10.158         62.171         68.872
        11893.0         10.156         60.309         69.645
        11893.5         10.154         58.446         70.418
        11894.0         10.152         58.813         71.191
        11894.5         10.151         59.472         71.964
        11895.0         10.159         60.131         72.737
        11895.5         10.168         60.790         73.511
        11896.0         10.178         61.449         71.251
        11896.5         10.187         62.108         68.936
        11897.0         10.197         62.767         66.620
        11897.5         10.207         63.426         68.218
        11898.0         10.216         64.086         71.205
        11898.5         10.226         64.745         73.729
        11899.0         10.235         65.404         72.925
        11899.5         10.245         66.063         72.122
        11900.0         10.254         66.222         72.673
        11900.5         10.264         66.223         73.467
        11901.0         10.274         66.225         74.261
        11901.5         10.283         66.227         75.054
        11902.0         10.293         66.229         75.446
        11902.5         10.302         66.230         74.613
        11903.0         10.312         66.432         73.780
        11903.5         10.321         67.421         72.946
        11904.0         10.331         68.410         72.376
        11904.5         10.340         69.399         72.103
        11905.0         10.350         70.388         71.830
        11905.5         10.360         71.377         71.556
        11906.0         10.369         72.365         71.283
        11906.5         10.379         73.354         71.955
        11907.0         10.388         73.027         73.164
        11907.5         10.398         72.673         74.372
        11908.0         10.407         72.320         75.580
        11908.5         10.417         71.966         76.789
        11909.0         10.427         71.613         77.084
        11909.5         10.436         71.259         77.104
