###############################################
##         ENVERUS                           ##
##         Petrophysical Curves              ##
##         PERMIAN / DELAWARE                ##
##         Jan 21 2022                       ##
##         42-389-30261-00-00                ##
###############################################
## Copyright 2017-2022  ENVERUS.  All Rights Reserved. 
## Confidential - Property of ENVERUS, use governed by terms and 
## conditions found within the existing Information Services Subscription Agreement 
## (as may be amended, the “ISSA”) between Customer and ENVERUS. 
## 
~VERSION INFORMATION
# MNEM.UNIT                               DATA : DESCRIPTION OF MNEMONIC
#-----.-----     ----------------------------- : -----------------------------
VERS.                                     2.00 : CWLS LOG ASCII STANDARD - VERSION 2.00
WRAP.                                       NO : MULTIPLE LINES PER DEPTH STEP
VEND.                                  ENVERUS : VENDOR
TYPE.                     PETROPHYSICAL CURVES : ENVERUS PETROPHYSICAL CURVES - ACCESSIBLE THROUGH ENVERUS CORE(TM)
#___________________________________________________________________________________________________ 
~WELL INFORMATION 
# uyaQ8P8kQDJ9DXFS5hR1PxmExEOYaAUkY5f3/tnOS+scoPAUWgXA1zCIHGRbWCuSuUcwDzaESCjqjWQ81XhadA== 
# MNEM.UNIT                                              DATA : DESCRIPTION OF MNEMONIC 
#-----.-----                    ----------------------------- : ----------------------------- 
CNTY.                                                  REEVES : COUNTY 
STATE.                                                  TEXAS : STATE 
CNTRY.                                                    USA : COUNTRY 
API.                                             42-389-30261 : API (10 Digit) 
API_14.                                    42-389-30261-00-00 : API (14 Digits) 
API_14_std.                                 42-389-30261-0000 : API (14 Digits Standard) 
UWI.                                           42389302610000 : UNIQUE WELL ID
STRT.FT                                                 202.0 : START DEPTH
STOP.FT                                               18968.0 : STOP DEPTH
STEP.FT                                                   0.5 : STEP BETWEEN DEPTHS
NULL.                                                 -999.25 : NULL VALUE
COMP.                                                      BP : COMPANY 
WELL.                                                TXL-39 1 : WELL NAME 
FLD.                                            CHAPMAN  DEEP : FIELD NAME
#___________________________________________________________________________________________________ 
~CURVE INFORMATION 
#    Zone Description
#          1 = Upper Avalon
#          2 = Middle Avalon
#          3 = Lower Avalon
#          4 = 1st Bone Spring
#          5 = 2nd Bone Spring
#          6 = 2nd Bone Spring Sand
#          7 = 3rd Bone Spring
#          8 = 3rd Bone Spring Sand
#          9 = Wolfcamp XY
#          10 = Wolfcamp A Upper
#          11 = Wolfcamp A Lower
#          12 = Wolfcamp B Upper
#          13 = Wolfcamp B Lower
#          14 = Wolfcamp C
#          15 = Wolfcamp D
#          16 = Pennsylvanian Shale
#          17 = Lower Pennsylvanian Shale
#          18 = Barnett
#          19 = Barnett Lower
#          20 = Mississippian Lime
#          21 = Woodford
#          22 = Base Woodford 
# MNEM.UNIT           : CURVE DESCRIPTION 
#-----.-----          : ----------------------------- 
 DEPT.FT               : MEASURED DEPTH 
 TVD_I.FT              : ENVERUS TRUE VERTICAL DEPTH 
 ZONE_I.               : ENVERUS DEFINED ZONE CODE 
 GR_N_I.API            : ENVERUS NORMALIZED GAMMA RAY LEVERAGED IN GEOLOGICAL MODELLING 
 RESD_I.OHMM           : ENVERUS DEEP RESISTIVITY LEVERAGED IN GEOLOGICAL MODELLING 
 TEMP_I.DEGF           : ENVERUS INTERPRETED TEMPERATURE DERIVED FROM BOTTOM HOLE TEMPERATURES 
 #___________________________________________________________________________________________________ 
~A         DEPT          TVD_I         ZONE_I         GR_N_I         RESD_I         TEMP_I
# ...
         2710.0       2710.000        -999.25         17.914      -999.2500         97.564
         2710.5       2710.500        -999.25         18.530      -999.2500         97.570
         2711.0       2711.000        -999.25         19.095      -999.2500         97.577
         2711.5       2711.500        -999.25         17.839      -999.2500         97.583
         2712.0       2712.000        -999.25         16.582      -999.2500         97.589
         2712.5       2712.500        -999.25         15.326      -999.2500         97.596
         2713.0       2713.000        -999.25         14.070      -999.2500         97.602
         2713.5       2713.500        -999.25         12.813      -999.2500         97.608
         2714.0       2714.000        -999.25         12.303      -999.2500         97.615
         2714.5       2714.500        -999.25         12.682      -999.2500         97.621
         2715.0       2715.000        -999.25         13.061      -999.2500         97.628
         2715.5       2715.500        -999.25         13.440      -999.2500         97.634
         2716.0       2716.000        -999.25         13.819      -999.2500         97.640
         2716.5       2716.500        -999.25         14.198      -999.2500         97.647
         2717.0       2717.000        -999.25         14.577      -999.2500         97.653
         2717.5       2717.500        -999.25         14.956      -999.2500         97.659
         2718.0       2718.000        -999.25         15.335      -999.2500         97.666
         2718.5       2718.500        -999.25         15.714      -999.2500         97.672
         2719.0       2719.000        -999.25         15.530      -999.2500         97.679
         2719.5       2719.500        -999.25         15.116      -999.2500         97.685
         2720.0       2720.000        -999.25         14.702      -999.2500         97.691
         2720.5       2720.500        -999.25         14.287      -999.2500         97.698
         2721.0       2721.000        -999.25         13.873      -999.2500         97.704
         2721.5       2721.500        -999.25         13.459      -999.2500         97.710
         2722.0       2722.000        -999.25         13.045      -999.2500         97.717
         2722.5       2722.500        -999.25         12.711      -999.2500         97.723
         2723.0       2723.000        -999.25         12.546      -999.2500         97.730
         2723.5       2723.500        -999.25         12.380      -999.2500         97.736
         2724.0       2724.000        -999.25         12.215      -999.2500         97.742
         2724.5       2724.500        -999.25         12.050      -999.2500         97.749
         2725.0       2725.000        -999.25         11.885      -999.2500         97.755
         2725.5       2725.500        -999.25         11.720      -999.2500         97.761
         2726.0       2726.000        -999.25         11.758      -999.2500         97.768
         2726.5       2726.500        -999.25         11.892      -999.2500         97.774
         2727.0       2727.000        -999.25         12.027      -999.2500         97.781
         2727.5       2727.500        -999.25         12.161      -999.2500         97.787
         2728.0       2728.000        -999.25         12.295      -999.2500         97.793
         2728.5       2728.500        -999.25         12.430      -999.2500         97.800
         2729.0       2729.000        -999.25         12.564      -999.2500         97.806
         2729.5       2729.500        -999.25         12.698      -999.2500         97.813
         2730.0       2730.000        -999.25         12.833      -999.2500         97.819
         2730.5       2730.500        -999.25         12.967      -999.2500         97.825
         2731.0       2731.000        -999.25         13.101      -999.2500         97.832
         2731.5       2731.500        -999.25         13.236      -999.2500         97.838
         2732.0       2732.000        -999.25         13.370      -999.2500         97.844
         2732.5       2732.500        -999.25         13.504      -999.2500         97.851
         2733.0       2733.000        -999.25         13.639      -999.2500         97.857
         2733.5       2733.500        -999.25         12.277      -999.2500         97.864
         2734.0       2734.000        -999.25         10.084      -999.2500         97.870
         2734.5       2734.500        -999.25         10.417      -999.2500         97.876
         2735.0       2735.000        -999.25         10.751      -999.2500         97.883
         2735.5       2735.500        -999.25         11.085      -999.2500         97.889
         2736.0       2736.000        -999.25         11.419      -999.2500         97.895
         2736.5       2736.500        -999.25         11.753      -999.2500         97.902
         2737.0       2737.000        -999.25         12.086      -999.2500         97.908
         2737.5       2737.500        -999.25         12.420      -999.2500         97.915
         2738.0       2738.000        -999.25         12.754      -999.2500         97.921
         2738.5       2738.500        -999.25         13.088      -999.2500         97.927
         2739.0       2739.000        -999.25         13.421      -999.2500         97.934
         2739.5       2739.500        -999.25         13.737      -999.2500         97.940
         2740.0       2740.000        -999.25         13.220      -999.2500         97.946
         2740.5       2740.500        -999.25         12.703      -999.2500         97.953
         2741.0       2741.000        -999.25         12.187      -999.2500         97.959
         2741.5       2741.500        -999.25         11.670      -999.2500         97.966
         2742.0       2742.000        -999.25         11.153      -999.2500         97.972
         2742.5       2742.500        -999.25         10.637      -999.2500         97.978
         2743.0       2743.000        -999.25         10.120      -999.2500         97.985
         2743.5       2743.500        -999.25          9.603      -999.2500         97.991
         2744.0       2744.000        -999.25          9.911      -999.2500         97.997
         2744.5       2744.500        -999.25         10.286      -999.2500         98.004
         2745.0       2745.000        -999.25         10.660      -999.2500         98.010
         2745.5       2745.500        -999.25         11.034      -999.2500         98.017
         2746.0       2746.000        -999.25         11.285      -999.2500         98.023
         2746.5       2746.500        -999.25         11.324      -999.2500         98.029
         2747.0       2747.000        -999.25         11.363      -999.2500         98.036
         2747.5       2747.500        -999.25         11.403      -999.2500         98.042
         2748.0       2748.000        -999.25         11.442      -999.2500         98.048
         2748.5       2748.500        -999.25         11.482      -999.2500         98.055
         2749.0       2749.000        -999.25         11.521      -999.2500         98.061
         2749.5       2749.500        -999.25         11.561      -999.2500         98.068
         2750.0       2750.000        -999.25         11.697      -999.2500         98.074
         2750.5       2750.500        -999.25         11.952      -999.2500         98.080
         2751.0       2751.000        -999.25         12.206      -999.2500         98.087
         2751.5       2751.500        -999.25         12.461      -999.2500         98.093
         2752.0       2752.000        -999.25         12.715      -999.2500         98.099
         2752.5       2752.500        -999.25         12.970      -999.2500         98.106
         2753.0       2753.000        -999.25         13.224      -999.2500         98.112
         2753.5       2753.500        -999.25         13.479      -999.2500         98.119
