###############################################
##         ENVERUS                           ##
##         Petrophysical Curves              ##
##         PERMIAN / DELAWARE                ##
##         Jan 21 2022                       ##
##         42-389-30261-00-00                ##
###############################################
## Copyright 2017-2022  ENVERUS.  All Rights Reserved. 
## Confidential - Property of ENVERUS, use governed by terms and 
## conditions found within the existing Information Services Subscription Agreement 
## (as may be amended, the “ISSA”) between Customer and ENVERUS. 
## 
~VERSION INFORMATION
# MNEM.UNIT                               DATA : DESCRIPTION OF MNEMONIC
#-----.-----     ----------------------------- : -----------------------------
VERS.                                     2.00 : CWLS LOG ASCII STANDARD - VERSION 2.00
WRAP.                                       NO : MULTIPLE LINES PER DEPTH STEP
VEND.                                  ENVERUS : VENDOR
TYPE.                     PETROPHYSICAL CURVES : ENVERUS PETROPHYSICAL CURVES - ACCESSIBLE THROUGH ENVERUS CORE(TM)
#___________________________________________________________________________________________________ 
~WELL INFORMATION 
# uyaQ8P8kQDJ9DXFS5hR1PxmExEOYaAUkY5f3/tnOS+scoPAUWgXA1zCIHGRbWCuSuUcwDzaESCjqjWQ81XhadA== 
# MNEM.UNIT                                              DATA : DESCRIPTION OF MNEMONIC 
#-----.-----                    ----------------------------- : ----------------------------- 
CNTY.                                                  REEVES : COUNTY 
STATE.                                                  TEXAS : STATE 
CNTRY.                                                    USA : COUNTRY 
API.                                             42-389-30261 : API (10 Digit) 
API_14.                                    42-389-30261-00-00 : API (14 Digits) 
API_14_std.                                 42-389-30261-0000 : API (14 Digits Standard) 
UWI.                                           42389302610000 : UNIQUE WELL ID
STRT.FT                                                 202.0 : START DEPTH
STOP.FT                                               18968.0 : STOP DEPTH
STEP.FT                                                   0.5 : STEP BETWEEN DEPTHS
NULL.                                                 -999.25 : NULL VALUE
COMP.                                                      BP : COMPANY 
WELL.                                                TXL-39 1 : WELL NAME 
FLD.                                            CHAPMAN  DEEP : FIELD NAME
#___________________________________________________________________________________________________ 
~CURVE INFORMATION 
#    Zone Description
#          1 = Upper Avalon
#          2 = Middle Avalon
#          3 = Lower Avalon
#          4 = 1st Bone Spring
#          5 = 2nd Bone Spring
#          6 = 2nd Bone Spring Sand
#          7 = 3rd Bone Spring
#          8 = 3rd Bone Spring Sand
#          9 = Wolfcamp XY
#          10 = Wolfcamp A Upper
#          11 = Wolfcamp A Lower
#          12 = Wolfcamp B Upper
#          13 = Wolfcamp B Lower
#          14 = Wolfcamp C
#          15 = Wolfcamp D
#          16 = Pennsylvanian Shale
#          17 = Lower Pennsylvanian Shale
#          18 = Barnett
#          19 = Barnett Lower
#          20 = Mississippian Lime
#          21 = Woodford
#          22 = Base Woodford 
# MNEM.UNIT           : CURVE DESCRIPTION 
#-----.-----          : ----------------------------- 
 DEPT.FT               : MEASURED DEPTH 
 TVD_I.FT              : ENVERUS TRUE VERTICAL DEPTH 
 ZONE_I.               : ENVERUS DEFINED ZONE CODE 
 GR_N_I.API            : ENVERUS NORMALIZED GAMMA RAY LEVERAGED IN GEOLOGICAL MODELLING 
 RESD_I.OHMM           : ENVERUS DEEP RESISTIVITY LEVERAGED IN GEOLOGICAL MODELLING 
 TEMP_I.DEGF           : ENVERUS INTERPRETED TEMPERATURE DERIVED FROM BOTTOM HOLE TEMPERATURES 
 #___________________________________________________________________________________________________ 
~A         DEPT          TVD_I         ZONE_I         GR_N_I         RESD_I         TEMP_I
# ...
         6450.0       6450.000        -999.25         97.310        88.3870        145.264
         6450.5       6450.500        -999.25         92.250        67.3740        145.271
         6451.0       6451.000        -999.25         83.919        46.3600        145.277
         6451.5       6451.500        -999.25         74.648        35.6630        145.283
         6452.0       6452.000        -999.25         65.377        42.0230        145.290
         6452.5       6452.500        -999.25         61.158        48.3840        145.296
         6453.0       6453.000        -999.25         64.800        54.7440        145.303
         6453.5       6453.500        -999.25         68.443        61.1050        145.309
         6454.0       6454.000        -999.25         72.085       217.6610        145.315
         6454.5       6454.500        -999.25         75.728       379.0820        145.322
         6455.0       6455.001        -999.25         71.552       542.1600        145.328
         6455.5       6455.500        -999.25         58.896       706.1850        145.334
         6456.0       6456.000        -999.25         46.240       870.2100        145.341
         6456.5       6456.500        -999.25         41.481       891.8040        145.347
         6457.0       6457.000        -999.25         38.726       781.8920        145.354
         6457.5       6457.500        -999.25         35.971       671.9800        145.360
         6458.0       6458.001        -999.25         34.809       562.0690        145.366
         6458.5       6458.500        -999.25         36.554       452.1570        145.373
         6459.0       6459.000        -999.25         38.299       463.2440        145.379
         6459.5       6459.500        -999.25         40.200       479.1560        145.386
         6460.0       6460.000        -999.25         42.670       466.1270        145.392
         6460.5       6460.500        -999.25         45.140       399.8400        145.398
         6461.0       6461.000        -999.25         47.610       333.5520        145.405
         6461.5       6461.500        -999.25         49.721       267.2640        145.411
         6462.0       6462.000        -999.25         51.223       199.7630        145.417
         6462.5       6462.500        -999.25         52.726       131.3980        145.424
         6463.0       6463.000        -999.25         54.229        63.0340        145.430
         6463.5       6463.500        -999.25         55.731        38.3830        145.437
         6464.0       6464.000        -999.25         57.234        35.4020        145.443
         6464.5       6464.500        -999.25         58.736        32.7760        145.449
         6465.0       6465.000        -999.25         60.239        32.1900        145.456
         6465.5       6465.501        -999.25         60.871        31.6040        145.462
         6466.0       6466.000        -999.25         59.893        31.0180        145.468
         6466.5       6466.501        -999.25         58.914        30.4310        145.475
         6467.0       6467.000        -999.25         57.936        31.8290        145.481
         6467.5       6467.500        -999.25         56.957        35.8280        145.488
         6468.0       6468.000        -999.25         58.054        39.8260        145.494
         6468.5       6468.500        -999.25         61.181        43.8240        145.500
         6469.0       6469.000        -999.25         64.308        47.8230        145.507
         6469.5       6469.500        -999.25         67.435        50.7380        145.513
         6470.0       6470.000        -999.25         70.562        52.1170        145.519
         6470.5       6470.500        -999.25         67.530        51.6790        145.526
         6471.0       6471.000        -999.25         64.182        51.2420        145.532
         6471.5       6471.500        -999.25         60.835        50.8050        145.539
         6472.0       6472.000        -999.25         57.487        50.8730        145.545
         6472.5       6472.500        -999.25         55.823        53.5620        145.551
         6473.0       6473.001        -999.25         55.974        56.2510        145.558
         6473.5       6473.500        -999.25         55.975        58.9410        145.564
         6474.0       6474.000        -999.25         53.172        61.9770        145.570
         6474.5       6474.500        -999.25         50.368        65.0710        145.577
         6475.0       6475.000        -999.25         47.565        68.1650        145.583
         6475.5       6475.500        -999.25         44.761        71.2590        145.590
         6476.0       6476.000        -999.25         42.873        74.3540        145.596
         6476.5       6476.500        -999.25         43.992        77.4480        145.602
         6477.0       6477.000        -999.25         45.111        80.5420        145.609
         6477.5       6477.501        -999.25         46.231        82.7510        145.615
         6478.0       6478.000        -999.25         47.350        77.6290        145.621
         6478.5       6478.501        -999.25         48.431        72.5060        145.628
         6479.0       6479.000        -999.25         45.514        67.3840        145.634
         6479.5       6479.500        -999.25         42.596        61.6160        145.641
         6480.0       6480.000        -999.25         39.679        55.6800        145.647
         6480.5       6480.500        -999.25         36.762        49.7440        145.653
         6481.0       6481.000        -999.25         38.750        43.8070        145.660
         6481.5       6481.500        -999.25         41.407        37.8710        145.666
         6482.0       6482.000        -999.25         44.063        34.5090        145.672
         6482.5       6482.500        -999.25         46.859        33.6010        145.679
         6483.0       6483.000        -999.25         54.055        32.6930        145.685
         6483.5       6483.500        -999.25         61.251        31.7850        145.692
         6484.0       6484.000        -999.25         68.447        30.8770        145.698
         6484.5       6484.500        -999.25         74.185        29.9700        145.704
         6485.0       6485.001        -999.25         78.337        29.0620        145.711
         6485.5       6485.500        -999.25         82.490        28.9040        145.717
         6486.0       6486.000        -999.25         85.342        30.0925        145.723
         6486.5       6486.500        -999.25         85.343        34.9370        145.730
         6487.0       6487.000        -999.25         84.720        62.8450        145.736
         6487.5       6487.500        -999.25         82.014        90.7530        145.743
         6488.0       6488.000        -999.25         79.307       118.6610        145.749
         6488.5       6488.500        -999.25         76.601       253.1700        145.755
         6489.0       6489.000        -999.25         73.895       459.1420        145.762
         6489.5       6489.501        -999.25         71.188       631.1360        145.768
         6490.0       6490.000        -999.25         68.482       777.4610        145.775
         6490.5       6490.500        -999.25         65.776       650.9660        145.781
         6491.0       6491.000        -999.25         63.069       524.4710        145.787
         6491.5       6491.500        -999.25         60.363       397.9750        145.794
         6492.0       6492.000        -999.25         58.332       271.4800        145.800
         6492.5       6492.500        -999.25         58.332       350.8209        145.806
         6493.0       6493.000        -999.25         58.333       499.6470        145.813
         6493.5       6493.500        -999.25         57.377       648.5570        145.819
