###############################################
##         ENVERUS                           ##
##         Petrophysical Curves              ##
##         PERMIAN / DELAWARE                ##
##         Jan 21 2022                       ##
##         42-389-30261-00-00                ##
###############################################
## Copyright 2017-2022  ENVERUS.  All Rights Reserved. 
## Confidential - Property of ENVERUS, use governed by terms and 
## conditions found within the existing Information Services Subscription Agreement 
## (as may be amended, the “ISSA”) between Customer and ENVERUS. 
## 
~VERSION INFORMATION
# MNEM.UNIT                               DATA : DESCRIPTION OF MNEMONIC
#-----.-----     ----------------------------- : -----------------------------
VERS.                                     2.00 : CWLS LOG ASCII STANDARD - VERSION 2.00
WRAP.                                       NO : MULTIPLE LINES PER DEPTH STEP
VEND.                                  ENVERUS : VENDOR
TYPE.                     PETROPHYSICAL CURVES : ENVERUS PETROPHYSICAL CURVES - ACCESSIBLE THROUGH ENVERUS CORE(TM)
#___________________________________________________________________________________________________ 
~WELL INFORMATION 
# uyaQ8P8kQDJ9DXFS5hR1PxmExEOYaAUkY5f3/tnOS+scoPAUWgXA1zCIHGRbWCuSuUcwDzaESCjqjWQ81XhadA== 
# MNEM.UNIT                                              DATA : DESCRIPTION OF MNEMONIC 
#-----.-----                    ----------------------------- : ----------------------------- 
CNTY.                                                  REEVES : COUNTY 
STATE.                                                  TEXAS : STATE 
CNTRY.                                                    USA : COUNTRY 
API.                                             42-389-30261 : API (10 Digit) 
API_14.                                    42-389-30261-00-00 : API (14 Digits) 
API_14_std.                                 42-389-30261-0000 : API (14 Digits Standard) 
UWI.                                           42389302610000 : UNIQUE WELL ID
STRT.FT                                                 202.0 : START DEPTH
STOP.FT                                               18968.0 : STOP DEPTH
STEP.FT                                                   0.5 : STEP BETWEEN DEPTHS
NULL.                                                 -999.25 : NULL VALUE
COMP.                                                      BP : COMPANY 
WELL.                                                TXL-39 1 : WELL NAME 
FLD.                                            CHAPMAN  DEEP : FIELD NAME
#___________________________________________________________________________________________________ 
~CURVE INFORMATION 
#    Zone Description
#          1 = Upper Avalon
#          2 = Middle Avalon
#          3 = Lower Avalon
#          4 = 1st Bone Spring
#          5 = 2nd Bone Spring
#          6 = 2nd Bone Spring Sand
#          7 = 3rd Bone Spring
#          8 = 3rd Bone Spring Sand
#          9 = Wolfcamp XY
#          10 = Wolfcamp A Upper
#          11 = Wolfcamp A Lower
#          12 = Wolfcamp B Upper
#          13 = Wolfcamp B Lower
#          14 = Wolfcamp C
#          15 = Wolfcamp D
#          16 = Pennsylvanian Shale
#          17 = Lower Pennsylvanian Shale
#          18 = Barnett
#          19 = Barnett Lower
#          20 = Mississippian Lime
#          21 = Woodford
#          22 = Base Woodford 
# MNEM.UNIT           : CURVE DESCRIPTION 
#-----.-----          : ----------------------------- 
 DEPT.FT               : MEASURED DEPTH 
 TVD_I.FT              : ENVERUS TRUE VERTICAL DEPTH 
 ZONE_I.               : ENVERUS DEFINED ZONE CODE 
 GR_N_I.API            : ENVERUS NORMALIZED GAMMA RAY LEVERAGED IN GEOLOGICAL MODELLING 
 RESD_I.OHMM           : ENVERUS DEEP RESISTIVITY LEVERAGED IN GEOLOGICAL MODELLING 
 TEMP_I.DEGF           : ENVERUS INTERPRETED TEMPERATURE DERIVED FROM BOTTOM HOLE TEMPERATURES 
 #___________________________________________________________________________________________________ 
~A         DEPT          TVD_I         ZONE_I         GR_N_I         RESD_I         TEMP_I
# ...
        11466.0      11466.000        -999.25         67.843      -999.2500        209.239
        11466.5      11466.500        -999.25         68.401      -999.2500        209.246
        11467.0      11467.000        -999.25         68.958      -999.2500        209.252
        11467.5      11467.500        -999.25         69.516      -999.2500        209.258
        11468.0      11468.000        -999.25         70.073      -999.2500        209.265
        11468.5      11468.500        -999.25         70.631      -999.2500        209.271
        11469.0      11469.000        -999.25         69.629      -999.2500        209.277
        11469.5      11469.500        -999.25         68.195      -999.2500        209.284
        11470.0      11470.000        -999.25         66.762      -999.2500        209.290
        11470.5      11470.501        -999.25         65.328      -999.2500        209.297
        11471.0      11471.000        -999.25         63.895      -999.2500        209.303
        11471.5      11471.500        -999.25         62.461      -999.2500        209.309
        11472.0      11472.000        -999.25         61.028      -999.2500        209.316
        11472.5      11472.500        -999.25         59.594      -999.2500        209.322
        11473.0      11473.000        -999.25         61.153      -999.2500        209.328
        11473.5      11473.500        -999.25         63.856      -999.2500        209.335
        11474.0      11473.999        -999.25         66.558      -999.2500        209.341
        11474.5      11474.499        -999.25         68.729      -999.2500        209.348
        11475.0      11475.000        -999.25         66.857      -999.2500        209.354
        11475.5      11475.500        -999.25         64.984      -999.2500        209.360
        11476.0      11476.000        -999.25         63.111      -999.2500        209.367
        11476.5      11476.500        -999.25         61.238      -999.2500        209.373
        11477.0      11477.000        -999.25         59.365      -999.2500        209.379
        11477.5      11477.500        -999.25         57.493      -999.2500        209.386
        11478.0      11478.000        -999.25         59.290      -999.2500        209.392
        11478.5      11478.500        -999.25         62.952      -999.2500        209.399
        11479.0      11479.001        -999.25         66.614      -999.2500        209.405
        11479.5      11479.501        -999.25         70.276      -999.2500        209.411
        11480.0      11480.000        -999.25         73.877      -999.2500        209.418
        11480.5      11480.500        -999.25         76.510      -999.2500        209.424
        11481.0      11480.999        -999.25         79.143      -999.2500        209.430
        11481.5      11481.500        -999.25         79.237      -999.2500        209.437
        11482.0      11482.000        -999.25         77.999      -999.2500        209.443
        11482.5      11482.500        -999.25         76.762      -999.2500        209.450
        11483.0      11483.000        -999.25         75.524      -999.2500        209.456
        11483.5      11483.500        -999.25         74.622      -999.2500        209.462
        11484.0      11484.000        -999.25         73.921      -999.2500        209.469
        11484.5      11484.500        -999.25         73.202      -999.2500        209.475
        11485.0      11485.000        -999.25         70.215      -999.2500        209.481
        11485.5      11485.501        -999.25         67.228      -999.2500        209.488
        11486.0      11486.000        -999.25         64.241      -999.2500        209.494
        11486.5      11486.500        -999.25         62.462      -999.2500        209.501
        11487.0      11487.000        -999.25         61.573      -999.2500        209.507
        11487.5      11487.500        -999.25         60.685      -999.2500        209.513
        11488.0      11488.001        -999.25         59.796      -999.2500        209.520
        11488.5      11488.500        -999.25         58.509      -999.2500        209.526
        11489.0      11489.000        -999.25         54.879      -999.2500        209.533
        11489.5      11489.499        -999.25         51.249      -999.2500        209.539
        11490.0      11490.000        -999.25         47.620      -999.2500        209.545
        11490.5      11490.500        -999.25         43.990      -999.2500        209.552
        11491.0      11491.000        -999.25         40.848      -999.2500        209.558
        11491.5      11491.500        -999.25         38.893      -999.2500        209.564
        11492.0      11492.000        -999.25         38.325      -999.2500        209.571
        11492.5      11492.500        -999.25         41.396      -999.2500        209.577
        11493.0      11493.000        -999.25         44.314      -999.2500        209.584
        11493.5      11493.500        -999.25         47.063      -999.2500        209.590
        11494.0      11494.000        -999.25         49.526      -999.2500        209.596
        11494.5      11494.501        -999.25         51.216      -999.2500        209.603
        11495.0      11495.000        -999.25         52.905      -999.2500        209.609
        11495.5      11495.500        -999.25         57.237      -999.2500        209.615
        11496.0      11496.000        -999.25         64.678      -999.2500        209.622
        11496.5      11496.501        -999.25         72.118      -999.2500        209.628
        11497.0      11497.000        -999.25         77.555      -999.2500        209.635
        11497.5      11497.500        -999.25         77.691      -999.2500        209.641
        11498.0      11497.999        -999.25         77.402      -999.2500        209.647
        11498.5      11498.500        -999.25         75.936      -999.2500        209.654
        11499.0      11499.000        -999.25         74.471      -999.2500        209.660
        11499.5      11499.500        -999.25         73.034      -999.2500        209.666
        11500.0      11500.000        -999.25         72.319      -999.2500        209.673
        11500.5      11500.500        -999.25         71.603      -999.2500        209.679
        11501.0      11501.000        -999.25         70.888      -999.2500        209.686
        11501.5      11501.500        -999.25         70.186      -999.2500        209.692
        11502.0      11502.000        -999.25         70.569      -999.2500        209.698
        11502.5      11502.500        -999.25         70.953      -999.2500        209.705
        11503.0      11503.001        -999.25         71.336      -999.2500        209.711
        11503.5      11503.500        -999.25         71.720      -999.2500        209.717
        11504.0      11504.000        -999.25         72.103      -999.2500        209.724
        11504.5      11504.499        -999.25         72.487      -999.2500        209.730
        11505.0      11505.000        -999.25         71.553      -999.2500        209.737
        11505.5      11505.500        -999.25         71.500      -999.2500        209.743
        11506.0      11506.000        -999.25         73.574      -999.2500        209.749
        11506.5      11506.500        -999.25         75.648      -999.2500        209.756
        11507.0      11507.000        -999.25         77.723      -999.2500        209.762
        11507.5      11507.500        -999.25         77.766      -999.2500        209.768
        11508.0      11508.000        -999.25         76.202      -999.2500        209.775
        11508.5      11508.500        -999.25         74.639      -999.2500        209.781
        11509.0      11509.000        -999.25         73.215      -999.2500        209.788
        11509.5      11509.501        -999.25         71.912      -999.2500        209.794
