###############################################
##         ENVERUS                           ##
##         ESS - Open Hole                   ##
##         PERMIAN / DELAWARE                ##
##         Nov 04 2023  V4.0                 ##
##         42-389-30469-00-00                ##
###############################################
## Copyright 2017-2023  ENVERUS.  All Rights Reserved. 
## Confidential - Property of ENVERUS, use governed by terms and 
## conditions found within the existing Information Services Subscription Agreement 
## (as may be amended, the “ISSA”) between Customer and ENVERUS. 
## 
~VERSION INFORMATION
# MNEM.UNIT                               DATA : DESCRIPTION OF MNEMONIC
#-----.-----     ----------------------------- : -----------------------------
VERS.                                     2.00 : CWLS LOG ASCII STANDARD - VERSION 2.00
WRAP.                                       NO : MULTIPLE LINES PER DEPTH STEP
VEND.                                  ENVERUS : VENDOR
TYPE.                          ESS - OPEN HOLE : ENVERUS ESSENTIAL CURVES – ACCESSIBLE THROUGH ENVERUS PRISM(TM)
DOC.                                  32305858 : ENVERUS HEADER RAW DOCUMENT ID
#___________________________________________________________________________________________________ 
~WELL INFORMATION 
# QLEmRB3tAfi4h2ohjzYx3rsZtS9yBcz1q2joqn0STWfPGhk373gRG/+4vKKA+3S/hWA+0diIcqk9K+n3WoLixw== 
# MNEM.UNIT                                              DATA : DESCRIPTION OF MNEMONIC 
#-----.-----                    ----------------------------- : ----------------------------- 
CNTY.                                                  REEVES : COUNTY 
STATE.                                                  TEXAS : STATE 
CNTRY.                                                    USA : COUNTRY 
API.                                             42-389-30469 : API (10 Digit) 
API_14.                                    42-389-30469-00-00 : API (14 Digits) 
API_14_std.                                 42-389-30469-0000 : API (14 Digits Standard) 
UWI.                                           42389304690000 : UNIQUE WELL ID 
WELL.                                                 WYNNE 1 : WELL NAME
STRT.FT                                                  30.0 : START DEPTH
STOP.FT                                               15871.0 : STOP DEPTH
STEP.FT                                                   0.5 : STEP BETWEEN DEPTHS
NULL.                                                 -999.25 : NULL VALUE
#___________________________________________________________________________________________________ 
~CURVE INFORMATION 
# MNEM.UNIT           : CURVE DESCRIPTION 
#-----.-----          : ----------------------------- 
 DEPT.FT               : MEASURED DEPTH 
 CALI.IN               : CALIPER (CAL - CAL) 
 GR.API                : GAMMA RAY (GR) 
 DT.US/FT              : SONIC DELTA TRANSIT TIME (DT) 
 #___________________________________________________________________________________________________ 
~A         DEPT           CALI             GR             DT
# ...
        12636.0         10.499         45.320         68.980
        12636.5         10.484         42.886         68.123
        12637.0         10.469         40.452         67.267
        12637.5         10.454         38.162         66.410
        12638.0         10.439         41.329         65.554
        12638.5         10.424         44.496         62.076
        12639.0         10.409         47.663         61.848
        12639.5         10.406         50.830         61.620
        12640.0         10.404         53.998         61.247
        12640.5         10.403         57.165         58.971
        12641.0         10.401         54.294         56.694
        12641.5         10.400         50.961         56.072
        12642.0         10.398         47.629         60.065
        12642.5         10.396         44.296         64.058
        12643.0         10.395         43.204         68.051
        12643.5         10.393         44.196         67.724
        12644.0         10.392         45.189         64.877
        12644.5         10.390         46.181         62.030
        12645.0         10.388         47.174         59.184
        12645.5         10.387         48.166         56.337
        12646.0         10.385         49.159         57.298
        12646.5         10.381         50.784         58.712
        12647.0         10.378         53.678         60.126
        12647.5         10.374         56.572         61.539
        12648.0         10.371         59.467         62.953
        12648.5         10.367         62.361         62.824
        12649.0         10.364         65.255         59.056
        12649.5         10.360         64.284         55.288
        12650.0         10.356         63.179         55.305
        12650.5         10.353         62.074         56.645
        12651.0         10.349         60.968         57.985
        12651.5         10.346         56.526         59.326
        12652.0         10.341         51.158         60.705
        12652.5         10.330         45.790         62.084
        12653.0         10.320         40.422         63.463
        12653.5         10.309         35.054         64.842
        12654.0         10.299         29.686         66.221
        12654.5         10.288         25.837         67.600
        12655.0         10.278         25.722         68.978
        12655.5         10.267         25.606         68.514
        12656.0         10.257         25.491         66.834
        12656.5         10.246         25.376         65.154
        12657.0         10.236         25.261         63.473
        12657.5         10.225         25.146         61.793
        12658.0         10.215         25.031         60.561
        12658.5         10.205         26.701         59.828
        12659.0         10.206         28.521         59.095
        12659.5         10.229         30.341         58.362
        12660.0         10.251         32.161         57.629
        12660.5         10.274         33.980         56.896
        12661.0         10.297         35.800         56.163
        12661.5         10.320         37.620         60.562
        12662.0         10.342         39.576         59.406
        12662.5         10.365         43.069         58.250
        12663.0         10.388         46.562         57.093
        12663.5         10.411         50.056         55.937
        12664.0         10.433         53.549         57.118
        12664.5         10.456         57.042         60.874
        12665.0         10.479         60.535         64.630
        12665.5         10.501         64.028         68.386
        12666.0         10.524         65.564         71.084
        12666.5         10.545         65.223         73.745
        12667.0         10.554         64.882         76.405
        12667.5         10.563         64.540         76.498
        12668.0         10.572         64.199         76.098
        12668.5         10.581         63.858         75.699
        12669.0         10.590         63.517         75.299
        12669.5         10.599         63.175         74.832
        12670.0         10.607         62.834         70.408
        12670.5         10.616         62.493         75.021
        12671.0         10.625         64.344         82.197
        12671.5         10.634         67.435         89.373
        12672.0         10.643         70.526         96.073
        12672.5         10.644         73.617         95.584
        12673.0         10.642         76.708         95.095
        12673.5         10.641         79.800         94.606
        12674.0         10.640         80.183         94.117
        12674.5         10.639         78.147         93.629
        12675.0         10.637         76.111         93.140
        12675.5         10.636         74.075         92.651
        12676.0         10.635         72.039         92.162
        12676.5         10.633         70.003         91.673
        12677.0         10.632         68.996         91.184
        12677.5         10.631         68.852         89.728
        12678.0         10.630         68.707         87.844
        12678.5         10.628         68.562         85.960
        12679.0         10.627         68.418         84.076
        12679.5         10.626         68.273         82.192
        12680.0         10.624         68.129         80.308
        12680.5         10.623         67.984         78.770
        12681.0         10.622         67.839         78.801
        12681.5         10.625         67.695         78.832
        12682.0         10.628         67.550         78.863
        12682.5         10.632         67.406         78.893
        12683.0         10.635         67.261         78.924
        12683.5         10.638         67.116         78.955
        12684.0         10.641         66.972         73.985
        12684.5         10.644         66.827         73.812
        12685.0         10.648         66.683         73.638
        12685.5         10.651         66.538         73.465
        12686.0         10.654         66.393         73.292
        12686.5         10.657         66.249         73.118
        12687.0         10.660         66.022         72.945
        12687.5         10.645         64.660         72.771
        12688.0         10.622         63.299         72.598
        12688.5         10.599         61.938         71.908
        12689.0         10.577         60.576         71.165
        12689.5         10.554         59.215         70.422
        12690.0         10.531         57.854         71.643
        12690.5         10.508         56.492         73.456
        12691.0         10.485         55.131         75.270
        12691.5         10.462         53.770         77.083
        12692.0         10.440         54.085         78.896
        12692.5         10.447         54.802         80.675
        12693.0         10.463         55.519         77.817
        12693.5         10.478         56.237         74.959
        12694.0         10.494         56.954         72.101
        12694.5         10.509         57.671         69.243
        12695.0         10.524         56.947         66.385
        12695.5         10.540         53.836         63.527
        12696.0         10.555         50.724         64.508
        12696.5         10.571         47.613         66.067
        12697.0         10.586         44.502         67.626
        12697.5         10.602         42.231         69.185
        12698.0         10.617         46.698         70.744
        12698.5         10.621         51.166         72.303
        12699.0         10.625         55.633         72.274
        12699.5         10.628         60.101         68.505
        12700.0         10.632         64.568         64.736
        12700.5         10.635         69.036         60.967
        12701.0         10.639         73.503         57.198
        12701.5         10.642         74.355         62.944
