###############################################
##         ENVERUS                           ##
##         Petrophysical Curves              ##
##         PERMIAN / DELAWARE                ##
##         Jan 21 2022                       ##
##         42-389-30261-00-00                ##
###############################################
## Copyright 2017-2022  ENVERUS.  All Rights Reserved. 
## Confidential - Property of ENVERUS, use governed by terms and 
## conditions found within the existing Information Services Subscription Agreement 
## (as may be amended, the “ISSA”) between Customer and ENVERUS. 
## 
~VERSION INFORMATION
# MNEM.UNIT                               DATA : DESCRIPTION OF MNEMONIC
#-----.-----     ----------------------------- : -----------------------------
VERS.                                     2.00 : CWLS LOG ASCII STANDARD - VERSION 2.00
WRAP.                                       NO : MULTIPLE LINES PER DEPTH STEP
VEND.                                  ENVERUS : VENDOR
TYPE.                     PETROPHYSICAL CURVES : ENVERUS PETROPHYSICAL CURVES - ACCESSIBLE THROUGH ENVERUS CORE(TM)
#___________________________________________________________________________________________________ 
~WELL INFORMATION 
# uyaQ8P8kQDJ9DXFS5hR1PxmExEOYaAUkY5f3/tnOS+scoPAUWgXA1zCIHGRbWCuSuUcwDzaESCjqjWQ81XhadA== 
# MNEM.UNIT                                              DATA : DESCRIPTION OF MNEMONIC 
#-----.-----                    ----------------------------- : ----------------------------- 
CNTY.                                                  REEVES : COUNTY 
STATE.                                                  TEXAS : STATE 
CNTRY.                                                    USA : COUNTRY 
API.                                             42-389-30261 : API (10 Digit) 
API_14.                                    42-389-30261-00-00 : API (14 Digits) 
API_14_std.                                 42-389-30261-0000 : API (14 Digits Standard) 
UWI.                                           42389302610000 : UNIQUE WELL ID
STRT.FT                                                 202.0 : START DEPTH
STOP.FT                                               18968.0 : STOP DEPTH
STEP.FT                                                   0.5 : STEP BETWEEN DEPTHS
NULL.                                                 -999.25 : NULL VALUE
COMP.                                                      BP : COMPANY 
WELL.                                                TXL-39 1 : WELL NAME 
FLD.                                            CHAPMAN  DEEP : FIELD NAME
#___________________________________________________________________________________________________ 
~CURVE INFORMATION 
#    Zone Description
#          1 = Upper Avalon
#          2 = Middle Avalon
#          3 = Lower Avalon
#          4 = 1st Bone Spring
#          5 = 2nd Bone Spring
#          6 = 2nd Bone Spring Sand
#          7 = 3rd Bone Spring
#          8 = 3rd Bone Spring Sand
#          9 = Wolfcamp XY
#          10 = Wolfcamp A Upper
#          11 = Wolfcamp A Lower
#          12 = Wolfcamp B Upper
#          13 = Wolfcamp B Lower
#          14 = Wolfcamp C
#          15 = Wolfcamp D
#          16 = Pennsylvanian Shale
#          17 = Lower Pennsylvanian Shale
#          18 = Barnett
#          19 = Barnett Lower
#          20 = Mississippian Lime
#          21 = Woodford
#          22 = Base Woodford 
# MNEM.UNIT           : CURVE DESCRIPTION 
#-----.-----          : ----------------------------- 
 DEPT.FT               : MEASURED DEPTH 
 TVD_I.FT              : ENVERUS TRUE VERTICAL DEPTH 
 ZONE_I.               : ENVERUS DEFINED ZONE CODE 
 GR_N_I.API            : ENVERUS NORMALIZED GAMMA RAY LEVERAGED IN GEOLOGICAL MODELLING 
 RESD_I.OHMM           : ENVERUS DEEP RESISTIVITY LEVERAGED IN GEOLOGICAL MODELLING 
 TEMP_I.DEGF           : ENVERUS INTERPRETED TEMPERATURE DERIVED FROM BOTTOM HOLE TEMPERATURES 
 #___________________________________________________________________________________________________ 
~A         DEPT          TVD_I         ZONE_I         GR_N_I         RESD_I         TEMP_I
# ...
        10190.0      10190.001        -999.25         68.957      -999.2500        192.965
        10190.5      10190.500        -999.25         71.497      -999.2500        192.971
        10191.0      10191.000        -999.25         67.518      -999.2500        192.978
        10191.5      10191.500        -999.25         63.539      -999.2500        192.984
        10192.0      10191.999        -999.25         59.710      -999.2500        192.990
        10192.5      10192.500        -999.25         56.547      -999.2500        192.997
        10193.0      10193.000        -999.25         53.383      -999.2500        193.003
        10193.5      10193.500        -999.25         49.160      -999.2500        193.010
        10194.0      10194.000        -999.25         44.610      -999.2500        193.016
        10194.5      10194.500        -999.25         40.059      -999.2500        193.022
        10195.0      10195.000        -999.25         39.553      -999.2500        193.029
        10195.5      10195.500        -999.25         50.345      -999.2500        193.035
        10196.0      10196.000        -999.25         55.769      -999.2500        193.041
        10196.5      10196.501        -999.25         61.193      -999.2500        193.048
        10197.0      10197.000        -999.25         62.012      -999.2500        193.054
        10197.5      10197.500        -999.25         62.397      -999.2500        193.061
        10198.0      10198.000        -999.25         62.782      -999.2500        193.067
        10198.5      10198.500        -999.25         63.166      -999.2500        193.073
        10199.0      10199.000        -999.25         62.138      -999.2500        193.080
        10199.5      10199.500        -999.25         60.558      -999.2500        193.086
        10200.0      10200.000        -999.25         58.978      -999.2500        193.092
        10200.5      10200.499        -999.25         57.925      -999.2500        193.099
        10201.0      10201.000        -999.25         59.030      -999.2500        193.105
        10201.5      10201.500        -999.25         60.136      -999.2500        193.112
        10202.0      10202.000        -999.25         61.241      -999.2500        193.118
        10202.5      10202.500        -999.25         62.068      -999.2500        193.124
        10203.0      10203.000        -999.25         61.909      -999.2500        193.131
        10203.5      10203.500        -999.25         61.749      -999.2500        193.137
        10204.0      10204.000        -999.25         61.589      -999.2500        193.143
        10204.5      10204.500        -999.25         61.430      -999.2500        193.150
        10205.0      10205.000        -999.25         61.092      -999.2500        193.156
        10205.5      10205.501        -999.25         60.712      -999.2500        193.163
        10206.0      10206.001        -999.25         60.332      -999.2500        193.169
        10206.5      10206.500        -999.25         59.951      -999.2500        193.175
        10207.0      10207.000        -999.25         59.571      -999.2500        193.182
        10207.5      10207.500        -999.25         59.765      -999.2500        193.188
        10208.0      10208.000        -999.25         61.335      -999.2500        193.194
        10208.5      10208.500        -999.25         62.905      -999.2500        193.201
        10209.0      10208.999        -999.25         63.685      -999.2500        193.207
        10209.5      10209.500        -999.25         61.254      -999.2500        193.214
        10210.0      10210.000        -999.25         58.824      -999.2500        193.220
        10210.5      10210.500        -999.25         56.394      -999.2500        193.226
        10211.0      10211.000        -999.25         53.963      -999.2500        193.233
        10211.5      10211.500        -999.25         51.468      -999.2500        193.239
        10212.0      10212.000        -999.25         48.567      -999.2500        193.245
        10212.5      10212.500        -999.25         46.141      -999.2500        193.252
        10213.0      10213.000        -999.25         44.487      -999.2500        193.258
        10213.5      10213.500        -999.25         49.012      -999.2500        193.265
        10214.0      10214.000        -999.25         54.520      -999.2500        193.271
        10214.5      10214.500        -999.25         56.394      -999.2500        193.277
        10215.0      10214.999        -999.25         58.268      -999.2500        193.284
        10215.5      10215.499        -999.25         60.141      -999.2500        193.290
        10216.0      10216.000        -999.25         62.015      -999.2500        193.296
        10216.5      10216.500        -999.25         60.995      -999.2500        193.303
        10217.0      10217.000        -999.25         59.489      -999.2500        193.309
        10217.5      10217.500        -999.25         57.983      -999.2500        193.316
        10218.0      10218.000        -999.25         58.777      -999.2500        193.322
        10218.5      10218.500        -999.25         60.243      -999.2500        193.328
        10219.0      10219.000        -999.25         61.708      -999.2500        193.335
        10219.5      10219.500        -999.25         63.174      -999.2500        193.341
        10220.0      10220.000        -999.25         64.637      -999.2500        193.347
        10220.5      10220.501        -999.25         66.094      -999.2500        193.354
        10221.0      10221.000        -999.25         67.551      -999.2500        193.360
        10221.5      10221.500        -999.25         69.008      -999.2500        193.367
        10222.0      10222.000        -999.25         70.465      -999.2500        193.373
        10222.5      10222.500        -999.25         71.391      -999.2500        193.379
        10223.0      10223.000        -999.25         70.864      -999.2500        193.386
        10223.5      10223.500        -999.25         70.337      -999.2500        193.392
        10224.0      10223.999        -999.25         69.810      -999.2500        193.399
        10224.5      10224.499        -999.25         69.283      -999.2500        193.405
        10225.0      10225.000        -999.25         68.756      -999.2500        193.411
        10225.5      10225.500        -999.25         68.228      -999.2500        193.418
        10226.0      10226.000        -999.25         67.701      -999.2500        193.424
        10226.5      10226.500        -999.25         65.757      -999.2500        193.430
        10227.0      10227.000        -999.25         63.382      -999.2500        193.437
        10227.5      10227.500        -999.25         61.523      -999.2500        193.443
        10228.0      10228.000        -999.25         63.140      -999.2500        193.450
        10228.5      10228.500        -999.25         64.758      -999.2500        193.456
        10229.0      10229.001        -999.25         64.718      -999.2500        193.462
        10229.5      10229.501        -999.25         63.951      -999.2500        193.469
        10230.0      10230.000        -999.25         63.627      -999.2500        193.475
        10230.5      10230.500        -999.25         64.500      -999.2500        193.481
        10231.0      10230.999        -999.25         65.372      -999.2500        193.488
        10231.5      10231.500        -999.25         66.244      -999.2500        193.494
        10232.0      10232.000        -999.25         65.832      -999.2500        193.501
        10232.5      10232.500        -999.25         62.312      -999.2500        193.507
        10233.0      10233.000        -999.25         59.637      -999.2500        193.513
        10233.5      10233.500        -999.25         59.264      -999.2500        193.520
