###############################################
##         ENVERUS                           ##
##         Petrophysical Curves              ##
##         PERMIAN / DELAWARE                ##
##         Jan 21 2022                       ##
##         42-389-30261-00-00                ##
###############################################
## Copyright 2017-2022  ENVERUS.  All Rights Reserved. 
## Confidential - Property of ENVERUS, use governed by terms and 
## conditions found within the existing Information Services Subscription Agreement 
## (as may be amended, the “ISSA”) between Customer and ENVERUS. 
## 
~VERSION INFORMATION
# MNEM.UNIT                               DATA : DESCRIPTION OF MNEMONIC
#-----.-----     ----------------------------- : -----------------------------
VERS.                                     2.00 : CWLS LOG ASCII STANDARD - VERSION 2.00
WRAP.                                       NO : MULTIPLE LINES PER DEPTH STEP
VEND.                                  ENVERUS : VENDOR
TYPE.                     PETROPHYSICAL CURVES : ENVERUS PETROPHYSICAL CURVES - ACCESSIBLE THROUGH ENVERUS CORE(TM)
#___________________________________________________________________________________________________ 
~WELL INFORMATION 
# uyaQ8P8kQDJ9DXFS5hR1PxmExEOYaAUkY5f3/tnOS+scoPAUWgXA1zCIHGRbWCuSuUcwDzaESCjqjWQ81XhadA== 
# MNEM.UNIT                                              DATA : DESCRIPTION OF MNEMONIC 
#-----.-----                    ----------------------------- : ----------------------------- 
CNTY.                                                  REEVES : COUNTY 
STATE.                                                  TEXAS : STATE 
CNTRY.                                                    USA : COUNTRY 
API.                                             42-389-30261 : API (10 Digit) 
API_14.                                    42-389-30261-00-00 : API (14 Digits) 
API_14_std.                                 42-389-30261-0000 : API (14 Digits Standard) 
UWI.                                           42389302610000 : UNIQUE WELL ID
STRT.FT                                                 202.0 : START DEPTH
STOP.FT                                               18968.0 : STOP DEPTH
STEP.FT                                                   0.5 : STEP BETWEEN DEPTHS
NULL.                                                 -999.25 : NULL VALUE
COMP.                                                      BP : COMPANY 
WELL.                                                TXL-39 1 : WELL NAME 
FLD.                                            CHAPMAN  DEEP : FIELD NAME
#___________________________________________________________________________________________________ 
~CURVE INFORMATION 
#    Zone Description
#          1 = Upper Avalon
#          2 = Middle Avalon
#          3 = Lower Avalon
#          4 = 1st Bone Spring
#          5 = 2nd Bone Spring
#          6 = 2nd Bone Spring Sand
#          7 = 3rd Bone Spring
#          8 = 3rd Bone Spring Sand
#          9 = Wolfcamp XY
#          10 = Wolfcamp A Upper
#          11 = Wolfcamp A Lower
#          12 = Wolfcamp B Upper
#          13 = Wolfcamp B Lower
#          14 = Wolfcamp C
#          15 = Wolfcamp D
#          16 = Pennsylvanian Shale
#          17 = Lower Pennsylvanian Shale
#          18 = Barnett
#          19 = Barnett Lower
#          20 = Mississippian Lime
#          21 = Woodford
#          22 = Base Woodford 
# MNEM.UNIT           : CURVE DESCRIPTION 
#-----.-----          : ----------------------------- 
 DEPT.FT               : MEASURED DEPTH 
 TVD_I.FT              : ENVERUS TRUE VERTICAL DEPTH 
 ZONE_I.               : ENVERUS DEFINED ZONE CODE 
 GR_N_I.API            : ENVERUS NORMALIZED GAMMA RAY LEVERAGED IN GEOLOGICAL MODELLING 
 RESD_I.OHMM           : ENVERUS DEEP RESISTIVITY LEVERAGED IN GEOLOGICAL MODELLING 
 TEMP_I.DEGF           : ENVERUS INTERPRETED TEMPERATURE DERIVED FROM BOTTOM HOLE TEMPERATURES 
 #___________________________________________________________________________________________________ 
~A         DEPT          TVD_I         ZONE_I         GR_N_I         RESD_I         TEMP_I
# ...
         7682.0       7682.000           4.00         33.597        11.0870        160.977
         7682.5       7682.500           4.00         35.604        11.3250        160.984
         7683.0       7683.000           4.00         37.610        11.5630        160.990
         7683.5       7683.501           4.00         39.617        11.6380        160.997
         7684.0       7684.000           4.00         41.623        10.7860        161.003
         7684.5       7684.500           4.00         43.630         9.9350        161.009
         7685.0       7685.000           4.00         45.636         9.0830        161.016
         7685.5       7685.500           4.00         55.583         8.2296        161.022
         7686.0       7686.001           4.00         66.348         7.3800        161.028
         7686.5       7686.500           4.00         77.113         6.5330        161.035
         7687.0       7687.000           4.00         90.946         8.7790        161.041
         7687.5       7687.500           4.00        104.881        98.8670        161.048
         7688.0       7688.001           4.00        105.064        97.6260        161.054
         7688.5       7688.501           4.00         99.972        96.3850        161.060
         7689.0       7689.000           4.00         92.457        95.1440        161.067
         7689.5       7689.500           4.00         84.776        93.9030        161.073
         7690.0       7690.001           4.00         77.095        92.6620        161.080
         7690.5       7690.500           4.00         72.642        91.4210        161.086
         7691.0       7691.000           4.00         69.805        91.4170        161.092
         7691.5       7691.500           4.00         66.968       116.3830        161.099
         7692.0       7692.000           4.00         64.132       141.3890        161.105
         7692.5       7692.500           4.00         61.295       166.3160        161.111
         7693.0       7693.000           4.00         58.107       165.9040        161.118
         7693.5       7693.500           4.00         41.805       159.4420        161.124
         7694.0       7694.000           4.00         45.225       152.9800        161.130
         7694.5       7694.500           4.00         48.645       146.5180        161.137
         7695.0       7695.000           4.00         52.066       140.0560        161.143
         7695.5       7695.500           4.00         58.353       133.5940        161.150
         7696.0       7696.000           4.00         65.268       107.9700        161.156
         7696.5       7696.501           4.00         72.183        79.9530        161.162
         7697.0       7697.001           4.00         71.698        67.4730        161.169
         7697.5       7697.500           4.00         69.624        54.9920        161.175
         7698.0       7698.000           4.00         66.906        42.5120        161.182
         7698.5       7698.500           4.00         63.063        30.0110        161.188
         7699.0       7699.000           4.00         59.220        17.5510        161.194
         7699.5       7699.500           4.00         56.356        11.2810        161.201
         7700.0       7700.000           4.00         54.387         9.9260        161.207
         7700.5       7700.500           4.00         52.419         8.5700        161.213
         7701.0       7701.001           4.00         50.419         7.2150        161.220
         7701.5       7701.500           4.00         44.726         5.8590        161.226
         7702.0       7702.000           4.00         39.033         6.5590        161.233
         7702.5       7702.500           4.00         34.371         8.0200        161.239
         7703.0       7703.001           4.00         36.493         7.9750        161.245
         7703.5       7703.500           4.00         38.615         7.5020        161.252
         7704.0       7704.000           4.00         40.736         7.0290        161.258
         7704.5       7704.500           4.00         40.339         6.5560        161.264
         7705.0       7705.000           4.00         38.898         6.1260        161.271
         7705.5       7705.501           4.00         37.457         7.4100        161.277
         7706.0       7706.000           4.00         36.015         8.6930        161.284
         7706.5       7706.500           4.00         35.993         9.9770        161.290
         7707.0       7707.000           4.00         41.066        11.2600        161.296
         7707.5       7707.501           4.00         43.456        12.5440        161.303
         7708.0       7708.001           4.00         45.847        13.8270        161.309
         7708.5       7708.500           4.00         48.237        15.1110        161.315
         7709.0       7709.000           4.00         55.253        24.5100        161.322
         7709.5       7709.501           4.00         68.085        36.2680        161.328
         7710.0       7710.000           4.00         69.849        48.0260        161.335
         7710.5       7710.500           4.00         71.614        56.4600        161.341
         7711.0       7711.000           4.00         73.378        62.8000        161.347
         7711.5       7711.500           4.00         75.140        69.1410        161.354
         7712.0       7712.001           4.00         72.686        75.4810        161.360
         7712.5       7712.500           4.00         70.233        81.8210        161.366
         7713.0       7713.000           4.00         67.333        88.1620        161.373
         7713.5       7713.500           4.00         62.424        94.5020        161.379
         7714.0       7714.000           4.00         57.514       121.6640        161.386
         7714.5       7714.500           4.00         52.605       149.0050        161.392
         7715.0       7715.000           4.00         47.696       176.3460        161.398
         7715.5       7715.500           4.00         42.260       203.6880        161.405
         7716.0       7716.001           4.00         36.754       231.0290        161.411
         7716.5       7716.501           4.00         31.248       247.9830        161.417
         7717.0       7717.000           4.00         32.877       191.4140        161.424
         7717.5       7717.500           4.00         38.435       134.8450        161.430
         7718.0       7718.000           4.00         43.992       102.1930        161.437
         7718.5       7718.500           4.00         50.199       144.0850        161.443
         7719.0       7719.000           4.00         56.430       185.9780        161.449
         7719.5       7719.500           4.00         56.677       189.8380        161.456
         7720.0       7720.000           4.00         53.411       176.9140        161.462
         7720.5       7720.501           4.00         50.145       163.9910        161.468
         7721.0       7721.000           4.00         46.880       151.0670        161.475
         7721.5       7721.500           4.00         47.550       138.1440        161.481
         7722.0       7722.000           4.00         49.673       125.2200        161.488
         7722.5       7722.501           4.00         51.796       120.3900        161.494
         7723.0       7723.001           4.00         54.120       122.2830        161.500
         7723.5       7723.500           4.00         56.552       124.1760        161.507
         7724.0       7724.000           4.00         59.672       124.6300        161.513
         7724.5       7724.500           4.00         64.728       119.0640        161.520
         7725.0       7725.000           4.00         69.784       113.4980        161.526
         7725.5       7725.500           4.00         73.164       107.9320        161.532
