###############################################
##         ENVERUS                           ##
##         ESS - Open Hole                   ##
##         PERMIAN / DELAWARE                ##
##         Nov 04 2023  V4.0                 ##
##         42-389-30469-00-00                ##
###############################################
## Copyright 2017-2023  ENVERUS.  All Rights Reserved. 
## Confidential - Property of ENVERUS, use governed by terms and 
## conditions found within the existing Information Services Subscription Agreement 
## (as may be amended, the “ISSA”) between Customer and ENVERUS. 
## 
~VERSION INFORMATION
# MNEM.UNIT                               DATA : DESCRIPTION OF MNEMONIC
#-----.-----     ----------------------------- : -----------------------------
VERS.                                     2.00 : CWLS LOG ASCII STANDARD - VERSION 2.00
WRAP.                                       NO : MULTIPLE LINES PER DEPTH STEP
VEND.                                  ENVERUS : VENDOR
TYPE.                          ESS - OPEN HOLE : ENVERUS ESSENTIAL CURVES – ACCESSIBLE THROUGH ENVERUS PRISM(TM)
DOC.                                  32305858 : ENVERUS HEADER RAW DOCUMENT ID
#___________________________________________________________________________________________________ 
~WELL INFORMATION 
# QLEmRB3tAfi4h2ohjzYx3rsZtS9yBcz1q2joqn0STWfPGhk373gRG/+4vKKA+3S/hWA+0diIcqk9K+n3WoLixw== 
# MNEM.UNIT                                              DATA : DESCRIPTION OF MNEMONIC 
#-----.-----                    ----------------------------- : ----------------------------- 
CNTY.                                                  REEVES : COUNTY 
STATE.                                                  TEXAS : STATE 
CNTRY.                                                    USA : COUNTRY 
API.                                             42-389-30469 : API (10 Digit) 
API_14.                                    42-389-30469-00-00 : API (14 Digits) 
API_14_std.                                 42-389-30469-0000 : API (14 Digits Standard) 
UWI.                                           42389304690000 : UNIQUE WELL ID 
WELL.                                                 WYNNE 1 : WELL NAME
STRT.FT                                                  30.0 : START DEPTH
STOP.FT                                               15871.0 : STOP DEPTH
STEP.FT                                                   0.5 : STEP BETWEEN DEPTHS
NULL.                                                 -999.25 : NULL VALUE
#___________________________________________________________________________________________________ 
~CURVE INFORMATION 
# MNEM.UNIT           : CURVE DESCRIPTION 
#-----.-----          : ----------------------------- 
 DEPT.FT               : MEASURED DEPTH 
 CALI.IN               : CALIPER (CAL - CAL) 
 GR.API                : GAMMA RAY (GR) 
 DT.US/FT              : SONIC DELTA TRANSIT TIME (DT) 
 #___________________________________________________________________________________________________ 
~A         DEPT           CALI             GR             DT
# ...
         9468.0         13.140         58.540         72.752
         9468.5         13.144         61.130         70.017
         9469.0         13.148         63.721         69.725
         9469.5         13.153         66.312         70.149
         9470.0         13.157         67.002         70.573
         9470.5         13.161         66.007         70.996
         9471.0         13.166         65.012         71.420
         9471.5         13.170         64.017         71.844
         9472.0         13.174         63.022         72.268
         9472.5         13.179         62.027         69.183
         9473.0         13.183         62.685         65.686
         9473.5         13.187         64.249         67.403
         9474.0         13.192         64.770         69.120
         9474.5         13.196         62.046         70.838
         9475.0         13.200         59.323         71.477
         9475.5         13.205         56.600         71.809
         9476.0         13.209         53.877         72.141
         9476.5         13.213         51.289         72.473
         9477.0         13.218         54.042         72.805
         9477.5         13.222         56.795         73.137
         9478.0         13.226         59.547         73.469
         9478.5         13.231         62.300         73.800
         9479.0         13.235         64.444         73.385
         9479.5         13.239         65.301         72.797
         9480.0         13.244         66.159         72.208
         9480.5         13.248         65.373         71.619
         9481.0         13.252         64.849         71.031
         9481.5         13.257         66.146         66.569
         9482.0         13.261         67.443         58.729
         9482.5         13.265         68.740         60.804
         9483.0         13.270         70.037         62.878
         9483.5         13.274         67.812         64.953
         9484.0         13.278         59.767         67.028
         9484.5         13.283         51.721         69.103
         9485.0         13.285         43.675         71.178
         9485.5         13.281         41.682         71.815
         9486.0         13.277         46.206         72.049
         9486.5         13.273         50.730         72.283
         9487.0         13.269         55.253         72.516
         9487.5         13.266         59.777         72.750
         9488.0         13.262         64.301         72.984
         9488.5         13.258         68.824         73.218
         9489.0         13.254         66.781         73.451
         9489.5         13.250         61.171         72.740
         9490.0         13.246         55.562         71.976
         9490.5         13.242         49.952         71.213
         9491.0         13.239         44.633         70.872
         9491.5         13.235         48.965         71.996
         9492.0         13.231         53.297         73.120
         9492.5         13.227         57.629         74.244
         9493.0         13.223         61.961         75.368
         9493.5         13.219         66.294         76.493
         9494.0         13.215         70.626         77.489
         9494.5         13.211         74.958         76.950
         9495.0         13.208         74.910         76.412
         9495.5         13.204         68.595         75.873
         9496.0         13.200         62.279         75.335
         9496.5         13.196         55.964         74.796
         9497.0         13.192         49.649         74.258
         9497.5         13.188         43.334         73.719
         9498.0         13.184         44.523         73.180
         9498.5         13.180         47.749         72.642
         9499.0         13.177         50.975         72.065
         9499.5         13.173         54.201         71.480
         9500.0         13.169         53.532         70.896
         9500.5         13.165         52.440         70.345
         9501.0         13.164         51.347         71.721
         9501.5         13.165         50.255         73.097
         9502.0         13.165         59.468         74.473
         9502.5         13.166         73.291         75.849
         9503.0         13.166         87.115         77.225
         9503.5         13.167         93.008         76.794
         9504.0         13.167         88.247         75.283
         9504.5         13.168         83.487         73.772
         9505.0         13.168         78.726         72.261
         9505.5         13.169         73.966         71.428
         9506.0         13.169         69.205         71.061
         9506.5         13.170         63.996         70.694
         9507.0         13.170         58.780         70.327
         9507.5         13.171         53.563         69.960
         9508.0         13.171         48.347         69.594
         9508.5         13.172         43.131         69.253
         9509.0         13.172         37.915         68.912
         9509.5         13.173         36.671         68.571
         9510.0         13.173         38.370         68.230
         9510.5         13.174         40.069         65.902
         9511.0         13.174         42.677         58.935
         9511.5         13.175         46.772         59.752
         9512.0         13.175         50.868         63.520
         9512.5         13.176         52.560         67.289
         9513.0         13.176         49.125         71.058
         9513.5         13.177         45.691         73.293
         9514.0         13.177         42.257         73.564
         9514.5         13.178         46.323         73.835
         9515.0         13.178         52.385         74.107
         9515.5         13.179         58.447         74.378
         9516.0         13.179         64.509         74.860
         9516.5         13.180         70.572         76.266
         9517.0         13.180         76.634         77.673
         9517.5         13.181         82.696         79.079
         9518.0         13.181         88.758         66.338
         9518.5         13.182         87.209         67.286
         9519.0         13.182         81.703         68.233
         9519.5         13.183         76.196         69.181
         9520.0         13.183         70.690         70.128
         9520.5         13.184         65.183         71.076
         9521.0         13.184         59.676         72.024
         9521.5         13.185         56.228         72.971
         9522.0         13.185         60.676         73.919
         9522.5         13.186         65.123         74.866
         9523.0         13.186         69.570         75.814
         9523.5         13.187         74.018         76.761
         9524.0         13.187         78.465         77.709
         9524.5         13.188         82.913         77.016
         9525.0         13.188         87.360         75.741
         9525.5         13.189         91.807         74.465
         9526.0         13.189         87.746         73.190
         9526.5         13.190         82.145         71.915
         9527.0         13.190         76.545         64.427
         9527.5         13.191         70.945         72.133
         9528.0         13.191         65.344         72.566
         9528.5         13.192         59.744         72.999
         9529.0         13.192         54.144         73.432
         9529.5         13.193         54.633         73.865
         9530.0         13.193         62.296         74.298
         9530.5         13.194         69.959         74.933
         9531.0         13.194         77.622         75.633
         9531.5         13.195         77.416         74.202
         9532.0         13.195         75.938         72.445
         9532.5         13.196         74.460         70.689
         9533.0         13.196         72.982         68.933
         9533.5         13.197         69.335         59.218
