###############################################
##         ENVERUS                           ##
##         ESS - Open Hole                   ##
##         PERMIAN / DELAWARE                ##
##         Nov 04 2023  V4.0                 ##
##         42-389-30469-00-00                ##
###############################################
## Copyright 2017-2023  ENVERUS.  All Rights Reserved. 
## Confidential - Property of ENVERUS, use governed by terms and 
## conditions found within the existing Information Services Subscription Agreement 
## (as may be amended, the “ISSA”) between Customer and ENVERUS. 
## 
~VERSION INFORMATION
# MNEM.UNIT                               DATA : DESCRIPTION OF MNEMONIC
#-----.-----     ----------------------------- : -----------------------------
VERS.                                     2.00 : CWLS LOG ASCII STANDARD - VERSION 2.00
WRAP.                                       NO : MULTIPLE LINES PER DEPTH STEP
VEND.                                  ENVERUS : VENDOR
TYPE.                          ESS - OPEN HOLE : ENVERUS ESSENTIAL CURVES – ACCESSIBLE THROUGH ENVERUS PRISM(TM)
DOC.                                  32305858 : ENVERUS HEADER RAW DOCUMENT ID
#___________________________________________________________________________________________________ 
~WELL INFORMATION 
# QLEmRB3tAfi4h2ohjzYx3rsZtS9yBcz1q2joqn0STWfPGhk373gRG/+4vKKA+3S/hWA+0diIcqk9K+n3WoLixw== 
# MNEM.UNIT                                              DATA : DESCRIPTION OF MNEMONIC 
#-----.-----                    ----------------------------- : ----------------------------- 
CNTY.                                                  REEVES : COUNTY 
STATE.                                                  TEXAS : STATE 
CNTRY.                                                    USA : COUNTRY 
API.                                             42-389-30469 : API (10 Digit) 
API_14.                                    42-389-30469-00-00 : API (14 Digits) 
API_14_std.                                 42-389-30469-0000 : API (14 Digits Standard) 
UWI.                                           42389304690000 : UNIQUE WELL ID 
WELL.                                                 WYNNE 1 : WELL NAME
STRT.FT                                                  30.0 : START DEPTH
STOP.FT                                               15871.0 : STOP DEPTH
STEP.FT                                                   0.5 : STEP BETWEEN DEPTHS
NULL.                                                 -999.25 : NULL VALUE
#___________________________________________________________________________________________________ 
~CURVE INFORMATION 
# MNEM.UNIT           : CURVE DESCRIPTION 
#-----.-----          : ----------------------------- 
 DEPT.FT               : MEASURED DEPTH 
 CALI.IN               : CALIPER (CAL - CAL) 
 GR.API                : GAMMA RAY (GR) 
 DT.US/FT              : SONIC DELTA TRANSIT TIME (DT) 
 #___________________________________________________________________________________________________ 
~A         DEPT           CALI             GR             DT
# ...
         7884.0         12.983        130.377         75.937
         7884.5         12.985        125.648         76.204
         7885.0         12.988        117.723         76.470
         7885.5         12.991        117.370         75.845
         7886.0         12.994        118.705         74.995
         7886.5         12.997        120.041         74.145
         7887.0         13.000        121.377         73.295
         7887.5         13.003        122.713         72.446
         7888.0         13.006        121.489         71.596
         7888.5         13.009        110.701         71.715
         7889.0         13.012         99.913         72.201
         7889.5         13.015         89.125         72.687
         7890.0         13.018         78.336         73.172
         7890.5         13.021         67.548         73.132
         7891.0         13.024         62.354         72.114
         7891.5         13.027         66.683         71.096
         7892.0         13.030         71.012         70.078
         7892.5         13.033         75.341         69.060
         7893.0         13.036         79.670         68.042
         7893.5         13.039         83.998         67.024
         7894.0         13.038         77.922         66.006
         7894.5         13.036         71.542         66.700
         7895.0         13.034         65.162         67.599
         7895.5         13.033         58.782         68.497
         7896.0         13.031         58.486         69.395
         7896.5         13.030         65.380         70.294
         7897.0         13.028         72.274         70.531
         7897.5         13.026         79.167         69.661
         7898.0         13.025         86.061         68.792
         7898.5         13.023         92.955         67.922
         7899.0         13.021         99.849         67.052
         7899.5         13.020        106.562         66.182
         7900.0         13.018         99.082         68.526
         7900.5         13.017         91.603         74.955
         7901.0         13.015         84.123         73.995
         7901.5         13.013         80.355         73.035
         7902.0         13.012         84.117         72.075
         7902.5         13.010         87.872         71.115
         7903.0         13.008         75.579         70.155
         7903.5         13.007         63.285         69.196
         7904.0         13.005         51.277         69.094
         7904.5         13.004         60.767         69.798
         7905.0         13.002         70.257         70.502
         7905.5         13.000         79.747         71.205
         7906.0         12.999         89.237         69.314
         7906.5         13.006         98.727         67.201
         7907.0         13.013        103.779         65.088
         7907.5         13.020         95.696         62.975
         7908.0         13.027         87.613         64.849
         7908.5         13.034         79.530         67.177
         7909.0         13.041         71.447         69.505
         7909.5         13.048         72.756         71.833
         7910.0         13.055         80.172         72.133
         7910.5         13.062         87.589         69.634
         7911.0         13.069         95.005         67.135
         7911.5         13.076        102.421         64.637
         7912.0         13.083        109.837         64.658
         7912.5         13.090        105.971         66.894
         7913.0         13.097         97.214         69.131
         7913.5         13.113         88.457         71.367
         7914.0         13.133         79.700         73.604
         7914.5         13.152         70.943         75.767
         7915.0         13.171         62.185         71.844
         7915.5         13.190         54.578         67.921
         7916.0         13.209         55.298         63.997
         7916.5         13.229         56.019         62.700
         7917.0         13.248         56.739         63.505
         7917.5         13.267         57.665         64.310
         7918.0         13.286         61.425         65.114
         7918.5         13.305         65.184         64.527
         7919.0         13.325         68.944         63.799
         7919.5         13.344         72.703         63.072
         7920.0         13.363         76.463         62.344
         7920.5         13.382         80.223         61.617
         7921.0         13.401         84.567         60.890
         7921.5         13.397         96.163         67.344
         7922.0         13.393        107.759         67.494
         7922.5         13.389        119.355         67.644
         7923.0         13.385        129.044         67.794
         7923.5         13.381        135.390         67.944
         7924.0         13.377        128.545         68.094
         7924.5         13.373        118.624         68.656
         7925.0         13.369         82.402         71.760
         7925.5         13.365         84.368         70.697
         7926.0         13.361         86.334         68.999
         7926.5         13.357         88.300         67.301
         7927.0         13.353         90.266         65.604
         7927.5         13.349         85.635         67.768
         7928.0         13.344         68.688         70.498
         7928.5         13.335         72.200         69.374
         7929.0         13.285         75.712         68.250
         7929.5         13.236         79.224         67.125
         7930.0         13.186         82.736         66.001
         7930.5         13.136         86.248         67.976
         7931.0         13.087         89.760         70.651
         7931.5         13.040         90.484         73.325
         7932.0         13.068         90.041         74.818
         7932.5         13.096         89.598         72.932
         7933.0         13.124         89.156         71.045
         7933.5         13.152         88.713         70.765
         7934.0         13.180         88.270         71.951
         7934.5         13.208         87.138         73.137
         7935.0         13.237         80.364         74.323
         7935.5         13.265         73.589         75.509
         7936.0         13.293         66.815         74.891
         7936.5         13.321         56.203         73.654
         7937.0         13.335         41.336         72.417
         7937.5         13.313         31.332         71.179
         7938.0         13.290         28.713         69.942
         7938.5         13.268         26.095         68.705
         7939.0         13.246         23.476         67.081
         7939.5         13.224         20.857         63.912
         7940.0         13.202         21.882         60.744
         7940.5         13.180         31.517         57.575
         7941.0         13.158         41.151         55.729
         7941.5         13.136         50.786         54.927
         7942.0         13.124         60.420         54.125
         7942.5         13.140         70.055         53.323
         7943.0         13.156         70.607         54.817
         7943.5         13.172         63.313         56.989
         7944.0         13.188         56.018         59.161
         7944.5         13.204         56.580         61.334
         7945.0         13.220         59.226         63.471
         7945.5         13.237         61.871         65.541
         7946.0         13.253         57.529         67.612
         7946.5         13.269         49.177         69.683
         7947.0         13.285         40.825         71.753
         7947.5         13.301         32.473         73.824
         7948.0         13.317         24.121         63.073
         7948.5         13.333         31.459         64.434
         7949.0         13.344         38.980         65.795
         7949.5         13.350         46.500         67.156
