###############################################
##         ENVERUS                           ##
##         Petrophysical Curves              ##
##         PERMIAN / DELAWARE                ##
##         Jan 21 2022                       ##
##         42-389-30261-00-00                ##
###############################################
## Copyright 2017-2022  ENVERUS.  All Rights Reserved. 
## Confidential - Property of ENVERUS, use governed by terms and 
## conditions found within the existing Information Services Subscription Agreement 
## (as may be amended, the “ISSA”) between Customer and ENVERUS. 
## 
~VERSION INFORMATION
# MNEM.UNIT                               DATA : DESCRIPTION OF MNEMONIC
#-----.-----     ----------------------------- : -----------------------------
VERS.                                     2.00 : CWLS LOG ASCII STANDARD - VERSION 2.00
WRAP.                                       NO : MULTIPLE LINES PER DEPTH STEP
VEND.                                  ENVERUS : VENDOR
TYPE.                     PETROPHYSICAL CURVES : ENVERUS PETROPHYSICAL CURVES - ACCESSIBLE THROUGH ENVERUS CORE(TM)
#___________________________________________________________________________________________________ 
~WELL INFORMATION 
# uyaQ8P8kQDJ9DXFS5hR1PxmExEOYaAUkY5f3/tnOS+scoPAUWgXA1zCIHGRbWCuSuUcwDzaESCjqjWQ81XhadA== 
# MNEM.UNIT                                              DATA : DESCRIPTION OF MNEMONIC 
#-----.-----                    ----------------------------- : ----------------------------- 
CNTY.                                                  REEVES : COUNTY 
STATE.                                                  TEXAS : STATE 
CNTRY.                                                    USA : COUNTRY 
API.                                             42-389-30261 : API (10 Digit) 
API_14.                                    42-389-30261-00-00 : API (14 Digits) 
API_14_std.                                 42-389-30261-0000 : API (14 Digits Standard) 
UWI.                                           42389302610000 : UNIQUE WELL ID
STRT.FT                                                 202.0 : START DEPTH
STOP.FT                                               18968.0 : STOP DEPTH
STEP.FT                                                   0.5 : STEP BETWEEN DEPTHS
NULL.                                                 -999.25 : NULL VALUE
COMP.                                                      BP : COMPANY 
WELL.                                                TXL-39 1 : WELL NAME 
FLD.                                            CHAPMAN  DEEP : FIELD NAME
#___________________________________________________________________________________________________ 
~CURVE INFORMATION 
#    Zone Description
#          1 = Upper Avalon
#          2 = Middle Avalon
#          3 = Lower Avalon
#          4 = 1st Bone Spring
#          5 = 2nd Bone Spring
#          6 = 2nd Bone Spring Sand
#          7 = 3rd Bone Spring
#          8 = 3rd Bone Spring Sand
#          9 = Wolfcamp XY
#          10 = Wolfcamp A Upper
#          11 = Wolfcamp A Lower
#          12 = Wolfcamp B Upper
#          13 = Wolfcamp B Lower
#          14 = Wolfcamp C
#          15 = Wolfcamp D
#          16 = Pennsylvanian Shale
#          17 = Lower Pennsylvanian Shale
#          18 = Barnett
#          19 = Barnett Lower
#          20 = Mississippian Lime
#          21 = Woodford
#          22 = Base Woodford 
# MNEM.UNIT           : CURVE DESCRIPTION 
#-----.-----          : ----------------------------- 
 DEPT.FT               : MEASURED DEPTH 
 TVD_I.FT              : ENVERUS TRUE VERTICAL DEPTH 
 ZONE_I.               : ENVERUS DEFINED ZONE CODE 
 GR_N_I.API            : ENVERUS NORMALIZED GAMMA RAY LEVERAGED IN GEOLOGICAL MODELLING 
 RESD_I.OHMM           : ENVERUS DEEP RESISTIVITY LEVERAGED IN GEOLOGICAL MODELLING 
 TEMP_I.DEGF           : ENVERUS INTERPRETED TEMPERATURE DERIVED FROM BOTTOM HOLE TEMPERATURES 
 #___________________________________________________________________________________________________ 
~A         DEPT          TVD_I         ZONE_I         GR_N_I         RESD_I         TEMP_I
# ...
         5218.0       5218.000        -999.25         65.480        69.8870        129.551
         5218.5       5218.500        -999.25         70.345        80.1000        129.558
         5219.0       5219.000        -999.25         74.409        90.3120        129.564
         5219.5       5219.500        -999.25         78.472        94.8470        129.570
         5220.0       5220.000        -999.25         82.535        96.3720        129.577
         5220.5       5220.500        -999.25         78.045        90.8420        129.583
         5221.0       5221.000        -999.25         73.078        82.8620        129.589
         5221.5       5221.500        -999.25         68.110        74.8810        129.596
         5222.0       5222.000        -999.25         63.143        83.3720        129.602
         5222.5       5222.500        -999.25         55.606        96.9490        129.609
         5223.0       5223.001        -999.25         48.789       110.5260        129.615
         5223.5       5223.500        -999.25         50.788       124.1030        129.621
         5224.0       5224.000        -999.25         52.788       137.6800        129.628
         5224.5       5224.500        -999.25         54.787       151.2570        129.634
         5225.0       5225.000        -999.25         60.400       129.2120        129.641
         5225.5       5225.500        -999.25         67.238       102.1690        129.647
         5226.0       5226.000        -999.25         72.614        75.1250        129.653
         5226.5       5226.500        -999.25         77.463        55.8720        129.660
         5227.0       5227.000        -999.25         82.312        54.2580        129.666
         5227.5       5227.501        -999.25         87.162        52.6440        129.672
         5228.0       5228.000        -999.25         89.492        51.0300        129.679
         5228.5       5228.501        -999.25         86.704        49.4160        129.685
         5229.0       5229.000        -999.25         83.917        47.8020        129.692
         5229.5       5229.500        -999.25         81.129        46.7700        129.698
         5230.0       5230.000        -999.25         80.175        47.4030        129.704
         5230.5       5230.500        -999.25         81.526        48.0360        129.711
         5231.0       5231.000        -999.25         82.731        77.1860        129.717
         5231.5       5231.500        -999.25         78.371       107.3100        129.723
         5232.0       5232.000        -999.25         74.011       127.9920        129.730
         5232.5       5232.500        -999.25         69.651       137.4950        129.736
         5233.0       5233.000        -999.25         66.239       146.9990        129.743
         5233.5       5233.500        -999.25         63.935       151.0750        129.749
         5234.0       5234.000        -999.25         61.631       145.6210        129.755
         5234.5       5234.500        -999.25         59.327       140.1680        129.762
         5235.0       5235.001        -999.25         58.280       143.8030        129.768
         5235.5       5235.500        -999.25         61.458       150.9620        129.774
         5236.0       5236.000        -999.25         64.636       158.1210        129.781
         5236.5       5236.500        -999.25         67.813       165.2810        129.787
         5237.0       5237.000        -999.25         68.953       172.4400        129.794
         5237.5       5237.500        -999.25         67.777       179.5990        129.800
         5238.0       5238.000        -999.25         66.601       186.7580        129.806
         5238.5       5238.500        -999.25         65.424       263.2510        129.813
         5239.0       5239.000        -999.25         64.248       314.1440        129.819
         5239.5       5239.501        -999.25         63.072       359.2760        129.825
         5240.0       5240.000        -999.25         61.895       404.4090        129.832
         5240.5       5240.500        -999.25         60.963       449.5410        129.838
         5241.0       5241.000        -999.25         61.925       478.9260        129.845
         5241.5       5241.500        -999.25         62.886       499.9170        129.851
         5242.0       5242.000        -999.25         63.848       496.9720        129.857
         5242.5       5242.500        -999.25         64.810       449.0510        129.864
         5243.0       5243.000        -999.25         64.060       401.1300        129.870
         5243.5       5243.500        -999.25         63.236       353.2100        129.876
         5244.0       5244.000        -999.25         62.412       305.2890        129.883
         5244.5       5244.500        -999.25         61.640       257.3680        129.889
         5245.0       5245.000        -999.25         60.927       255.8720        129.896
         5245.5       5245.500        -999.25         60.214       266.4580        129.902
         5246.0       5246.000        -999.25         59.501       277.0430        129.908
         5246.5       5246.500        -999.25         58.789       287.6290        129.915
         5247.0       5247.001        -999.25         56.839       298.2140        129.921
         5247.5       5247.500        -999.25         54.786       308.8000        129.927
         5248.0       5248.001        -999.25         52.734       319.3850        129.934
         5248.5       5248.500        -999.25         50.681       313.9230        129.940
         5249.0       5249.000        -999.25         49.285       306.3820        129.947
         5249.5       5249.500        -999.25         49.116       298.8420        129.953
         5250.0       5250.000        -999.25         48.948       276.7020        129.959
         5250.5       5250.500        -999.25         48.779       238.5450        129.966
         5251.0       5251.000        -999.25         48.610       200.3890        129.972
         5251.5       5251.500        -999.25         48.441       162.2320        129.978
         5252.0       5252.000        -999.25         48.230       124.0760        129.985
         5252.5       5252.500        -999.25         47.528       111.6740        129.991
         5253.0       5253.000        -999.25         46.826       108.5830        129.998
         5253.5       5253.500        -999.25         46.124       105.4920        130.004
         5254.0       5254.000        -999.25         45.422       102.4020        130.010
         5254.5       5254.500        -999.25         44.720        99.3110        130.017
         5255.0       5255.000        -999.25         44.018        96.2200        130.023
         5255.5       5255.500        -999.25         43.316        93.1290        130.029
         5256.0       5256.000        -999.25         43.022        90.0390        130.036
         5256.5       5256.500        -999.25         43.355        86.9480        130.042
         5257.0       5257.000        -999.25         43.688        82.1180        130.049
         5257.5       5257.500        -999.25         44.022        72.8200        130.055
         5258.0       5258.000        -999.25         44.355        63.5210        130.061
         5258.5       5258.500        -999.25         44.688        59.6420        130.068
         5259.0       5259.001        -999.25         45.021        58.2170        130.074
         5259.5       5259.500        -999.25         44.762        56.7920        130.081
         5260.0       5260.000        -999.25         44.351        55.1420        130.087
         5260.5       5260.500        -999.25         43.941        52.9100        130.093
         5261.0       5261.000        -999.25         44.158        50.6790        130.100
         5261.5       5261.500        -999.25         45.795        48.4470        130.106
