###############################################
##         ENVERUS                           ##
##         ESS - Open Hole                   ##
##         PERMIAN / DELAWARE                ##
##         Nov 04 2023  V4.0                 ##
##         42-389-30469-00-00                ##
###############################################
## Copyright 2017-2023  ENVERUS.  All Rights Reserved. 
## Confidential - Property of ENVERUS, use governed by terms and 
## conditions found within the existing Information Services Subscription Agreement 
## (as may be amended, the “ISSA”) between Customer and ENVERUS. 
## 
~VERSION INFORMATION
# MNEM.UNIT                               DATA : DESCRIPTION OF MNEMONIC
#-----.-----     ----------------------------- : -----------------------------
VERS.                                     2.00 : CWLS LOG ASCII STANDARD - VERSION 2.00
WRAP.                                       NO : MULTIPLE LINES PER DEPTH STEP
VEND.                                  ENVERUS : VENDOR
TYPE.                          ESS - OPEN HOLE : ENVERUS ESSENTIAL CURVES – ACCESSIBLE THROUGH ENVERUS PRISM(TM)
DOC.                                  32305858 : ENVERUS HEADER RAW DOCUMENT ID
#___________________________________________________________________________________________________ 
~WELL INFORMATION 
# QLEmRB3tAfi4h2ohjzYx3rsZtS9yBcz1q2joqn0STWfPGhk373gRG/+4vKKA+3S/hWA+0diIcqk9K+n3WoLixw== 
# MNEM.UNIT                                              DATA : DESCRIPTION OF MNEMONIC 
#-----.-----                    ----------------------------- : ----------------------------- 
CNTY.                                                  REEVES : COUNTY 
STATE.                                                  TEXAS : STATE 
CNTRY.                                                    USA : COUNTRY 
API.                                             42-389-30469 : API (10 Digit) 
API_14.                                    42-389-30469-00-00 : API (14 Digits) 
API_14_std.                                 42-389-30469-0000 : API (14 Digits Standard) 
UWI.                                           42389304690000 : UNIQUE WELL ID 
WELL.                                                 WYNNE 1 : WELL NAME
STRT.FT                                                  30.0 : START DEPTH
STOP.FT                                               15871.0 : STOP DEPTH
STEP.FT                                                   0.5 : STEP BETWEEN DEPTHS
NULL.                                                 -999.25 : NULL VALUE
#___________________________________________________________________________________________________ 
~CURVE INFORMATION 
# MNEM.UNIT           : CURVE DESCRIPTION 
#-----.-----          : ----------------------------- 
 DEPT.FT               : MEASURED DEPTH 
 CALI.IN               : CALIPER (CAL - CAL) 
 GR.API                : GAMMA RAY (GR) 
 DT.US/FT              : SONIC DELTA TRANSIT TIME (DT) 
 #___________________________________________________________________________________________________ 
~A         DEPT           CALI             GR             DT
# ...
        11052.0          9.442         89.698         93.997
        11052.5          9.294         89.666         94.091
        11053.0          9.344         89.634         94.185
        11053.5          9.454         89.475         94.279
        11054.0          9.565         84.879         94.213
        11054.5          9.711         80.283         94.134
        11055.0          9.900         78.150         94.055
        11055.5         10.089         81.891         93.976
        11056.0         10.277         85.632         93.897
        11056.5         10.313         89.374         93.818
        11057.0         10.309         93.115         93.739
        11057.5         10.306         96.856         93.660
        11058.0         10.302         98.876         93.581
        11058.5         10.298         95.684         93.502
        11059.0         10.294         92.492         93.423
        11059.5         10.291         89.300         93.344
        11060.0         10.287         86.107         93.265
        11060.5         10.283         82.915         93.186
        11061.0         10.279         79.990         93.107
        11061.5         10.278         79.906         93.041
        11062.0         10.281         79.823         93.001
        11062.5         10.285         79.740         92.961
        11063.0         10.288         79.656         92.921
        11063.5         10.291         79.998         92.881
        11064.0         10.294         82.457         92.841
        11064.5         10.297         84.916         92.802
        11065.0         10.300         87.376         92.762
        11065.5         10.304         89.835         92.722
        11066.0         10.307         92.294         92.682
        11066.5         10.310         94.754         92.642
        11067.0         10.313         96.182         92.602
        11067.5         10.316         92.938         92.563
        11068.0         10.319         89.693         92.523
        11068.5         10.319         86.448         92.483
        11069.0         10.318         83.203         92.443
        11069.5         10.317         79.958         92.403
        11070.0         10.316         80.613         92.364
        11070.5         10.315         81.738         92.178
        11071.0         10.315         82.864         91.295
        11071.5         10.314         83.989         90.412
        11072.0         10.313         85.114         89.530
        11072.5         10.312         81.892         88.647
        11073.0         10.312         70.364         87.764
        11073.5         10.311         70.043         86.882
        11074.0         10.310         69.721         85.999
        11074.5         10.309         69.400         86.087
        11075.0         10.309         69.078         86.459
        11075.5         10.308         68.757         86.832
        11076.0         10.307         68.436         87.204
        11076.5         10.306         68.114         86.816
        11077.0         10.305         67.793         85.280
        11077.5         10.305         67.380         84.021
        11078.0         10.304         65.762         83.301
        11078.5         10.303         64.144         82.581
        11079.0         10.302         62.526         81.861
        11079.5         10.306         60.908         81.141
        11080.0         10.310         59.289         80.000
        11080.5         10.315         57.768         78.756
        11081.0         10.320         56.921         77.512
        11081.5         10.324         56.073         76.269
        11082.0         10.329         55.226         73.238
        11082.5         10.334         54.379         68.666
        11083.0         10.338         53.532         64.095
        11083.5         10.343         52.685         68.493
        11084.0         10.348         51.838         73.377
        11084.5         10.352         50.991         78.260
        11085.0         10.357         50.144         83.144
        11085.5         10.362         49.297         86.752
        11086.0         10.366         49.726         83.961
        11086.5         10.371         53.536         81.170
        11087.0         10.376         57.346         78.379
        11087.5         10.380         61.155         75.588
        11088.0         10.385         64.965         74.865
        11088.5         10.389         68.775         78.134
        11089.0         10.394         70.865         81.403
        11089.5         10.399         72.949         84.673
        11090.0         10.403         75.032         87.942
        11090.5         10.408         77.115         84.937
        11091.0         10.413         79.198         81.081
        11091.5         10.417         81.282         77.225
        11092.0         10.422         83.365         73.369
        11092.5         10.427         82.392         69.512
        11093.0         10.431         81.272         72.428
        11093.5         10.436         80.152         75.625
        11094.0         10.441         79.031         78.821
        11094.5         10.445         77.911         82.018
        11095.0         10.450         76.791         85.214
        11095.5         10.455         75.547         88.410
        11096.0         10.459         73.907         91.607
        11096.5         10.464         72.267         90.219
        11097.0         10.469         70.627         86.407
        11097.5         10.467         68.987         82.595
        11098.0         10.463         67.672         84.597
        11098.5         10.460         68.416         87.073
        11099.0         10.456         69.161         89.550
        11099.5         10.452         69.906         92.026
        11100.0         10.448         70.651         94.502
        11100.5         10.445         71.396         94.077
        11101.0         10.441         71.554         93.332
        11101.5         10.437         71.121         92.586
        11102.0         10.433         70.689         91.841
        11102.5         10.430         70.257         91.096
        11103.0         10.426         69.825         90.351
        11103.5         10.422         69.392         89.605
        11104.0         10.418         68.960         88.887
        11104.5         10.415         68.528         88.216
        11105.0         10.411         68.096         87.799
        11105.5         10.407         67.663         90.021
        11106.0         10.403         67.231         89.907
        11106.5         10.400         66.799         89.519
        11107.0         10.396         67.270         89.130
        11107.5         10.392         67.817         88.742
        11108.0         10.390         68.364         88.353
        11108.5         10.387         68.910         88.138
        11109.0         10.385         69.457         88.210
        11109.5         10.383         70.004         88.283
        11110.0         10.380         70.550         88.355
        11110.5         10.378         71.097         88.164
        11111.0         10.376         71.644         86.778
        11111.5         10.373         72.191         85.392
        11112.0         10.371         72.737         84.005
        11112.5         10.369         73.284         82.619
        11113.0         10.366         73.831         81.232
        11113.5         10.364         74.378         84.981
        11114.0         10.362         74.924         92.001
        11114.5         10.359         74.411         92.439
        11115.0         10.357         73.025         92.877
        11115.5         10.355         71.640         93.315
        11116.0         10.352         70.254         93.753
        11116.5         10.350         69.764         93.879
        11117.0         10.348         71.149         93.820
        11117.5         10.346         72.535         93.762
