###############################################
##         ENVERUS                           ##
##         ESS - Open Hole                   ##
##         PERMIAN / DELAWARE                ##
##         Nov 04 2023  V4.0                 ##
##         42-389-30469-00-00                ##
###############################################
## Copyright 2017-2023  ENVERUS.  All Rights Reserved. 
## Confidential - Property of ENVERUS, use governed by terms and 
## conditions found within the existing Information Services Subscription Agreement 
## (as may be amended, the “ISSA”) between Customer and ENVERUS. 
## 
~VERSION INFORMATION
# MNEM.UNIT                               DATA : DESCRIPTION OF MNEMONIC
#-----.-----     ----------------------------- : -----------------------------
VERS.                                     2.00 : CWLS LOG ASCII STANDARD - VERSION 2.00
WRAP.                                       NO : MULTIPLE LINES PER DEPTH STEP
VEND.                                  ENVERUS : VENDOR
TYPE.                          ESS - OPEN HOLE : ENVERUS ESSENTIAL CURVES – ACCESSIBLE THROUGH ENVERUS PRISM(TM)
DOC.                                  32305858 : ENVERUS HEADER RAW DOCUMENT ID
#___________________________________________________________________________________________________ 
~WELL INFORMATION 
# QLEmRB3tAfi4h2ohjzYx3rsZtS9yBcz1q2joqn0STWfPGhk373gRG/+4vKKA+3S/hWA+0diIcqk9K+n3WoLixw== 
# MNEM.UNIT                                              DATA : DESCRIPTION OF MNEMONIC 
#-----.-----                    ----------------------------- : ----------------------------- 
CNTY.                                                  REEVES : COUNTY 
STATE.                                                  TEXAS : STATE 
CNTRY.                                                    USA : COUNTRY 
API.                                             42-389-30469 : API (10 Digit) 
API_14.                                    42-389-30469-00-00 : API (14 Digits) 
API_14_std.                                 42-389-30469-0000 : API (14 Digits Standard) 
UWI.                                           42389304690000 : UNIQUE WELL ID 
WELL.                                                 WYNNE 1 : WELL NAME
STRT.FT                                                  30.0 : START DEPTH
STOP.FT                                               15871.0 : STOP DEPTH
STEP.FT                                                   0.5 : STEP BETWEEN DEPTHS
NULL.                                                 -999.25 : NULL VALUE
#___________________________________________________________________________________________________ 
~CURVE INFORMATION 
# MNEM.UNIT           : CURVE DESCRIPTION 
#-----.-----          : ----------------------------- 
 DEPT.FT               : MEASURED DEPTH 
 CALI.IN               : CALIPER (CAL - CAL) 
 GR.API                : GAMMA RAY (GR) 
 DT.US/FT              : SONIC DELTA TRANSIT TIME (DT) 
 #___________________________________________________________________________________________________ 
~A         DEPT           CALI             GR             DT
# ...
        10260.0         12.877         40.294         76.423
        10260.5         12.877         35.440         71.080
        10261.0         12.877         40.137         65.736
        10261.5         12.877         44.835         66.782
        10262.0         12.877         49.533         71.739
        10262.5         12.877         54.230         76.697
        10263.0         12.877         58.928         81.654
        10263.5         12.877         63.625         86.612
        10264.0         12.877         68.323         89.505
        10264.5         12.877         72.613         88.024
        10265.0         12.877         74.754         86.543
        10265.5         12.877         76.896         85.062
        10266.0         12.877         76.791         83.582
        10266.5         12.877         76.183         82.101
        10267.0         12.877         75.574         80.620
        10267.5         12.877         74.966         79.139
        10268.0         12.877         75.683         81.345
        10268.5         12.877         77.000         84.737
        10269.0         12.877         78.317         88.130
        10269.5         12.877         79.633         88.450
        10270.0         12.877         80.950         87.221
        10270.5         12.877         78.316         85.992
        10271.0         12.877         75.370         84.763
        10271.5         12.877         72.425         83.534
        10272.0         12.877         69.479         82.305
        10272.5         12.877         66.533         81.076
        10273.0         12.877         63.587         79.847
        10273.5         12.877         60.641         81.086
        10274.0         12.877         58.154         82.675
        10274.5         12.877         59.134         84.263
        10275.0         12.877         60.115         85.851
        10275.5         12.877         61.095         85.513
        10276.0         12.877         62.076         84.112
        10276.5         12.877         63.056         82.711
        10277.0         12.877         64.037         81.310
        10277.5         12.877         61.887         79.909
        10278.0         12.877         58.539         78.508
        10278.5         12.877         55.191         77.107
        10279.0         12.877         51.844         75.706
        10279.5         12.877         48.496         74.305
        10280.0         12.877         48.301         72.904
        10280.5         12.877         51.585         72.272
        10281.0         12.877         54.869         73.949
        10281.5         12.877         58.153         75.626
        10282.0         12.877         61.437         77.303
        10282.5         12.877         64.721         78.981
        10283.0         12.877         68.005         79.147
        10283.5         12.877         71.289         79.215
        10284.0         12.877         70.906         79.283
        10284.5         12.877         69.803         79.351
        10285.0         12.877         68.699         79.418
        10285.5         12.877         67.595         79.486
        10286.0         12.877         67.669         79.554
        10286.5         12.877         68.337         81.355
        10287.0         12.877         69.005         85.500
        10287.5         12.877         69.674         87.640
        10288.0         12.877         70.342         87.845
        10288.5         12.877         71.048         88.051
        10289.0         12.877         72.775         88.256
        10289.5         12.877         74.501         88.461
        10290.0         12.877         76.228         88.666
        10290.5         12.877         77.954         90.613
        10291.0         12.877         79.680         93.753
        10291.5         12.877         81.407         91.118
        10292.0         12.877         73.945         88.483
        10292.5         12.877         63.257         85.848
        10293.0         12.877         52.568         83.213
        10293.5         12.877         50.637         80.578
        10294.0         12.877         54.315         77.943
        10294.5         12.877         57.993         77.219
        10295.0         12.877         61.671         80.035
        10295.5         12.877         65.349         82.851
        10296.0         12.877         69.027         85.667
        10296.5         12.877         72.704         88.483
        10297.0         12.877         76.382         91.299
        10297.5         12.877         80.060         91.285
        10298.0         12.877         80.733         91.159
        10298.5         12.877         78.561         91.034
        10299.0         12.877         76.389         90.909
        10299.5         12.877         74.217         90.784
        10300.0         12.877         72.046         90.658
        10300.5         12.877         69.874         90.533
        10301.0         12.877         67.589         87.057
        10301.5         12.877         65.208         81.736
        10302.0         12.877         62.827         79.556
        10302.5         12.877         60.447         78.532
        10303.0         12.877         58.066         77.507
        10303.5         12.877         55.685         76.483
        10304.0         12.877         53.305         75.459
        10304.5         12.877         55.413         76.930
        10305.0         12.877         59.548         79.687
        10305.5         12.877         63.684         82.443
        10306.0         12.877         67.820         85.200
        10306.5         12.877         71.955         87.956
        10307.0         12.877         74.048         89.626
        10307.5         12.877         73.439         89.187
        10308.0         12.877         72.830         88.748
        10308.5         12.877         72.221         88.309
        10309.0         12.877         72.141         87.870
        10309.5         12.877         73.265         87.431
        10310.0         12.883         74.390         86.992
        10310.5         12.891         75.514         86.552
        10311.0         12.899         76.638         86.113
        10311.5         12.907         77.763         86.242
        10312.0         12.915         77.455         86.552
        10312.5         12.923         76.614         86.862
        10313.0         12.931         75.773         87.171
        10313.5         12.939         74.931         87.481
        10314.0         12.946         74.090         87.791
        10314.5         12.954         73.249         88.100
        10315.0         12.962         72.407         87.311
        10315.5         12.970         71.566         86.334
        10316.0         12.978         70.725         85.356
        10316.5         12.986         69.883         84.378
        10317.0         12.994         73.430         83.400
        10317.5         13.002         75.739         85.783
        10318.0         13.010         72.127         89.289
        10318.5         13.010         68.516         92.796
        10319.0         12.970         64.904         92.511
        10319.5         12.930         61.292         89.524
        10320.0         12.889         62.787         86.536
        10320.5         12.849         64.883         83.548
        10321.0         12.809         66.980         80.560
        10321.5         12.769         69.076         79.156
        10322.0         12.729         71.173         81.439
        10322.5         12.720         73.270         83.723
        10323.0         12.731         75.366         86.006
        10323.5         12.742         77.463         85.727
        10324.0         12.754         79.560         84.284
        10324.5         12.765         78.912         82.840
        10325.0         12.776         75.745         81.396
        10325.5         12.787         72.578         79.952
