###############################################
##         ENVERUS                           ##
##         ESS - Open Hole                   ##
##         PERMIAN / DELAWARE                ##
##         Nov 04 2023  V4.0                 ##
##         42-389-30469-00-00                ##
###############################################
## Copyright 2017-2023  ENVERUS.  All Rights Reserved. 
## Confidential - Property of ENVERUS, use governed by terms and 
## conditions found within the existing Information Services Subscription Agreement 
## (as may be amended, the “ISSA”) between Customer and ENVERUS. 
## 
~VERSION INFORMATION
# MNEM.UNIT                               DATA : DESCRIPTION OF MNEMONIC
#-----.-----     ----------------------------- : -----------------------------
VERS.                                     2.00 : CWLS LOG ASCII STANDARD - VERSION 2.00
WRAP.                                       NO : MULTIPLE LINES PER DEPTH STEP
VEND.                                  ENVERUS : VENDOR
TYPE.                          ESS - OPEN HOLE : ENVERUS ESSENTIAL CURVES – ACCESSIBLE THROUGH ENVERUS PRISM(TM)
DOC.                                  32305858 : ENVERUS HEADER RAW DOCUMENT ID
#___________________________________________________________________________________________________ 
~WELL INFORMATION 
# QLEmRB3tAfi4h2ohjzYx3rsZtS9yBcz1q2joqn0STWfPGhk373gRG/+4vKKA+3S/hWA+0diIcqk9K+n3WoLixw== 
# MNEM.UNIT                                              DATA : DESCRIPTION OF MNEMONIC 
#-----.-----                    ----------------------------- : ----------------------------- 
CNTY.                                                  REEVES : COUNTY 
STATE.                                                  TEXAS : STATE 
CNTRY.                                                    USA : COUNTRY 
API.                                             42-389-30469 : API (10 Digit) 
API_14.                                    42-389-30469-00-00 : API (14 Digits) 
API_14_std.                                 42-389-30469-0000 : API (14 Digits Standard) 
UWI.                                           42389304690000 : UNIQUE WELL ID 
WELL.                                                 WYNNE 1 : WELL NAME
STRT.FT                                                  30.0 : START DEPTH
STOP.FT                                               15871.0 : STOP DEPTH
STEP.FT                                                   0.5 : STEP BETWEEN DEPTHS
NULL.                                                 -999.25 : NULL VALUE
#___________________________________________________________________________________________________ 
~CURVE INFORMATION 
# MNEM.UNIT           : CURVE DESCRIPTION 
#-----.-----          : ----------------------------- 
 DEPT.FT               : MEASURED DEPTH 
 CALI.IN               : CALIPER (CAL - CAL) 
 GR.API                : GAMMA RAY (GR) 
 DT.US/FT              : SONIC DELTA TRANSIT TIME (DT) 
 #___________________________________________________________________________________________________ 
~A         DEPT           CALI             GR             DT
# ...
        14220.0          9.588         67.144         93.349
        14220.5          9.604         66.223         93.387
        14221.0          9.619         65.301         93.425
        14221.5          9.606         64.380         93.463
        14222.0          9.580         63.724         93.414
        14222.5          9.554         65.037         93.213
        14223.0          9.529         66.350         93.013
        14223.5          9.503         67.617         92.813
        14224.0          9.475         67.221         92.613
        14224.5          9.441         66.826         92.412
        14225.0          9.406         66.430         91.251
        14225.5          9.371         66.035         89.765
        14226.0          9.337         65.639         88.279
        14226.5          9.302         65.243         86.793
        14227.0          9.268         64.848         81.181
        14227.5          9.239         65.131         84.420
        14228.0          9.247         65.560         87.659
        14228.5          9.255         65.990         90.899
        14229.0          9.263         66.419         92.155
        14229.5          9.271         66.848         87.830
        14230.0          9.280         67.278         83.506
        14230.5          9.288         67.707         79.181
        14231.0          9.296         68.137         75.326
        14231.5          9.318         68.566         78.315
        14232.0          9.346         68.671         81.303
        14232.5          9.374         68.247         84.292
        14233.0          9.402         67.823         87.280
        14233.5          9.429         67.399         90.268
        14234.0          9.457         66.976         93.257
        14234.5          9.485         66.552         96.245
        14235.0          9.513         66.128         99.234
        14235.5          9.541         65.705        102.023
        14236.0          9.569         65.281         99.457
        14236.5          9.597         64.857         96.890
        14237.0          9.510         64.433         94.324
        14237.5          9.405         64.010         91.757
        14238.0          9.300         63.586         89.167
        14238.5          9.267         63.162         86.552
        14239.0          9.256         62.739         83.937
        14239.5          9.244         63.351         84.674
        14240.0          9.232         63.998         87.158
        14240.5          9.221         64.646         89.643
        14241.0          9.209         65.293         92.127
        14241.5          9.197         65.941         94.612
        14242.0          9.258         66.588         97.096
        14242.5          9.338         67.236         96.679
        14243.0          9.418         67.883         94.547
        14243.5          9.498         68.531         92.415
        14244.0          9.578         69.178         90.336
        14244.5          9.658         69.826         90.710
        14245.0          9.483         70.473         91.084
        14245.5          9.302         71.121         91.459
        14246.0          9.310         71.768         91.837
        14246.5          9.351         72.415         92.220
        14247.0          9.393         72.469         92.603
        14247.5          9.434         71.141         92.987
        14248.0          9.475         69.813         93.370
        14248.5          9.516         68.484         93.753
        14249.0          9.531         67.156         94.136
        14249.5          9.544         66.732         94.519
        14250.0          9.558         67.644         79.479
        14250.5          9.571         68.556         79.687
        14251.0          9.516         68.549         79.895
        14251.5          9.394         66.271         80.103
        14252.0          9.272         63.993         80.312
        14252.5          9.151         63.923         80.520
        14253.0          9.029         64.439         80.728
        14253.5          8.982         64.956         80.936
        14254.0          8.948         65.472         81.144
        14254.5          8.915         65.989         81.352
        14255.0          8.933         66.506         81.560
        14255.5          8.961         67.022         81.769
        14256.0          8.990         67.060         81.977
        14256.5          9.019         66.913         82.828
        14257.0          9.047         66.766         83.904
        14257.5          9.076         66.620         84.980
        14258.0          9.105         66.473         86.057
        14258.5          9.134         66.466         87.133
        14259.0          9.162         67.245         88.210
        14259.5          9.191         68.025         87.383
        14260.0          9.143         68.804         84.959
        14260.5          9.094         69.583         82.535
        14261.0          9.044         70.363         80.577
        14261.5          8.995         71.142         84.421
        14262.0          8.946         71.921         88.265
        14262.5          8.896         72.063         92.109
        14263.0          8.870         70.962         95.953
        14263.5          8.878         69.860         99.797
        14264.0          8.885         68.758        102.484
        14264.5          8.893         68.234        104.569
        14265.0          8.900         69.202        106.654
        14265.5          8.908         70.171        108.739
        14266.0          8.915         71.140        110.824
        14266.5          8.923         72.108        112.909
        14267.0          8.930         73.077         82.880
        14267.5          8.938         70.716         84.105
        14268.0          8.946         67.674         85.329
        14268.5          8.953         64.632         86.553
        14269.0          8.961         61.590         67.207
        14269.5          8.968         58.548         72.158
        14270.0          8.976         55.506         77.110
        14270.5          8.983         52.464         82.061
        14271.0          8.980         50.812         87.012
        14271.5          8.968         54.235         91.963
        14272.0          8.956         57.659         96.915
        14272.5          8.944         59.561         91.649
        14273.0          8.931         56.865         77.071
        14273.5          8.919         54.169         62.594
        14274.0          8.907         51.474         70.024
        14274.5          8.895         48.778         77.454
        14275.0          8.882         46.082         84.884
        14275.5          8.870         45.324         92.314
        14276.0          8.891         47.882         99.743
        14276.5          8.940         50.440        107.173
        14277.0          8.988         52.998        114.603
        14277.5          9.037         55.557        110.474
        14278.0          9.086         58.115         94.603
        14278.5          9.134         60.673         78.731
        14279.0          9.183         63.231         71.460
        14279.5          9.231         65.790         74.041
        14280.0          9.254         67.730         76.623
        14280.5          9.193         68.352         79.204
        14281.0          9.131         68.973         81.785
        14281.5          9.069         69.595         84.366
        14282.0          9.007         70.216         84.899
        14282.5          8.946         70.838         78.434
        14283.0          8.924         71.460         71.970
        14283.5          8.924         72.081         73.253
        14284.0          8.924         69.570         75.155
        14284.5          8.924         63.709         77.057
        14285.0          8.924         61.596         78.958
        14285.5          8.924         61.244         80.860
