###############################################
##         ENVERUS                           ##
##         Petrophysical Curves              ##
##         PERMIAN / DELAWARE                ##
##         Jan 21 2022                       ##
##         42-389-30261-00-00                ##
###############################################
## Copyright 2017-2022  ENVERUS.  All Rights Reserved. 
## Confidential - Property of ENVERUS, use governed by terms and 
## conditions found within the existing Information Services Subscription Agreement 
## (as may be amended, the “ISSA”) between Customer and ENVERUS. 
## 
~VERSION INFORMATION
# MNEM.UNIT                               DATA : DESCRIPTION OF MNEMONIC
#-----.-----     ----------------------------- : -----------------------------
VERS.                                     2.00 : CWLS LOG ASCII STANDARD - VERSION 2.00
WRAP.                                       NO : MULTIPLE LINES PER DEPTH STEP
VEND.                                  ENVERUS : VENDOR
TYPE.                     PETROPHYSICAL CURVES : ENVERUS PETROPHYSICAL CURVES - ACCESSIBLE THROUGH ENVERUS CORE(TM)
#___________________________________________________________________________________________________ 
~WELL INFORMATION 
# uyaQ8P8kQDJ9DXFS5hR1PxmExEOYaAUkY5f3/tnOS+scoPAUWgXA1zCIHGRbWCuSuUcwDzaESCjqjWQ81XhadA== 
# MNEM.UNIT                                              DATA : DESCRIPTION OF MNEMONIC 
#-----.-----                    ----------------------------- : ----------------------------- 
CNTY.                                                  REEVES : COUNTY 
STATE.                                                  TEXAS : STATE 
CNTRY.                                                    USA : COUNTRY 
API.                                             42-389-30261 : API (10 Digit) 
API_14.                                    42-389-30261-00-00 : API (14 Digits) 
API_14_std.                                 42-389-30261-0000 : API (14 Digits Standard) 
UWI.                                           42389302610000 : UNIQUE WELL ID
STRT.FT                                                 202.0 : START DEPTH
STOP.FT                                               18968.0 : STOP DEPTH
STEP.FT                                                   0.5 : STEP BETWEEN DEPTHS
NULL.                                                 -999.25 : NULL VALUE
COMP.                                                      BP : COMPANY 
WELL.                                                TXL-39 1 : WELL NAME 
FLD.                                            CHAPMAN  DEEP : FIELD NAME
#___________________________________________________________________________________________________ 
~CURVE INFORMATION 
#    Zone Description
#          1 = Upper Avalon
#          2 = Middle Avalon
#          3 = Lower Avalon
#          4 = 1st Bone Spring
#          5 = 2nd Bone Spring
#          6 = 2nd Bone Spring Sand
#          7 = 3rd Bone Spring
#          8 = 3rd Bone Spring Sand
#          9 = Wolfcamp XY
#          10 = Wolfcamp A Upper
#          11 = Wolfcamp A Lower
#          12 = Wolfcamp B Upper
#          13 = Wolfcamp B Lower
#          14 = Wolfcamp C
#          15 = Wolfcamp D
#          16 = Pennsylvanian Shale
#          17 = Lower Pennsylvanian Shale
#          18 = Barnett
#          19 = Barnett Lower
#          20 = Mississippian Lime
#          21 = Woodford
#          22 = Base Woodford 
# MNEM.UNIT           : CURVE DESCRIPTION 
#-----.-----          : ----------------------------- 
 DEPT.FT               : MEASURED DEPTH 
 TVD_I.FT              : ENVERUS TRUE VERTICAL DEPTH 
 ZONE_I.               : ENVERUS DEFINED ZONE CODE 
 GR_N_I.API            : ENVERUS NORMALIZED GAMMA RAY LEVERAGED IN GEOLOGICAL MODELLING 
 RESD_I.OHMM           : ENVERUS DEEP RESISTIVITY LEVERAGED IN GEOLOGICAL MODELLING 
 TEMP_I.DEGF           : ENVERUS INTERPRETED TEMPERATURE DERIVED FROM BOTTOM HOLE TEMPERATURES 
 #___________________________________________________________________________________________________ 
~A         DEPT          TVD_I         ZONE_I         GR_N_I         RESD_I         TEMP_I
# ...
         8958.0       8958.000           7.00         37.321      -999.2500        177.252
         8958.5       8958.500           7.00         39.097      -999.2500        177.258
         8959.0       8958.999           7.00         40.872      -999.2500        177.265
         8959.5       8959.500           7.00         42.647      -999.2500        177.271
         8960.0       8960.000           7.00         51.182      -999.2500        177.277
         8960.5       8960.500           7.00         48.957      -999.2500        177.284
         8961.0       8961.000           7.00         46.731      -999.2500        177.290
         8961.5       8961.500           7.00         44.506      -999.2500        177.296
         8962.0       8962.000           7.00         41.402      -999.2500        177.303
         8962.5       8962.500           7.00         36.904      -999.2500        177.309
         8963.0       8963.000           7.00         32.570      -999.2500        177.316
         8963.5       8963.500           7.00         29.810      -999.2500        177.322
         8964.0       8964.000           7.00         27.050      -999.2500        177.328
         8964.5       8964.500           7.00         24.290      -999.2500        177.335
         8965.0       8964.999           7.00         26.424      -999.2500        177.341
         8965.5       8965.499           7.00         28.862      -999.2500        177.347
         8966.0       8966.000           7.00         32.863      -999.2500        177.354
         8966.5       8966.500           7.00         37.955      -999.2500        177.360
         8967.0       8967.000           7.00         43.047      -999.2500        177.367
         8967.5       8967.500           7.00         48.139      -999.2500        177.373
         8968.0       8968.000           7.00         53.231      -999.2500        177.379
         8968.5       8968.500           7.00         57.017      -999.2500        177.386
         8969.0       8969.000           7.00         58.553      -999.2500        177.392
         8969.5       8969.500           7.00         59.217      -999.2500        177.398
         8970.0       8970.000           7.00         58.697      -999.2500        177.405
         8970.5       8970.501           7.00         58.177      -999.2500        177.411
         8971.0       8971.000           7.00         56.574      -999.2500        177.418
         8971.5       8971.500           7.00         54.670      -999.2500        177.424
         8972.0       8972.000           7.00         52.766      -999.2500        177.430
         8972.5       8972.500           7.00         53.610      -999.2500        177.437
         8973.0       8973.000           7.00         55.893      -999.2500        177.443
         8973.5       8973.500           7.00         58.176      -999.2500        177.449
         8974.0       8973.999           7.00         59.777      -999.2500        177.456
         8974.5       8974.499           7.00         60.515      -999.2500        177.462
         8975.0       8975.000           7.00         60.611      -999.2500        177.469
         8975.5       8975.500           7.00         58.929      -999.2500        177.475
         8976.0       8976.000           7.00         57.248      -999.2500        177.481
         8976.5       8976.500           7.00         60.096      -999.2500        177.488
         8977.0       8977.000           7.00         63.973      -999.2500        177.494
         8977.5       8977.500           7.00         67.851      -999.2500        177.500
         8978.0       8978.000           7.00         75.307      -999.2500        177.507
         8978.5       8978.500           7.00         78.482      -999.2500        177.513
         8979.0       8979.001           7.00         75.315      -999.2500        177.520
         8979.5       8979.501           7.00         68.621      -999.2500        177.526
         8980.0       8980.000           7.00         59.821      -999.2500        177.532
         8980.5       8980.500           7.00         52.275      -999.2500        177.539
         8981.0       8980.999           7.00         48.903      -999.2500        177.545
         8981.5       8981.500           7.00         45.530      -999.2500        177.551
         8982.0       8982.000           7.00         42.158      -999.2500        177.558
         8982.5       8982.500           7.00         36.712      -999.2500        177.564
         8983.0       8983.000           7.00         30.856      -999.2500        177.571
         8983.5       8983.500           7.00         25.000      -999.2500        177.577
         8984.0       8984.000           7.00         20.871      -999.2500        177.583
         8984.5       8984.500           7.00         19.906      -999.2500        177.590
         8985.0       8985.000           7.00         18.940      -999.2500        177.596
         8985.5       8985.501           7.00         18.129      -999.2500        177.602
         8986.0       8986.000           7.00         21.669      -999.2500        177.609
         8986.5       8986.500           7.00         25.209      -999.2500        177.615
         8987.0       8987.000           7.00         30.997      -999.2500        177.622
         8987.5       8987.500           7.00         37.736      -999.2500        177.628
         8988.0       8988.001           7.00         44.474      -999.2500        177.634
         8988.5       8988.500           7.00         51.213      -999.2500        177.641
         8989.0       8989.000           7.00         56.689      -999.2500        177.647
         8989.5       8989.499           7.00         60.137      -999.2500        177.654
         8990.0       8990.000           7.00         63.585      -999.2500        177.660
         8990.5       8990.500           7.00         67.033      -999.2500        177.666
         8991.0       8991.000           7.00         70.481      -999.2500        177.673
         8991.5       8991.500           7.00         66.505      -999.2500        177.679
         8992.0       8992.000           7.00         61.962      -999.2500        177.685
         8992.5       8992.500           7.00         56.621      -999.2500        177.692
         8993.0       8993.000           7.00         50.124      -999.2500        177.698
         8993.5       8993.500           7.00         49.260      -999.2500        177.705
         8994.0       8994.000           7.00         53.208      -999.2500        177.711
         8994.5       8994.501           7.00         61.138      -999.2500        177.717
         8995.0       8995.000           7.00         60.785      -999.2500        177.724
         8995.5       8995.500           7.00         56.663      -999.2500        177.730
         8996.0       8996.000           7.00         52.542      -999.2500        177.736
         8996.5       8996.501           7.00         48.420      -999.2500        177.743
         8997.0       8997.000           7.00         48.364      -999.2500        177.749
         8997.5       8997.500           7.00         52.013      -999.2500        177.756
         8998.0       8997.999           7.00         60.382      -999.2500        177.762
         8998.5       8998.500           7.00         69.737      -999.2500        177.768
         8999.0       8999.000           7.00         69.689      -999.2500        177.775
         8999.5       8999.500           7.00         67.557      -999.2500        177.781
         9000.0       9000.000           7.00         63.965      -999.2500        177.787
         9000.5       9000.500           7.00         50.917      -999.2500        177.794
         9001.0       9001.000           7.00         39.545      -999.2500        177.800
         9001.5       9001.500           7.00         39.199      -999.2500        177.807
