###############################################
##         ENVERUS                           ##
##         Petrophysical Curves              ##
##         PERMIAN / DELAWARE                ##
##         Jan 21 2022                       ##
##         42-389-30261-00-00                ##
###############################################
## Copyright 2017-2022  ENVERUS.  All Rights Reserved. 
## Confidential - Property of ENVERUS, use governed by terms and 
## conditions found within the existing Information Services Subscription Agreement 
## (as may be amended, the “ISSA”) between Customer and ENVERUS. 
## 
~VERSION INFORMATION
# MNEM.UNIT                               DATA : DESCRIPTION OF MNEMONIC
#-----.-----     ----------------------------- : -----------------------------
VERS.                                     2.00 : CWLS LOG ASCII STANDARD - VERSION 2.00
WRAP.                                       NO : MULTIPLE LINES PER DEPTH STEP
VEND.                                  ENVERUS : VENDOR
TYPE.                     PETROPHYSICAL CURVES : ENVERUS PETROPHYSICAL CURVES - ACCESSIBLE THROUGH ENVERUS CORE(TM)
#___________________________________________________________________________________________________ 
~WELL INFORMATION 
# uyaQ8P8kQDJ9DXFS5hR1PxmExEOYaAUkY5f3/tnOS+scoPAUWgXA1zCIHGRbWCuSuUcwDzaESCjqjWQ81XhadA== 
# MNEM.UNIT                                              DATA : DESCRIPTION OF MNEMONIC 
#-----.-----                    ----------------------------- : ----------------------------- 
CNTY.                                                  REEVES : COUNTY 
STATE.                                                  TEXAS : STATE 
CNTRY.                                                    USA : COUNTRY 
API.                                             42-389-30261 : API (10 Digit) 
API_14.                                    42-389-30261-00-00 : API (14 Digits) 
API_14_std.                                 42-389-30261-0000 : API (14 Digits Standard) 
UWI.                                           42389302610000 : UNIQUE WELL ID
STRT.FT                                                 202.0 : START DEPTH
STOP.FT                                               18968.0 : STOP DEPTH
STEP.FT                                                   0.5 : STEP BETWEEN DEPTHS
NULL.                                                 -999.25 : NULL VALUE
COMP.                                                      BP : COMPANY 
WELL.                                                TXL-39 1 : WELL NAME 
FLD.                                            CHAPMAN  DEEP : FIELD NAME
#___________________________________________________________________________________________________ 
~CURVE INFORMATION 
#    Zone Description
#          1 = Upper Avalon
#          2 = Middle Avalon
#          3 = Lower Avalon
#          4 = 1st Bone Spring
#          5 = 2nd Bone Spring
#          6 = 2nd Bone Spring Sand
#          7 = 3rd Bone Spring
#          8 = 3rd Bone Spring Sand
#          9 = Wolfcamp XY
#          10 = Wolfcamp A Upper
#          11 = Wolfcamp A Lower
#          12 = Wolfcamp B Upper
#          13 = Wolfcamp B Lower
#          14 = Wolfcamp C
#          15 = Wolfcamp D
#          16 = Pennsylvanian Shale
#          17 = Lower Pennsylvanian Shale
#          18 = Barnett
#          19 = Barnett Lower
#          20 = Mississippian Lime
#          21 = Woodford
#          22 = Base Woodford 
# MNEM.UNIT           : CURVE DESCRIPTION 
#-----.-----          : ----------------------------- 
 DEPT.FT               : MEASURED DEPTH 
 TVD_I.FT              : ENVERUS TRUE VERTICAL DEPTH 
 ZONE_I.               : ENVERUS DEFINED ZONE CODE 
 GR_N_I.API            : ENVERUS NORMALIZED GAMMA RAY LEVERAGED IN GEOLOGICAL MODELLING 
 RESD_I.OHMM           : ENVERUS DEEP RESISTIVITY LEVERAGED IN GEOLOGICAL MODELLING 
 TEMP_I.DEGF           : ENVERUS INTERPRETED TEMPERATURE DERIVED FROM BOTTOM HOLE TEMPERATURES 
 #___________________________________________________________________________________________________ 
~A         DEPT          TVD_I         ZONE_I         GR_N_I         RESD_I         TEMP_I
# ...
        13930.0      13929.999        -999.25         62.529      -999.2500        240.665
        13930.5      13930.501        -999.25         62.015      -999.2500        240.672
        13931.0      13931.001        -999.25         61.501      -999.2500        240.678
        13931.5      13931.501        -999.25         62.869      -999.2500        240.685
        13932.0      13932.000        -999.25         64.616      -999.2500        240.691
        13932.5      13932.500        -999.25         66.363      -999.2500        240.697
        13933.0      13933.000        -999.25         68.110      -999.2500        240.704
        13933.5      13933.499        -999.25         69.857      -999.2500        240.710
        13934.0      13933.999        -999.25         68.593      -999.2500        240.716
        13934.5      13934.500        -999.25         66.635      -999.2500        240.723
        13935.0      13935.000        -999.25         64.677      -999.2500        240.729
        13935.5      13935.500        -999.25         62.720      -999.2500        240.736
        13936.0      13936.000        -999.25         62.266      -999.2500        240.742
        13936.5      13936.500        -999.25         62.329      -999.2500        240.748
        13937.0      13937.000        -999.25         62.393      -999.2500        240.755
        13937.5      13937.500        -999.25         62.456      -999.2500        240.761
        13938.0      13938.000        -999.25         62.519      -999.2500        240.767
        13938.5      13938.499        -999.25         62.583      -999.2500        240.774
        13939.0      13939.001        -999.25         62.646      -999.2500        240.780
        13939.5      13939.501        -999.25         62.709      -999.2500        240.787
        13940.0      13940.001        -999.25         62.854      -999.2500        240.793
        13940.5      13940.500        -999.25         63.231      -999.2500        240.799
        13941.0      13941.000        -999.25         63.608      -999.2500        240.806
        13941.5      13941.500        -999.25         63.984      -999.2500        240.812
        13942.0      13941.999        -999.25         64.361      -999.2500        240.818
        13942.5      13942.499        -999.25         64.738      -999.2500        240.825
        13943.0      13942.999        -999.25         64.420      -999.2500        240.831
        13943.5      13943.500        -999.25         63.659      -999.2500        240.838
        13944.0      13944.000        -999.25         62.899      -999.2500        240.844
        13944.5      13944.500        -999.25         62.138      -999.2500        240.850
        13945.0      13945.000        -999.25         61.377      -999.2500        240.857
        13945.5      13945.500        -999.25         60.617      -999.2500        240.863
        13946.0      13946.000        -999.25         60.489      -999.2500        240.869
        13946.5      13946.500        -999.25         61.638      -999.2500        240.876
        13947.0      13947.000        -999.25         62.787      -999.2500        240.882
        13947.5      13947.501        -999.25         63.937      -999.2500        240.889
        13948.0      13948.001        -999.25         65.086      -999.2500        240.895
        13948.5      13948.501        -999.25         65.247      -999.2500        240.901
        13949.0      13949.000        -999.25         64.993      -999.2500        240.908
        13949.5      13949.500        -999.25         64.739      -999.2500        240.914
        13950.0      13950.000        -999.25         64.485      -999.2500        240.921
        13950.5      13950.499        -999.25         64.231      -999.2500        240.927
        13951.0      13950.999        -999.25         63.977      -999.2500        240.933
        13951.5      13951.499        -999.25         63.723      -999.2500        240.940
        13952.0      13952.001        -999.25         63.093      -999.2500        240.946
        13952.5      13952.500        -999.25         61.954      -999.2500        240.952
        13953.0      13953.000        -999.25         60.814      -999.2500        240.959
        13953.5      13953.500        -999.25         59.674      -999.2500        240.965
        13954.0      13954.000        -999.25         58.535      -999.2500        240.972
        13954.5      13954.500        -999.25         57.395      -999.2500        240.978
        13955.0      13955.000        -999.25         56.674      -999.2500        240.984
        13955.5      13955.500        -999.25         58.604      -999.2500        240.991
        13956.0      13956.000        -999.25         60.535      -999.2500        240.997
        13956.5      13956.501        -999.25         62.465      -999.2500        241.003
        13957.0      13957.001        -999.25         64.396      -999.2500        241.010
        13957.5      13957.500        -999.25         65.950      -999.2500        241.016
        13958.0      13958.000        -999.25         66.692      -999.2500        241.023
        13958.5      13958.500        -999.25         67.435      -999.2500        241.029
        13959.0      13958.999        -999.25         68.129      -999.2500        241.035
        13959.5      13959.499        -999.25         68.343      -999.2500        241.042
        13960.0      13959.999        -999.25         68.557      -999.2500        241.048
        13960.5      13960.499        -999.25         68.770      -999.2500        241.054
        13961.0      13961.001        -999.25         68.984      -999.2500        241.061
        13961.5      13961.501        -999.25         69.198      -999.2500        241.067
        13962.0      13962.000        -999.25         69.411      -999.2500        241.074
        13962.5      13962.500        -999.25         68.441      -999.2500        241.080
        13963.0      13963.000        -999.25         67.233      -999.2500        241.086
        13963.5      13963.500        -999.25         66.333      -999.2500        241.093
        13964.0      13963.999        -999.25         66.700      -999.2500        241.099
        13964.5      13964.499        -999.25         67.068      -999.2500        241.105
        13965.0      13965.000        -999.25         67.435      -999.2500        241.112
        13965.5      13965.500        -999.25         66.825      -999.2500        241.118
        13966.0      13966.000        -999.25         65.455      -999.2500        241.125
        13966.5      13966.500        -999.25         64.085      -999.2500        241.131
        13967.0      13967.000        -999.25         62.715      -999.2500        241.137
        13967.5      13967.500        -999.25         61.819      -999.2500        241.144
        13968.0      13968.000        -999.25         62.023      -999.2500        241.150
        13968.5      13968.499        -999.25         62.227      -999.2500        241.156
        13969.0      13968.999        -999.25         62.430      -999.2500        241.163
        13969.5      13969.501        -999.25         62.634      -999.2500        241.169
        13970.0      13970.001        -999.25         62.838      -999.2500        241.176
        13970.5      13970.501        -999.25         63.042      -999.2500        241.182
        13971.0      13971.000        -999.25         63.246      -999.2500        241.188
        13971.5      13971.500        -999.25         63.450      -999.2500        241.195
        13972.0      13972.000        -999.25         63.654      -999.2500        241.201
        13972.5      13972.499        -999.25         63.857      -999.2500        241.207
        13973.0      13972.999        -999.25         63.732      -999.2500        241.214
        13973.5      13973.499        -999.25         63.525      -999.2500        241.220
