###############################################
##         ENVERUS                           ##
##         Petrophysical Curves              ##
##         PERMIAN / DELAWARE                ##
##         Jan 21 2022                       ##
##         42-389-30261-00-00                ##
###############################################
## Copyright 2017-2022  ENVERUS.  All Rights Reserved. 
## Confidential - Property of ENVERUS, use governed by terms and 
## conditions found within the existing Information Services Subscription Agreement 
## (as may be amended, the “ISSA”) between Customer and ENVERUS. 
## 
~VERSION INFORMATION
# MNEM.UNIT                               DATA : DESCRIPTION OF MNEMONIC
#-----.-----     ----------------------------- : -----------------------------
VERS.                                     2.00 : CWLS LOG ASCII STANDARD - VERSION 2.00
WRAP.                                       NO : MULTIPLE LINES PER DEPTH STEP
VEND.                                  ENVERUS : VENDOR
TYPE.                     PETROPHYSICAL CURVES : ENVERUS PETROPHYSICAL CURVES - ACCESSIBLE THROUGH ENVERUS CORE(TM)
#___________________________________________________________________________________________________ 
~WELL INFORMATION 
# uyaQ8P8kQDJ9DXFS5hR1PxmExEOYaAUkY5f3/tnOS+scoPAUWgXA1zCIHGRbWCuSuUcwDzaESCjqjWQ81XhadA== 
# MNEM.UNIT                                              DATA : DESCRIPTION OF MNEMONIC 
#-----.-----                    ----------------------------- : ----------------------------- 
CNTY.                                                  REEVES : COUNTY 
STATE.                                                  TEXAS : STATE 
CNTRY.                                                    USA : COUNTRY 
API.                                             42-389-30261 : API (10 Digit) 
API_14.                                    42-389-30261-00-00 : API (14 Digits) 
API_14_std.                                 42-389-30261-0000 : API (14 Digits Standard) 
UWI.                                           42389302610000 : UNIQUE WELL ID
STRT.FT                                                 202.0 : START DEPTH
STOP.FT                                               18968.0 : STOP DEPTH
STEP.FT                                                   0.5 : STEP BETWEEN DEPTHS
NULL.                                                 -999.25 : NULL VALUE
COMP.                                                      BP : COMPANY 
WELL.                                                TXL-39 1 : WELL NAME 
FLD.                                            CHAPMAN  DEEP : FIELD NAME
#___________________________________________________________________________________________________ 
~CURVE INFORMATION 
#    Zone Description
#          1 = Upper Avalon
#          2 = Middle Avalon
#          3 = Lower Avalon
#          4 = 1st Bone Spring
#          5 = 2nd Bone Spring
#          6 = 2nd Bone Spring Sand
#          7 = 3rd Bone Spring
#          8 = 3rd Bone Spring Sand
#          9 = Wolfcamp XY
#          10 = Wolfcamp A Upper
#          11 = Wolfcamp A Lower
#          12 = Wolfcamp B Upper
#          13 = Wolfcamp B Lower
#          14 = Wolfcamp C
#          15 = Wolfcamp D
#          16 = Pennsylvanian Shale
#          17 = Lower Pennsylvanian Shale
#          18 = Barnett
#          19 = Barnett Lower
#          20 = Mississippian Lime
#          21 = Woodford
#          22 = Base Woodford 
# MNEM.UNIT           : CURVE DESCRIPTION 
#-----.-----          : ----------------------------- 
 DEPT.FT               : MEASURED DEPTH 
 TVD_I.FT              : ENVERUS TRUE VERTICAL DEPTH 
 ZONE_I.               : ENVERUS DEFINED ZONE CODE 
 GR_N_I.API            : ENVERUS NORMALIZED GAMMA RAY LEVERAGED IN GEOLOGICAL MODELLING 
 RESD_I.OHMM           : ENVERUS DEEP RESISTIVITY LEVERAGED IN GEOLOGICAL MODELLING 
 TEMP_I.DEGF           : ENVERUS INTERPRETED TEMPERATURE DERIVED FROM BOTTOM HOLE TEMPERATURES 
 #___________________________________________________________________________________________________ 
~A         DEPT          TVD_I         ZONE_I         GR_N_I         RESD_I         TEMP_I
# ...
         1434.0       1434.000        -999.25         18.785      -999.2500         81.290
         1434.5       1434.500        -999.25         19.744      -999.2500         81.296
         1435.0       1435.000        -999.25         20.702      -999.2500         81.302
         1435.5       1435.500        -999.25         21.661      -999.2500         81.309
         1436.0       1436.000        -999.25         14.217      -999.2500         81.315
         1436.5       1436.500        -999.25         13.007      -999.2500         81.321
         1437.0       1437.000        -999.25         13.017      -999.2500         81.328
         1437.5       1437.500        -999.25         13.027      -999.2500         81.334
         1438.0       1438.000        -999.25         13.036      -999.2500         81.341
         1438.5       1438.500        -999.25         13.325      -999.2500         81.347
         1439.0       1439.000        -999.25         13.707      -999.2500         81.353
         1439.5       1439.500        -999.25         14.089      -999.2500         81.360
         1440.0       1440.000        -999.25         14.472      -999.2500         81.366
         1440.5       1440.500        -999.25         14.854      -999.2500         81.372
         1441.0       1441.000        -999.25         15.237      -999.2500         81.379
         1441.5       1441.500        -999.25         15.619      -999.2500         81.385
         1442.0       1442.000        -999.25         16.001      -999.2500         81.392
         1442.5       1442.500        -999.25         16.384      -999.2500         81.398
         1443.0       1443.000        -999.25         16.766      -999.2500         81.404
         1443.5       1443.500        -999.25         17.148      -999.2500         81.411
         1444.0       1444.000        -999.25         17.531      -999.2500         81.417
         1444.5       1444.500        -999.25         17.226      -999.2500         81.423
         1445.0       1445.000        -999.25         16.637      -999.2500         81.430
         1445.5       1445.500        -999.25         16.047      -999.2500         81.436
         1446.0       1446.000        -999.25         15.458      -999.2500         81.443
         1446.5       1446.500        -999.25         15.925      -999.2500         81.449
         1447.0       1447.000        -999.25         17.492      -999.2500         81.455
         1447.5       1447.500        -999.25         19.059      -999.2500         81.462
         1448.0       1448.000        -999.25         20.627      -999.2500         81.468
         1448.5       1448.500        -999.25         22.194      -999.2500         81.474
         1449.0       1449.000        -999.25         23.761      -999.2500         81.481
         1449.5       1449.500        -999.25         25.328      -999.2500         81.487
         1450.0       1450.000        -999.25         26.896      -999.2500         81.494
         1450.5       1450.500        -999.25         27.182      -999.2500         81.500
         1451.0       1451.000        -999.25         27.369      -999.2500         81.506
         1451.5       1451.500        -999.25         27.556      -999.2500         81.513
         1452.0       1452.000        -999.25         27.743      -999.2500         81.519
         1452.5       1452.500        -999.25         28.257      -999.2500         81.525
         1453.0       1453.000        -999.25         30.068      -999.2500         81.532
         1453.5       1453.500        -999.25         31.880      -999.2500         81.538
         1454.0       1454.000        -999.25         31.686      -999.2500         81.545
         1454.5       1454.500        -999.25         30.674      -999.2500         81.551
         1455.0       1455.000        -999.25         29.662      -999.2500         81.557
         1455.5       1455.500        -999.25         28.650      -999.2500         81.564
         1456.0       1456.000        -999.25         27.639      -999.2500         81.570
         1456.5       1456.500        -999.25         26.627      -999.2500         81.576
         1457.0       1457.000        -999.25         26.737      -999.2500         81.583
         1457.5       1457.500        -999.25         26.913      -999.2500         81.589
         1458.0       1458.000        -999.25         27.088      -999.2500         81.596
         1458.5       1458.500        -999.25         27.263      -999.2500         81.602
         1459.0       1459.000        -999.25         27.438      -999.2500         81.608
         1459.5       1459.500        -999.25         27.613      -999.2500         81.615
         1460.0       1460.000        -999.25         27.505      -999.2500         81.621
         1460.5       1460.500        -999.25         26.152      -999.2500         81.627
         1461.0       1461.000        -999.25         24.799      -999.2500         81.634
         1461.5       1461.500        -999.25         23.446      -999.2500         81.640
         1462.0       1462.000        -999.25         22.093      -999.2500         81.647
         1462.5       1462.500        -999.25         20.859      -999.2500         81.653
         1463.0       1463.000        -999.25         22.369      -999.2500         81.659
         1463.5       1463.500        -999.25         23.878      -999.2500         81.666
         1464.0       1464.000        -999.25         25.388      -999.2500         81.672
         1464.5       1464.500        -999.25         26.897      -999.2500         81.679
         1465.0       1465.000        -999.25         28.407      -999.2500         81.685
         1465.5       1465.500        -999.25         26.180      -999.2500         81.691
         1466.0       1466.000        -999.25         23.932      -999.2500         81.698
         1466.5       1466.500        -999.25         21.683      -999.2500         81.704
         1467.0       1467.000        -999.25         21.542      -999.2500         81.710
         1467.5       1467.500        -999.25         21.660      -999.2500         81.717
         1468.0       1468.000        -999.25         21.777      -999.2500         81.723
         1468.5       1468.500        -999.25         21.895      -999.2500         81.730
         1469.0       1469.000        -999.25         22.012      -999.2500         81.736
         1469.5       1469.500        -999.25         22.130      -999.2500         81.742
         1470.0       1470.000        -999.25         22.247      -999.2500         81.749
         1470.5       1470.500        -999.25         22.365      -999.2500         81.755
         1471.0       1471.000        -999.25         22.482      -999.2500         81.761
         1471.5       1471.500        -999.25         22.600      -999.2500         81.768
         1472.0       1472.000        -999.25         22.717      -999.2500         81.774
         1472.5       1472.500        -999.25         22.835      -999.2500         81.781
         1473.0       1473.000        -999.25         22.952      -999.2500         81.787
         1473.5       1473.500        -999.25         23.070      -999.2500         81.793
         1474.0       1474.000        -999.25         23.187      -999.2500         81.800
         1474.5       1474.500        -999.25         23.035      -999.2500         81.806
         1475.0       1475.000        -999.25         22.257      -999.2500         81.812
         1475.5       1475.500        -999.25         21.479      -999.2500         81.819
         1476.0       1476.000        -999.25         20.700      -999.2500         81.825
         1476.5       1476.500        -999.25         19.922      -999.2500         81.832
         1477.0       1477.000        -999.25         19.144      -999.2500         81.838
         1477.5       1477.500        -999.25         18.365      -999.2500         81.844
