###############################################
##         ENVERUS                           ##
##         Petrophysical Curves              ##
##         PERMIAN / DELAWARE                ##
##         Jan 21 2022                       ##
##         42-389-30261-00-00                ##
###############################################
## Copyright 2017-2022  ENVERUS.  All Rights Reserved. 
## Confidential - Property of ENVERUS, use governed by terms and 
## conditions found within the existing Information Services Subscription Agreement 
## (as may be amended, the “ISSA”) between Customer and ENVERUS. 
## 
~VERSION INFORMATION
# MNEM.UNIT                               DATA : DESCRIPTION OF MNEMONIC
#-----.-----     ----------------------------- : -----------------------------
VERS.                                     2.00 : CWLS LOG ASCII STANDARD - VERSION 2.00
WRAP.                                       NO : MULTIPLE LINES PER DEPTH STEP
VEND.                                  ENVERUS : VENDOR
TYPE.                     PETROPHYSICAL CURVES : ENVERUS PETROPHYSICAL CURVES - ACCESSIBLE THROUGH ENVERUS CORE(TM)
#___________________________________________________________________________________________________ 
~WELL INFORMATION 
# uyaQ8P8kQDJ9DXFS5hR1PxmExEOYaAUkY5f3/tnOS+scoPAUWgXA1zCIHGRbWCuSuUcwDzaESCjqjWQ81XhadA== 
# MNEM.UNIT                                              DATA : DESCRIPTION OF MNEMONIC 
#-----.-----                    ----------------------------- : ----------------------------- 
CNTY.                                                  REEVES : COUNTY 
STATE.                                                  TEXAS : STATE 
CNTRY.                                                    USA : COUNTRY 
API.                                             42-389-30261 : API (10 Digit) 
API_14.                                    42-389-30261-00-00 : API (14 Digits) 
API_14_std.                                 42-389-30261-0000 : API (14 Digits Standard) 
UWI.                                           42389302610000 : UNIQUE WELL ID
STRT.FT                                                 202.0 : START DEPTH
STOP.FT                                               18968.0 : STOP DEPTH
STEP.FT                                                   0.5 : STEP BETWEEN DEPTHS
NULL.                                                 -999.25 : NULL VALUE
COMP.                                                      BP : COMPANY 
WELL.                                                TXL-39 1 : WELL NAME 
FLD.                                            CHAPMAN  DEEP : FIELD NAME
#___________________________________________________________________________________________________ 
~CURVE INFORMATION 
#    Zone Description
#          1 = Upper Avalon
#          2 = Middle Avalon
#          3 = Lower Avalon
#          4 = 1st Bone Spring
#          5 = 2nd Bone Spring
#          6 = 2nd Bone Spring Sand
#          7 = 3rd Bone Spring
#          8 = 3rd Bone Spring Sand
#          9 = Wolfcamp XY
#          10 = Wolfcamp A Upper
#          11 = Wolfcamp A Lower
#          12 = Wolfcamp B Upper
#          13 = Wolfcamp B Lower
#          14 = Wolfcamp C
#          15 = Wolfcamp D
#          16 = Pennsylvanian Shale
#          17 = Lower Pennsylvanian Shale
#          18 = Barnett
#          19 = Barnett Lower
#          20 = Mississippian Lime
#          21 = Woodford
#          22 = Base Woodford 
# MNEM.UNIT           : CURVE DESCRIPTION 
#-----.-----          : ----------------------------- 
 DEPT.FT               : MEASURED DEPTH 
 TVD_I.FT              : ENVERUS TRUE VERTICAL DEPTH 
 ZONE_I.               : ENVERUS DEFINED ZONE CODE 
 GR_N_I.API            : ENVERUS NORMALIZED GAMMA RAY LEVERAGED IN GEOLOGICAL MODELLING 
 RESD_I.OHMM           : ENVERUS DEEP RESISTIVITY LEVERAGED IN GEOLOGICAL MODELLING 
 TEMP_I.DEGF           : ENVERUS INTERPRETED TEMPERATURE DERIVED FROM BOTTOM HOLE TEMPERATURES 
 #___________________________________________________________________________________________________ 
~A         DEPT          TVD_I         ZONE_I         GR_N_I         RESD_I         TEMP_I
# ...
         3942.0       3942.000        -999.25         35.659       285.0430        113.277
         3942.5       3942.500        -999.25         37.174       249.5810        113.283
         3943.0       3943.000        -999.25         38.689       217.0650        113.290
         3943.5       3943.500        -999.25         36.767       185.7010        113.296
         3944.0       3944.000        -999.25         34.695       168.4330        113.302
         3944.5       3944.500        -999.25         32.622       158.3120        113.309
         3945.0       3945.000        -999.25         30.550       148.1910        113.315
         3945.5       3945.500        -999.25         31.430       138.0700        113.322
         3946.0       3946.000        -999.25         33.233       127.9480        113.328
         3946.5       3946.500        -999.25         35.035       117.8270        113.334
         3947.0       3947.000        -999.25         36.837       107.7060        113.341
         3947.5       3947.500        -999.25         38.640        97.5850        113.347
         3948.0       3948.000        -999.25         42.456        93.1140        113.353
         3948.5       3948.500        -999.25         46.355        90.3260        113.360
         3949.0       3949.000        -999.25         42.061        87.5380        113.366
         3949.5       3949.500        -999.25         37.091        84.7510        113.373
         3950.0       3950.000        -999.25         32.237        81.9630        113.379
         3950.5       3950.500        -999.25         28.643        79.1750        113.385
         3951.0       3951.000        -999.25         25.050        94.0080        113.392
         3951.5       3951.500        -999.25         23.531       108.9320        113.398
         3952.0       3952.000        -999.25         22.075       146.3260        113.404
         3952.5       3952.500        -999.25         20.620       193.4880        113.411
         3953.0       3953.000        -999.25         19.164       240.6500        113.417
         3953.5       3953.500        -999.25         17.708       287.7682        113.424
         3954.0       3954.000        -999.25         20.474       349.5670        113.430
         3954.5       3954.500        -999.25         24.737       567.1140        113.436
         3955.0       3955.000        -999.25         29.150       752.6740        113.443
         3955.5       3955.500        -999.25         33.821       920.7020        113.449
         3956.0       3956.000        -999.25         38.493      1065.6250        113.455
         3956.5       3956.500        -999.25         43.164       874.3770        113.462
         3957.0       3957.000        -999.25         47.835       683.1290        113.468
         3957.5       3957.500        -999.25         52.507       491.8810        113.475
         3958.0       3958.000        -999.25         50.248       300.6330        113.481
         3958.5       3958.500        -999.25         47.666       161.6480        113.487
         3959.0       3959.000        -999.25         45.084       110.7130        113.494
         3959.5       3959.500        -999.25         43.747        59.7780        113.500
         3960.0       3960.000        -999.25         43.932        35.5350        113.506
         3960.5       3960.500        -999.25         44.118        39.8740        113.513
         3961.0       3961.000        -999.25         44.303        44.2130        113.519
         3961.5       3961.500        -999.25         44.458        48.5520        113.526
         3962.0       3962.000        -999.25         44.596        52.4230        113.532
         3962.5       3962.500        -999.25         44.734        50.0190        113.538
         3963.0       3963.000        -999.25         44.872        47.6150        113.545
         3963.5       3963.500        -999.25         45.010        45.2110        113.551
         3964.0       3964.000        -999.25         45.148        42.8070        113.558
         3964.5       3964.500        -999.25         45.286        40.4030        113.564
         3965.0       3965.000        -999.25         45.367        37.9990        113.570
         3965.5       3965.500        -999.25         43.860        35.5950        113.577
         3966.0       3966.000        -999.25         42.352        34.0690        113.583
         3966.5       3966.500        -999.25         40.845        35.2301        113.589
         3967.0       3967.000        -999.25         39.337        36.3940        113.596
         3967.5       3967.500        -999.25         37.830        42.0240        113.602
         3968.0       3968.000        -999.25         36.322        52.8340        113.609
         3968.5       3968.500        -999.25         34.711        63.6440        113.615
         3969.0       3969.000        -999.25         31.459        74.4540        113.621
         3969.5       3969.500        -999.25         28.206        94.4430        113.628
         3970.0       3970.000        -999.25         27.392       150.2320        113.634
         3970.5       3970.500        -999.25         26.719       205.7800        113.640
         3971.0       3971.000        -999.25         26.045       261.2250        113.647
         3971.5       3971.500        -999.25         25.372       311.2490        113.653
         3972.0       3972.000        -999.25         24.990       337.5670        113.660
         3972.5       3972.500        -999.25         27.809       363.8850        113.666
         3973.0       3973.000        -999.25         30.628       390.1819        113.672
         3973.5       3973.500        -999.25         33.414       416.5210        113.679
         3974.0       3974.000        -999.25         33.344       442.8380        113.685
         3974.5       3974.500        -999.25         33.274       411.8620        113.691
         3975.0       3975.000        -999.25         33.205       358.0410        113.698
         3975.5       3975.500        -999.25         33.135       304.2200        113.704
         3976.0       3976.000        -999.25         33.065       250.3980        113.711
         3976.5       3976.500        -999.25         34.526       221.0430        113.717
         3977.0       3977.000        -999.25         37.702       194.1690        113.723
         3977.5       3977.500        -999.25         40.879       155.5760        113.730
         3978.0       3978.000        -999.25         44.055       123.5180        113.736
         3978.5       3978.500        -999.25         44.962       116.7340        113.742
         3979.0       3979.000        -999.25         44.991        60.1080        113.749
         3979.5       3979.500        -999.25         45.021        56.2261        113.755
         3980.0       3980.000        -999.25         45.050        52.3390        113.762
         3980.5       3980.500        -999.25         45.079        48.4540        113.768
         3981.0       3981.000        -999.25         45.108        44.5690        113.774
         3981.5       3981.500        -999.25         45.138        40.6850        113.781
         3982.0       3982.000        -999.25         45.167        36.8000        113.787
         3982.5       3982.500        -999.25         45.196        32.9160        113.793
         3983.0       3983.000        -999.25         45.226        29.0310        113.800
         3983.5       3983.500        -999.25         45.255        25.4470        113.806
         3984.0       3984.000        -999.25         45.633        24.8400        113.813
         3984.5       3984.500        -999.25         46.014        24.2320        113.819
         3985.0       3985.000        -999.25         46.395        23.6250        113.825
         3985.5       3985.500        -999.25         46.776        23.0170        113.832
