###############################################
##         ENVERUS                           ##
##         ESS - Open Hole                   ##
##         PERMIAN / DELAWARE                ##
##         Nov 04 2023  V4.0                 ##
##         42-389-30469-00-00                ##
###############################################
## Copyright 2017-2023  ENVERUS.  All Rights Reserved. 
## Confidential - Property of ENVERUS, use governed by terms and 
## conditions found within the existing Information Services Subscription Agreement 
## (as may be amended, the “ISSA”) between Customer and ENVERUS. 
## 
~VERSION INFORMATION
# MNEM.UNIT                               DATA : DESCRIPTION OF MNEMONIC
#-----.-----     ----------------------------- : -----------------------------
VERS.                                     2.00 : CWLS LOG ASCII STANDARD - VERSION 2.00
WRAP.                                       NO : MULTIPLE LINES PER DEPTH STEP
VEND.                                  ENVERUS : VENDOR
TYPE.                          ESS - OPEN HOLE : ENVERUS ESSENTIAL CURVES – ACCESSIBLE THROUGH ENVERUS PRISM(TM)
DOC.                                  32305858 : ENVERUS HEADER RAW DOCUMENT ID
#___________________________________________________________________________________________________ 
~WELL INFORMATION 
# QLEmRB3tAfi4h2ohjzYx3rsZtS9yBcz1q2joqn0STWfPGhk373gRG/+4vKKA+3S/hWA+0diIcqk9K+n3WoLixw== 
# MNEM.UNIT                                              DATA : DESCRIPTION OF MNEMONIC 
#-----.-----                    ----------------------------- : ----------------------------- 
CNTY.                                                  REEVES : COUNTY 
STATE.                                                  TEXAS : STATE 
CNTRY.                                                    USA : COUNTRY 
API.                                             42-389-30469 : API (10 Digit) 
API_14.                                    42-389-30469-00-00 : API (14 Digits) 
API_14_std.                                 42-389-30469-0000 : API (14 Digits Standard) 
UWI.                                           42389304690000 : UNIQUE WELL ID 
WELL.                                                 WYNNE 1 : WELL NAME
STRT.FT                                                  30.0 : START DEPTH
STOP.FT                                               15871.0 : STOP DEPTH
STEP.FT                                                   0.5 : STEP BETWEEN DEPTHS
NULL.                                                 -999.25 : NULL VALUE
#___________________________________________________________________________________________________ 
~CURVE INFORMATION 
# MNEM.UNIT           : CURVE DESCRIPTION 
#-----.-----          : ----------------------------- 
 DEPT.FT               : MEASURED DEPTH 
 CALI.IN               : CALIPER (CAL - CAL) 
 GR.API                : GAMMA RAY (GR) 
 DT.US/FT              : SONIC DELTA TRANSIT TIME (DT) 
 #___________________________________________________________________________________________________ 
~A         DEPT           CALI             GR             DT
# ...
         3924.0         12.724         26.637       -999.250
         3924.5         12.723         27.623       -999.250
         3925.0         12.722         28.608       -999.250
         3925.5         12.721         29.593       -999.250
         3926.0         12.720         30.579       -999.250
         3926.5         12.719         31.564       -999.250
         3927.0         12.718         32.549       -999.250
         3927.5         12.716         30.712       -999.250
         3928.0         12.715         28.334       -999.250
         3928.5         12.714         25.957       -999.250
         3929.0         12.713         25.202       -999.250
         3929.5         12.712         26.101       -999.250
         3930.0         12.711         27.000       -999.250
         3930.5         12.709         27.899       -999.250
         3931.0         12.708         28.798       -999.250
         3931.5         12.707         29.697       -999.250
         3932.0         12.706         30.595       -999.250
         3932.5         12.705         29.551       -999.250
         3933.0         12.709         28.456       -999.250
         3933.5         12.749         27.360       -999.250
         3934.0         12.790         26.265         78.081
         3934.5         12.830         25.231         77.880
         3935.0         12.871         30.824         79.083
         3935.5         12.911         36.417         80.285
         3936.0         12.952         42.010         81.488
         3936.5         13.312         47.604         82.691
         3937.0         13.874         50.034         83.893
         3937.5         14.436         44.895         85.096
         3938.0         14.624         39.757         80.466
         3938.5         14.623         34.619         75.633
         3939.0         14.623         29.480         70.801
         3939.5         14.622         25.394         65.968
         3940.0         14.622         26.682         56.917
         3940.5         14.621         27.970         57.691
         3941.0         14.620         29.259         58.465
         3941.5         14.620         30.547         59.239
         3942.0         14.619         31.836         60.013
         3942.5         14.619         33.124         60.787
         3943.0         14.618         34.412         61.561
         3943.5         14.617         35.701         62.197
         3944.0         14.617         36.989         62.635
         3944.5         14.616         38.278         63.072
         3945.0         14.616         39.566         64.654
         3945.5         14.615         40.854         66.340
         3946.0         14.615         41.768         68.434
         3946.5         14.614         40.812         70.689
         3947.0         14.613         39.856         72.944
         3947.5         14.613         38.900         75.199
         3948.0         14.612         37.944         76.223
         3948.5         14.612         36.988         76.769
         3949.0         14.611         36.032         77.122
         3949.5         14.611         35.076         76.653
         3950.0         14.610         35.868         76.183
         3950.5         14.609         37.313         75.714
         3951.0         14.609         38.758         75.245
         3951.5         14.608         40.203         73.051
         3952.0         14.608         38.747         70.099
         3952.5         14.607         35.879         67.148
         3953.0         14.607         33.011         64.196
         3953.5         14.606         30.143         61.717
         3954.0         14.605         27.275         60.573
         3954.5         14.605         24.407         59.428
         3955.0         14.604         21.540         58.284
         3955.5         14.604         21.809         57.139
         3956.0         14.603         22.208         55.995
         3956.5         14.602         22.606         55.178
         3957.0         14.602         23.004         54.716
         3957.5         14.601         23.402         54.254
         3958.0         14.595         23.801         53.792
         3958.5         14.580         24.199         53.329
         3959.0         14.565         25.557         52.867
         3959.5         14.550         27.556         52.405
         3960.0         14.536         29.556         55.562
         3960.5         14.537         31.555         56.533
         3961.0         15.429         33.554         57.504
         3961.5         16.321         35.553         58.475
         3962.0         17.213         32.946         59.446
         3962.5         13.643         30.077         60.200
         3963.0         13.625         27.209         58.370
         3963.5         13.606         27.044         56.539
         3964.0         13.587         28.751         56.052
         3964.5         13.568         30.458         56.405
         3965.0         13.550         32.165         56.759
         3965.5         13.531         33.871         57.112
         3966.0         13.510         35.578         57.466
         3966.5         13.486         37.285         57.819
         3967.0         13.462         38.992         58.173
         3967.5         13.438         39.096         58.580
         3968.0         13.414         37.583         59.190
         3968.5         13.390         36.071         59.800
         3969.0         13.366         34.559         60.409
         3969.5         13.342         33.047         61.019
         3970.0         13.318         31.534         61.629
         3970.5         13.294         30.022         60.364
         3971.0         13.270         34.028         57.145
         3971.5         13.246         38.953         53.927
         3972.0         13.222         43.878         54.946
         3972.5         13.198         48.803         56.666
         3973.0         13.174         53.728         58.386
         3973.5         13.150         54.628         60.107
         3974.0         13.136         47.483         60.307
         3974.5         13.138         40.338         58.888
         3975.0         13.140         33.194         57.469
         3975.5         13.141         26.049         56.050
         3976.0         13.143         19.756         55.013
         3976.5         13.145         19.684         54.584
         3977.0         13.146         19.611         54.156
         3977.5         13.148         19.539         53.728
         3978.0         13.150         19.466         53.300
         3978.5         13.151         19.393         52.872
         3979.0         13.153         25.503         52.444
         3979.5         13.155         41.788         52.779
         3980.0         13.157         58.072         53.645
         3980.5         13.158         65.036         54.511
         3981.0         13.167         61.652         56.308
         3981.5         13.202         58.267         60.125
         3982.0         13.238         54.883         63.942
         3982.5         13.274         51.498         67.737
         3983.0         13.310         48.113         67.412
         3983.5         13.346         44.729         67.086
         3984.0         13.382         41.344         66.761
         3984.5         13.418         37.960         67.423
         3985.0         13.453         35.542         68.512
         3985.5         13.489         36.961         69.601
         3986.0         13.525         38.381         70.691
         3986.5         13.561         39.801         71.780
         3987.0         13.597         39.028         72.905
         3987.5         13.633         38.159         74.120
         3988.0         13.669         37.290         74.344
         3988.5         13.704         36.421         74.475
         3989.0         13.725         35.552         74.607
         3989.5         13.742         35.186         74.739
