###############################################
##         ENVERUS                           ##
##         Petrophysical Curves              ##
##         PERMIAN / DELAWARE                ##
##         Jan 21 2022                       ##
##         42-389-30261-00-00                ##
###############################################
## Copyright 2017-2022  ENVERUS.  All Rights Reserved. 
## Confidential - Property of ENVERUS, use governed by terms and 
## conditions found within the existing Information Services Subscription Agreement 
## (as may be amended, the “ISSA”) between Customer and ENVERUS. 
## 
~VERSION INFORMATION
# MNEM.UNIT                               DATA : DESCRIPTION OF MNEMONIC
#-----.-----     ----------------------------- : -----------------------------
VERS.                                     2.00 : CWLS LOG ASCII STANDARD - VERSION 2.00
WRAP.                                       NO : MULTIPLE LINES PER DEPTH STEP
VEND.                                  ENVERUS : VENDOR
TYPE.                     PETROPHYSICAL CURVES : ENVERUS PETROPHYSICAL CURVES - ACCESSIBLE THROUGH ENVERUS CORE(TM)
#___________________________________________________________________________________________________ 
~WELL INFORMATION 
# uyaQ8P8kQDJ9DXFS5hR1PxmExEOYaAUkY5f3/tnOS+scoPAUWgXA1zCIHGRbWCuSuUcwDzaESCjqjWQ81XhadA== 
# MNEM.UNIT                                              DATA : DESCRIPTION OF MNEMONIC 
#-----.-----                    ----------------------------- : ----------------------------- 
CNTY.                                                  REEVES : COUNTY 
STATE.                                                  TEXAS : STATE 
CNTRY.                                                    USA : COUNTRY 
API.                                             42-389-30261 : API (10 Digit) 
API_14.                                    42-389-30261-00-00 : API (14 Digits) 
API_14_std.                                 42-389-30261-0000 : API (14 Digits Standard) 
UWI.                                           42389302610000 : UNIQUE WELL ID
STRT.FT                                                 202.0 : START DEPTH
STOP.FT                                               18968.0 : STOP DEPTH
STEP.FT                                                   0.5 : STEP BETWEEN DEPTHS
NULL.                                                 -999.25 : NULL VALUE
COMP.                                                      BP : COMPANY 
WELL.                                                TXL-39 1 : WELL NAME 
FLD.                                            CHAPMAN  DEEP : FIELD NAME
#___________________________________________________________________________________________________ 
~CURVE INFORMATION 
#    Zone Description
#          1 = Upper Avalon
#          2 = Middle Avalon
#          3 = Lower Avalon
#          4 = 1st Bone Spring
#          5 = 2nd Bone Spring
#          6 = 2nd Bone Spring Sand
#          7 = 3rd Bone Spring
#          8 = 3rd Bone Spring Sand
#          9 = Wolfcamp XY
#          10 = Wolfcamp A Upper
#          11 = Wolfcamp A Lower
#          12 = Wolfcamp B Upper
#          13 = Wolfcamp B Lower
#          14 = Wolfcamp C
#          15 = Wolfcamp D
#          16 = Pennsylvanian Shale
#          17 = Lower Pennsylvanian Shale
#          18 = Barnett
#          19 = Barnett Lower
#          20 = Mississippian Lime
#          21 = Woodford
#          22 = Base Woodford 
# MNEM.UNIT           : CURVE DESCRIPTION 
#-----.-----          : ----------------------------- 
 DEPT.FT               : MEASURED DEPTH 
 TVD_I.FT              : ENVERUS TRUE VERTICAL DEPTH 
 ZONE_I.               : ENVERUS DEFINED ZONE CODE 
 GR_N_I.API            : ENVERUS NORMALIZED GAMMA RAY LEVERAGED IN GEOLOGICAL MODELLING 
 RESD_I.OHMM           : ENVERUS DEEP RESISTIVITY LEVERAGED IN GEOLOGICAL MODELLING 
 TEMP_I.DEGF           : ENVERUS INTERPRETED TEMPERATURE DERIVED FROM BOTTOM HOLE TEMPERATURES 
 #___________________________________________________________________________________________________ 
~A         DEPT          TVD_I         ZONE_I         GR_N_I         RESD_I         TEMP_I
# ...
        12698.0      12698.000        -999.25         64.473      -999.2500        224.952
        12698.5      12698.500        -999.25         65.671      -999.2500        224.959
        12699.0      12699.000        -999.25         66.869      -999.2500        224.965
        12699.5      12699.500        -999.25         68.068      -999.2500        224.971
        12700.0      12700.000        -999.25         69.266      -999.2500        224.978
        12700.5      12700.499        -999.25         70.556      -999.2500        224.984
        12701.0      12701.000        -999.25         71.875      -999.2500        224.991
        12701.5      12701.500        -999.25         73.194      -999.2500        224.997
        12702.0      12702.000        -999.25         74.122      -999.2500        225.003
        12702.5      12702.500        -999.25         74.931      -999.2500        225.010
        12703.0      12703.000        -999.25         75.739      -999.2500        225.016
        12703.5      12703.500        -999.25         76.547      -999.2500        225.022
        12704.0      12704.000        -999.25         77.355      -999.2500        225.029
        12704.5      12704.500        -999.25         77.475      -999.2500        225.035
        12705.0      12705.000        -999.25         77.036      -999.2500        225.042
        12705.5      12705.501        -999.25         76.597      -999.2500        225.048
        12706.0      12706.001        -999.25         76.159      -999.2500        225.054
        12706.5      12706.500        -999.25         74.661      -999.2500        225.061
        12707.0      12707.000        -999.25         70.851      -999.2500        225.067
        12707.5      12707.500        -999.25         67.041      -999.2500        225.073
        12708.0      12708.000        -999.25         63.231      -999.2500        225.080
        12708.5      12708.500        -999.25         59.421      -999.2500        225.086
        12709.0      12708.999        -999.25         55.611      -999.2500        225.093
        12709.5      12709.500        -999.25         51.801      -999.2500        225.099
        12710.0      12710.000        -999.25         47.991      -999.2500        225.105
        12710.5      12710.500        -999.25         48.617      -999.2500        225.112
        12711.0      12711.000        -999.25         51.016      -999.2500        225.118
        12711.5      12711.500        -999.25         56.432      -999.2500        225.124
        12712.0      12712.000        -999.25         61.847      -999.2500        225.131
        12712.5      12712.500        -999.25         67.263      -999.2500        225.137
        12713.0      12713.000        -999.25         70.949      -999.2500        225.144
        12713.5      12713.500        -999.25         67.685      -999.2500        225.150
        12714.0      12714.000        -999.25         64.421      -999.2500        225.156
        12714.5      12714.500        -999.25         61.157      -999.2500        225.163
        12715.0      12714.999        -999.25         57.892      -999.2500        225.169
        12715.5      12715.499        -999.25         54.628      -999.2500        225.175
        12716.0      12716.000        -999.25         54.896      -999.2500        225.182
        12716.5      12716.500        -999.25         55.755      -999.2500        225.188
        12717.0      12717.000        -999.25         56.614      -999.2500        225.195
        12717.5      12717.500        -999.25         57.473      -999.2500        225.201
        12718.0      12718.000        -999.25         58.332      -999.2500        225.207
        12718.5      12718.500        -999.25         59.248      -999.2500        225.214
        12719.0      12719.000        -999.25         60.195      -999.2500        225.220
        12719.5      12719.500        -999.25         61.141      -999.2500        225.227
        12720.0      12720.000        -999.25         62.088      -999.2500        225.233
        12720.5      12720.501        -999.25         63.035      -999.2500        225.239
        12721.0      12721.000        -999.25         63.896      -999.2500        225.246
        12721.5      12721.500        -999.25         64.709      -999.2500        225.252
        12722.0      12722.000        -999.25         65.522      -999.2500        225.258
        12722.5      12722.500        -999.25         66.336      -999.2500        225.265
        12723.0      12723.000        -999.25         67.470      -999.2500        225.271
        12723.5      12723.500        -999.25         69.018      -999.2500        225.278
        12724.0      12723.999        -999.25         70.567      -999.2500        225.284
        12724.5      12724.499        -999.25         72.116      -999.2500        225.290
        12725.0      12725.000        -999.25         73.664      -999.2500        225.297
        12725.5      12725.500        -999.25         75.213      -999.2500        225.303
        12726.0      12726.000        -999.25         75.542      -999.2500        225.309
        12726.5      12726.500        -999.25         75.212      -999.2500        225.316
        12727.0      12727.000        -999.25         74.956      -999.2500        225.322
        12727.5      12727.500        -999.25         74.953      -999.2500        225.329
        12728.0      12728.000        -999.25         74.951      -999.2500        225.335
        12728.5      12728.500        -999.25         74.721      -999.2500        225.341
        12729.0      12729.001        -999.25         73.634      -999.2500        225.348
        12729.5      12729.501        -999.25         72.547      -999.2500        225.354
        12730.0      12730.000        -999.25         72.301      -999.2500        225.360
        12730.5      12730.500        -999.25         72.298      -999.2500        225.367
        12731.0      12730.999        -999.25         72.148      -999.2500        225.373
        12731.5      12731.500        -999.25         71.732      -999.2500        225.380
        12732.0      12732.000        -999.25         71.316      -999.2500        225.386
        12732.5      12732.500        -999.25         70.901      -999.2500        225.392
        12733.0      12733.000        -999.25         70.819      -999.2500        225.399
        12733.5      12733.500        -999.25         71.040      -999.2500        225.405
        12734.0      12734.000        -999.25         71.261      -999.2500        225.411
        12734.5      12734.500        -999.25         71.482      -999.2500        225.418
        12735.0      12735.000        -999.25         71.702      -999.2500        225.424
        12735.5      12735.501        -999.25         71.923      -999.2500        225.431
        12736.0      12736.000        -999.25         72.144      -999.2500        225.437
        12736.5      12736.500        -999.25         72.365      -999.2500        225.443
        12737.0      12737.000        -999.25         72.390      -999.2500        225.450
        12737.5      12737.500        -999.25         71.906      -999.2500        225.456
        12738.0      12738.001        -999.25         71.422      -999.2500        225.462
        12738.5      12738.500        -999.25         70.939      -999.2500        225.469
        12739.0      12739.000        -999.25         70.846      -999.2500        225.475
        12739.5      12739.499        -999.25         71.247      -999.2500        225.482
        12740.0      12740.000        -999.25         71.648      -999.2500        225.488
        12740.5      12740.500        -999.25         70.568      -999.2500        225.494
        12741.0      12741.000        -999.25         69.182      -999.2500        225.501
        12741.5      12741.500        -999.25         67.796      -999.2500        225.507
