###############################################
##         ENVERUS                           ##
##         ESS - Open Hole                   ##
##         PERMIAN / DELAWARE                ##
##         Nov 04 2023  V4.0                 ##
##         42-389-30469-00-00                ##
###############################################
## Copyright 2017-2023  ENVERUS.  All Rights Reserved. 
## Confidential - Property of ENVERUS, use governed by terms and 
## conditions found within the existing Information Services Subscription Agreement 
## (as may be amended, the “ISSA”) between Customer and ENVERUS. 
## 
~VERSION INFORMATION
# MNEM.UNIT                               DATA : DESCRIPTION OF MNEMONIC
#-----.-----     ----------------------------- : -----------------------------
VERS.                                     2.00 : CWLS LOG ASCII STANDARD - VERSION 2.00
WRAP.                                       NO : MULTIPLE LINES PER DEPTH STEP
VEND.                                  ENVERUS : VENDOR
TYPE.                          ESS - OPEN HOLE : ENVERUS ESSENTIAL CURVES – ACCESSIBLE THROUGH ENVERUS PRISM(TM)
DOC.                                  32305858 : ENVERUS HEADER RAW DOCUMENT ID
#___________________________________________________________________________________________________ 
~WELL INFORMATION 
# QLEmRB3tAfi4h2ohjzYx3rsZtS9yBcz1q2joqn0STWfPGhk373gRG/+4vKKA+3S/hWA+0diIcqk9K+n3WoLixw== 
# MNEM.UNIT                                              DATA : DESCRIPTION OF MNEMONIC 
#-----.-----                    ----------------------------- : ----------------------------- 
CNTY.                                                  REEVES : COUNTY 
STATE.                                                  TEXAS : STATE 
CNTRY.                                                    USA : COUNTRY 
API.                                             42-389-30469 : API (10 Digit) 
API_14.                                    42-389-30469-00-00 : API (14 Digits) 
API_14_std.                                 42-389-30469-0000 : API (14 Digits Standard) 
UWI.                                           42389304690000 : UNIQUE WELL ID 
WELL.                                                 WYNNE 1 : WELL NAME
STRT.FT                                                  30.0 : START DEPTH
STOP.FT                                               15871.0 : STOP DEPTH
STEP.FT                                                   0.5 : STEP BETWEEN DEPTHS
NULL.                                                 -999.25 : NULL VALUE
#___________________________________________________________________________________________________ 
~CURVE INFORMATION 
# MNEM.UNIT           : CURVE DESCRIPTION 
#-----.-----          : ----------------------------- 
 DEPT.FT               : MEASURED DEPTH 
 CALI.IN               : CALIPER (CAL - CAL) 
 GR.API                : GAMMA RAY (GR) 
 DT.US/FT              : SONIC DELTA TRANSIT TIME (DT) 
 #___________________________________________________________________________________________________ 
~A         DEPT           CALI             GR             DT
# ...
        13428.0          9.311         31.130         49.874
        13428.5          9.324         32.642         49.322
        13429.0          9.336         31.397         49.052
        13429.5          9.346         28.866         49.348
        13430.0          9.346         26.336         49.644
        13430.5          9.346         24.734         49.939
        13431.0          9.346         25.190         51.186
        13431.5          9.346         25.645         52.557
        13432.0          9.346         26.101         53.928
        13432.5          9.346         26.557         55.299
        13433.0          9.346         27.012         56.670
        13433.5          9.346         27.468         58.041
        13434.0          9.346         28.402         59.412
        13434.5          9.346         31.099         60.783
        13435.0          9.346         33.795         62.351
        13435.5          9.345         36.491         63.919
        13436.0          9.330         39.187         65.487
        13436.5          9.306         41.884         67.055
        13437.0          9.283         42.182         68.622
        13437.5          9.260         42.351         70.190
        13438.0          9.236         42.519         71.758
        13438.5          9.213         42.688         48.936
        13439.0          9.190         41.931         48.812
        13439.5          9.167         37.206         48.688
        13440.0          9.143         32.481         48.564
        13440.5          9.120         27.756         48.638
        13441.0          9.101         23.030         48.742
        13441.5          9.109         18.305         48.846
        13442.0          9.117         18.157         48.950
        13442.5          9.126         18.745         49.053
        13443.0          9.134         19.333         49.157
        13443.5          9.142         19.921         49.261
        13444.0          9.150         20.510         49.364
        13444.5          9.158         20.706         49.468
        13445.0          9.166         20.200         49.572
        13445.5          9.174         19.694         49.676
        13446.0          9.183         19.188         49.772
        13446.5          9.191         18.683         49.753
        13447.0          9.199         18.177         49.733
        13447.5          9.187         17.671         49.714
        13448.0          9.167         17.165         49.695
        13448.5          9.148         16.986         49.676
        13449.0          9.128         17.551         49.656
        13449.5          9.108         18.117         49.637
        13450.0          9.088         18.682         49.618
        13450.5          9.068         19.248         49.599
        13451.0          9.049         19.814         49.579
        13451.5          9.029         20.379         49.560
        13452.0          9.009         20.945         49.541
        13452.5          8.989         21.188         49.521
        13453.0          8.969         21.017         49.502
        13453.5          8.949         20.845         49.483
        13454.0          8.930         20.674         49.481
        13454.5          8.910         20.503         49.530
        13455.0          8.890         20.332         49.579
        13455.5          8.870         20.161         49.627
        13456.0          8.854         19.990         49.676
        13456.5          8.857         19.819         49.725
        13457.0          8.860         19.648         49.774
        13457.5          8.863         20.612         49.823
        13458.0          8.867         21.786         49.871
        13458.5          8.870         22.961         49.806
        13459.0          8.873         24.135         49.724
        13459.5          8.876         25.309         49.641
        13460.0          8.879         26.484         49.559
        13460.5          8.883         26.397         49.477
        13461.0          8.886         25.576         49.395
        13461.5          8.889         24.755         49.313
        13462.0          8.892         23.934         49.230
        13462.5          8.896         23.113         49.148
        13463.0          8.899         22.293         49.066
        13463.5          8.902         21.472         49.813
        13464.0          8.905         20.651         50.473
        13464.5          8.908         19.830         50.337
        13465.0          8.912         20.911         50.200
        13465.5          8.915         22.370         50.063
        13466.0          8.918         22.031         49.927
        13466.5          8.921         21.692         49.790
        13467.0          8.924         21.353         49.654
        13467.5          8.928         21.013         49.517
        13468.0          8.931         20.674         49.380
        13468.5          8.934         20.335         49.694
        13469.0          8.937         19.996         50.047
        13469.5          8.940         20.437         50.399
        13470.0          8.944         20.914         50.751
        13470.5          8.947         21.390         50.803
        13471.0          8.950         21.866         50.634
        13471.5          8.953         22.343         50.465
        13472.0          8.956         22.819         50.295
        13472.5          8.960         23.295         50.126
        13473.0          8.963         23.771         49.957
        13473.5          8.966         24.248         49.788
        13474.0          8.969         24.724         49.619
        13474.5          8.973         25.200         49.449
        13475.0          8.976         25.074         49.280
        13475.5          8.979         24.897         49.111
        13476.0          8.982         24.719         48.987
        13476.5          8.985         24.541         49.166
        13477.0          8.989         24.364         49.346
        13477.5          8.992         24.186         49.526
        13478.0          8.995         24.009         49.706
        13478.5          8.998         23.831         49.885
        13479.0          9.001         23.654         50.065
        13479.5          9.005         23.476         50.177
        13480.0          9.008         23.299         50.142
        13480.5          9.011         23.121         50.107
        13481.0          9.016         22.943         50.072
        13481.5          9.026         22.766         50.037
        13482.0          9.036         22.588         50.002
        13482.5          9.046         22.411         49.967
        13483.0          9.056         22.233         49.932
        13483.5          9.066         22.056         49.897
        13484.0          9.076         21.878         49.862
        13484.5          9.086         21.700         49.827
        13485.0          9.096         21.613         49.792
        13485.5          9.106         22.126         49.757
        13486.0          9.116         22.639         49.722
        13486.5          9.126         23.153         49.687
        13487.0          9.136         23.472         49.653
        13487.5          9.145         22.966         49.618
        13488.0          9.155         22.460         49.583
        13488.5          9.165         21.954         49.554
        13489.0          9.175         21.448         49.525
        13489.5          9.185         20.942         49.497
        13490.0          9.195         20.436         49.469
        13490.5          9.205         19.930         49.441
        13491.0          9.215         19.424         49.412
        13491.5          9.231         19.192         49.384
        13492.0          9.248         19.511         49.356
        13492.5          9.265         19.830         49.328
        13493.0          9.282         20.148         49.300
        13493.5          9.299         20.467         49.271
