###############################################
##         ENVERUS                           ##
##         ESS - Open Hole                   ##
##         PERMIAN / DELAWARE                ##
##         Nov 04 2023  V4.0                 ##
##         42-389-30469-00-00                ##
###############################################
## Copyright 2017-2023  ENVERUS.  All Rights Reserved. 
## Confidential - Property of ENVERUS, use governed by terms and 
## conditions found within the existing Information Services Subscription Agreement 
## (as may be amended, the “ISSA”) between Customer and ENVERUS. 
## 
~VERSION INFORMATION
# MNEM.UNIT                               DATA : DESCRIPTION OF MNEMONIC
#-----.-----     ----------------------------- : -----------------------------
VERS.                                     2.00 : CWLS LOG ASCII STANDARD - VERSION 2.00
WRAP.                                       NO : MULTIPLE LINES PER DEPTH STEP
VEND.                                  ENVERUS : VENDOR
TYPE.                          ESS - OPEN HOLE : ENVERUS ESSENTIAL CURVES – ACCESSIBLE THROUGH ENVERUS PRISM(TM)
DOC.                                  32305858 : ENVERUS HEADER RAW DOCUMENT ID
#___________________________________________________________________________________________________ 
~WELL INFORMATION 
# QLEmRB3tAfi4h2ohjzYx3rsZtS9yBcz1q2joqn0STWfPGhk373gRG/+4vKKA+3S/hWA+0diIcqk9K+n3WoLixw== 
# MNEM.UNIT                                              DATA : DESCRIPTION OF MNEMONIC 
#-----.-----                    ----------------------------- : ----------------------------- 
CNTY.                                                  REEVES : COUNTY 
STATE.                                                  TEXAS : STATE 
CNTRY.                                                    USA : COUNTRY 
API.                                             42-389-30469 : API (10 Digit) 
API_14.                                    42-389-30469-00-00 : API (14 Digits) 
API_14_std.                                 42-389-30469-0000 : API (14 Digits Standard) 
UWI.                                           42389304690000 : UNIQUE WELL ID 
WELL.                                                 WYNNE 1 : WELL NAME
STRT.FT                                                  30.0 : START DEPTH
STOP.FT                                               15871.0 : STOP DEPTH
STEP.FT                                                   0.5 : STEP BETWEEN DEPTHS
NULL.                                                 -999.25 : NULL VALUE
#___________________________________________________________________________________________________ 
~CURVE INFORMATION 
# MNEM.UNIT           : CURVE DESCRIPTION 
#-----.-----          : ----------------------------- 
 DEPT.FT               : MEASURED DEPTH 
 CALI.IN               : CALIPER (CAL - CAL) 
 GR.API                : GAMMA RAY (GR) 
 DT.US/FT              : SONIC DELTA TRANSIT TIME (DT) 
 #___________________________________________________________________________________________________ 
~A         DEPT           CALI             GR             DT
# ...
        15012.0         10.086         68.239         90.900
        15012.5         10.184         68.522         94.052
        15013.0         10.283         68.804         97.204
        15013.5         10.382         69.086        100.357
        15014.0         10.481         69.369        101.745
        15014.5         10.579         68.139        100.901
        15015.0         10.462         66.329        100.058
        15015.5         10.332         64.520         99.214
        15016.0         10.202         62.711         98.371
        15016.5         10.097         60.901         97.527
        15017.0         10.068         61.259         96.510
        15017.5         10.039         62.218         95.387
        15018.0         10.010         63.176         94.666
        15018.5          9.981         64.135         94.308
        15019.0          9.952         65.094         93.949
        15019.5          9.923         66.052         91.757
        15020.0          9.894         67.011         86.591
        15020.5          9.866         67.970         85.543
        15021.0          9.838         68.929         87.021
        15021.5          9.811         69.467         88.499
        15022.0          9.783         69.468         89.977
        15022.5          9.756         69.470         90.913
        15023.0          9.729         69.471         88.086
        15023.5          9.701         69.473         85.259
        15024.0          9.674         69.474         85.451
        15024.5          9.646         69.475         86.044
        15025.0          9.619         69.477         86.636
        15025.5          9.592         69.478         87.229
        15026.0          9.564         70.448         87.543
        15026.5          9.537         71.818         86.919
        15027.0          9.544         73.188         86.295
        15027.5          9.571         74.558         85.671
        15028.0          9.597         74.155         85.799
        15028.5          9.624         73.427         86.825
        15029.0          9.651         72.699         87.851
        15029.5          9.677         71.971         88.876
        15030.0          9.704         71.243         89.902
        15030.5          9.731         70.515         91.019
        15031.0          9.746         69.788         92.289
        15031.5          9.734         69.634         93.558
        15032.0          9.722         69.867         94.517
        15032.5          9.710         70.101         93.806
        15033.0          9.698         70.335         93.096
        15033.5          9.686         70.569         92.385
        15034.0          9.674         70.803         91.674
        15034.5          9.662         71.037         90.963
        15035.0          9.650         71.270         90.252
        15035.5          9.638         71.504         89.541
        15036.0          9.626         71.738         88.831
        15036.5          9.614         71.972         88.006
        15037.0          9.646         72.206         86.802
        15037.5          9.687         72.440         85.598
        15038.0          9.728         72.673         84.394
        15038.5          9.770         72.907         83.190
        15039.0          9.811         73.141         83.714
        15039.5          9.853         73.375         86.981
        15040.0          9.894         73.609         90.248
        15040.5          9.936         73.843         93.515
        15041.0          9.977         74.076         94.696
        15041.5         10.018         74.310         94.086
        15042.0         10.060         74.544         93.477
        15042.5         10.092         74.778         92.867
        15043.0         10.119         75.012         92.258
        15043.5         10.145         75.132         91.648
        15044.0         10.171         74.270         91.039
        15044.5         10.197         73.409         90.429
        15045.0         10.224         72.547         89.820
        15045.5         10.250         71.685         94.958
        15046.0         10.276         70.824         94.634
        15046.5         10.302         69.739         94.311
        15047.0         10.329         68.382         93.987
        15047.5         10.355         67.024         93.663
        15048.0         10.381         65.667         93.340
        15048.5         10.408         64.309         94.545
        15049.0         10.434         62.952         96.135
        15049.5         10.460         61.595         97.726
        15050.0         10.486         60.237         99.317
        15050.5         10.494         58.880        100.327
        15051.0         10.474         58.451         98.604
        15051.5         10.455         59.058         96.881
        15052.0         10.435         59.664         95.157
        15052.5         10.415         60.270         93.457
        15053.0         10.395         60.877         91.806
        15053.5         10.376         61.483         90.154
        15054.0         10.356         62.089         88.503
        15054.5         10.336         62.696         89.949
        15055.0         10.316         63.302         94.107
        15055.5         10.297         63.836         94.531
        15056.0         10.277         63.281         94.955
        15056.5         10.257         62.725         95.379
        15057.0         10.235         62.169         95.803
        15057.5         10.208         61.614         96.227
        15058.0         10.182         61.058         96.651
        15058.5         10.156         60.503         96.963
        15059.0         10.129         59.947         96.052
        15059.5         10.103         59.465         95.140
        15060.0         10.077         61.089         94.229
        15060.5         10.050         62.712         93.318
        15061.0          9.988         64.335         87.532
        15061.5          9.919         65.959         87.965
        15062.0          9.850         67.582         88.397
        15062.5          9.781         69.206         88.830
        15063.0          9.712         70.829         89.263
        15063.5          9.643         72.453         89.696
        15064.0          9.597         74.076         90.129
        15064.5          9.658         75.699         90.562
        15065.0          9.719         77.323         90.994
        15065.5          9.781         77.924         91.427
        15066.0          9.842         77.506         91.336
        15066.5          9.903         77.088         86.830
        15067.0          9.965         76.670         83.791
        15067.5         10.026         76.252         85.872
        15068.0         10.087         75.834         87.953
        15068.5         10.040         75.416         90.042
        15069.0          9.988         74.997         92.239
        15069.5          9.935         74.579         94.436
        15070.0          9.883         74.161         96.633
        15070.5          9.831         73.743         97.322
        15071.0          9.778         73.325         96.969
        15071.5          9.781         72.907         96.616
        15072.0          9.794         72.489         96.263
        15072.5          9.807         72.071         95.910
        15073.0          9.820         71.653         95.612
        15073.5          9.833         71.235         95.974
        15074.0          9.845         70.817         96.336
        15074.5          9.797         70.470         96.698
        15075.0          9.671         70.877         97.060
        15075.5          9.544         71.284         97.422
        15076.0          9.454         71.692         91.475
        15076.5          9.462         72.099         83.214
        15077.0          9.470         72.506         83.728
        15077.5          9.478         72.913         84.243
