###############################################
##         ENVERUS                           ##
##         ESS - Open Hole                   ##
##         PERMIAN / DELAWARE                ##
##         Nov 04 2023  V4.0                 ##
##         42-389-30469-00-00                ##
###############################################
## Copyright 2017-2023  ENVERUS.  All Rights Reserved. 
## Confidential - Property of ENVERUS, use governed by terms and 
## conditions found within the existing Information Services Subscription Agreement 
## (as may be amended, the “ISSA”) between Customer and ENVERUS. 
## 
~VERSION INFORMATION
# MNEM.UNIT                               DATA : DESCRIPTION OF MNEMONIC
#-----.-----     ----------------------------- : -----------------------------
VERS.                                     2.00 : CWLS LOG ASCII STANDARD - VERSION 2.00
WRAP.                                       NO : MULTIPLE LINES PER DEPTH STEP
VEND.                                  ENVERUS : VENDOR
TYPE.                          ESS - OPEN HOLE : ENVERUS ESSENTIAL CURVES – ACCESSIBLE THROUGH ENVERUS PRISM(TM)
DOC.                                  32305858 : ENVERUS HEADER RAW DOCUMENT ID
#___________________________________________________________________________________________________ 
~WELL INFORMATION 
# QLEmRB3tAfi4h2ohjzYx3rsZtS9yBcz1q2joqn0STWfPGhk373gRG/+4vKKA+3S/hWA+0diIcqk9K+n3WoLixw== 
# MNEM.UNIT                                              DATA : DESCRIPTION OF MNEMONIC 
#-----.-----                    ----------------------------- : ----------------------------- 
CNTY.                                                  REEVES : COUNTY 
STATE.                                                  TEXAS : STATE 
CNTRY.                                                    USA : COUNTRY 
API.                                             42-389-30469 : API (10 Digit) 
API_14.                                    42-389-30469-00-00 : API (14 Digits) 
API_14_std.                                 42-389-30469-0000 : API (14 Digits Standard) 
UWI.                                           42389304690000 : UNIQUE WELL ID 
WELL.                                                 WYNNE 1 : WELL NAME
STRT.FT                                                  30.0 : START DEPTH
STOP.FT                                               15871.0 : STOP DEPTH
STEP.FT                                                   0.5 : STEP BETWEEN DEPTHS
NULL.                                                 -999.25 : NULL VALUE
#___________________________________________________________________________________________________ 
~CURVE INFORMATION 
# MNEM.UNIT           : CURVE DESCRIPTION 
#-----.-----          : ----------------------------- 
 DEPT.FT               : MEASURED DEPTH 
 CALI.IN               : CALIPER (CAL - CAL) 
 GR.API                : GAMMA RAY (GR) 
 DT.US/FT              : SONIC DELTA TRANSIT TIME (DT) 
 #___________________________________________________________________________________________________ 
~A         DEPT           CALI             GR             DT
# ...
         7092.0         12.967         12.510         55.446
         7092.5         12.963         11.118         54.749
         7093.0         12.959          9.725         54.052
         7093.5         12.955          8.332         53.532
         7094.0         12.951          6.939         53.741
         7094.5         12.947          7.060         53.951
         7095.0         12.943          7.291         54.161
         7095.5         12.939          7.523         54.371
         7096.0         12.935          7.754         54.580
         7096.5         12.931          7.985         54.790
         7097.0         12.927          8.216         54.682
         7097.5         12.923          8.448         54.149
         7098.0         12.919          8.679         53.616
         7098.5         12.915          8.910         53.082
         7099.0         12.911         24.646         52.549
         7099.5         12.907         42.324         52.015
         7100.0         12.903         60.003         51.482
         7100.5         12.900         77.681         68.797
         7101.0         12.896         94.773         80.271
         7101.5         12.892        111.744         82.915
         7102.0         12.888        110.651         83.431
         7102.5         12.884        104.679         81.879
         7103.0         12.882         98.706         80.327
         7103.5         12.882         92.733         78.775
         7104.0         12.882         86.761         77.223
         7104.5         12.882         80.788         75.670
         7105.0         12.882         74.815         74.947
         7105.5         12.882         68.203         76.163
         7106.0         12.882         61.264         77.379
         7106.5         12.882         54.324         75.310
         7107.0         12.882         47.385         71.311
         7107.5         12.882         40.446         67.313
         7108.0         12.882         33.506         63.315
         7108.5         12.882         26.567         59.317
         7109.0         12.882         32.242         56.589
         7109.5         12.883         53.644         60.985
         7110.0         12.883         75.045         65.382
         7110.5         12.883         93.320         69.778
         7111.0         12.883         98.148         74.174
         7111.5         12.883        102.977         78.571
         7112.0         12.883        107.128         80.930
         7112.5         12.883        103.183         82.247
         7113.0         12.883         99.237         83.564
         7113.5         12.883         95.292         84.881
         7114.0         12.883         91.346         85.404
         7114.5         12.883         95.012         82.649
         7115.0         12.882        101.334         85.996
         7115.5         12.881        107.656         88.564
         7116.0         12.880        113.978         88.718
         7116.5         12.879        120.301         88.873
         7117.0         12.878        120.780         89.028
         7117.5         12.877        112.299         89.183
         7118.0         12.876        103.818         89.338
         7118.5         12.874         95.338         87.279
         7119.0         12.873         94.904         84.136
         7119.5         12.872         97.843         80.992
         7120.0         12.871        100.783         78.424
         7120.5         12.870        103.723         85.297
         7121.0         12.869        103.079         85.551
         7121.5         12.868        101.104         84.029
         7122.0         12.867         99.935         83.433
         7122.5         12.866        102.119         83.940
         7123.0         12.865        104.304         84.448
         7123.5         12.864        106.488         84.955
         7124.0         12.863        108.751         85.462
         7124.5         12.862        111.362         85.969
         7125.0         12.861        109.934         86.931
         7125.5         12.859        105.625         88.429
         7126.0         12.858        101.316         89.927
         7126.5         12.857         97.283         85.055
         7127.0         12.856         95.793         84.777
         7127.5         12.855         94.303         84.500
         7128.0         12.854         92.813         81.372
         7128.5         12.853         91.323         77.034
         7129.0         12.852         62.467         72.696
         7129.5         12.851         61.865         72.606
         7130.0         12.850         61.262         72.661
         7130.5         12.849         60.660         72.716
         7131.0         12.848         60.057         72.771
         7131.5         12.847         59.454         72.826
         7132.0         12.845         58.852         72.881
         7132.5         12.844         58.249         72.936
         7133.0         12.843         57.647         72.991
         7133.5         12.849         57.044         73.046
         7134.0         12.856         56.441         72.470
         7134.5         12.864         55.839         71.690
         7135.0         12.871         54.744         70.909
         7135.5         12.878         48.232         70.129
         7136.0         12.886         44.462         69.348
         7136.5         12.893         47.437         67.434
         7137.0         12.900         50.413         65.456
         7137.5         12.908         49.461         66.092
         7138.0         12.915         48.093         67.897
         7138.5         12.922         46.725         69.701
         7139.0         12.930         45.357         71.505
         7139.5         12.937         43.990         70.603
         7140.0         12.944         42.622         69.651
         7140.5         12.952         41.254         68.699
         7141.0         12.959         39.886         67.747
         7141.5         12.966         38.518         66.795
         7142.0         12.974         37.151         65.843
         7142.5         12.981         31.559         64.891
         7143.0         12.988         25.152         63.755
         7143.5         12.996         18.745         62.586
         7144.0         13.003         15.358         61.416
         7144.5         13.010         20.761         60.247
         7145.0         13.018         26.163         59.078
         7145.5         13.025         31.566         57.908
         7146.0         13.018         39.489         56.739
         7146.5         13.010         51.305         57.715
         7147.0         13.002         63.120         59.157
         7147.5         12.993         74.936         60.599
         7148.0         12.985         85.763         62.041
         7148.5         12.977         85.819         87.526
         7149.0         12.969         85.876         88.115
         7149.5         12.961         85.933         88.627
         7150.0         12.953         85.989         87.673
         7150.5         12.945         86.046         86.718
         7151.0         12.937         86.102         85.763
         7151.5         12.929         86.159         85.957
         7152.0         12.921         85.060         86.334
         7152.5         12.913         83.388         86.711
         7153.0         12.905         81.715         87.088
         7153.5         12.897         80.043         87.465
         7154.0         12.889         78.371         86.521
         7154.5         12.880         76.699         85.143
         7155.0         12.872         75.026         83.765
         7155.5         12.864         74.847         82.386
         7156.0         12.856         74.775         81.470
         7156.5         12.848         74.703         80.633
         7157.0         12.840         74.631         79.797
         7157.5         12.832         74.559         78.960
