###############################################
##         ENVERUS                           ##
##         ESS - Open Hole                   ##
##         PERMIAN / DELAWARE                ##
##         Nov 04 2023  V4.0                 ##
##         42-389-30469-00-00                ##
###############################################
## Copyright 2017-2023  ENVERUS.  All Rights Reserved. 
## Confidential - Property of ENVERUS, use governed by terms and 
## conditions found within the existing Information Services Subscription Agreement 
## (as may be amended, the “ISSA”) between Customer and ENVERUS. 
## 
~VERSION INFORMATION
# MNEM.UNIT                               DATA : DESCRIPTION OF MNEMONIC
#-----.-----     ----------------------------- : -----------------------------
VERS.                                     2.00 : CWLS LOG ASCII STANDARD - VERSION 2.00
WRAP.                                       NO : MULTIPLE LINES PER DEPTH STEP
VEND.                                  ENVERUS : VENDOR
TYPE.                          ESS - OPEN HOLE : ENVERUS ESSENTIAL CURVES – ACCESSIBLE THROUGH ENVERUS PRISM(TM)
DOC.                                  32305858 : ENVERUS HEADER RAW DOCUMENT ID
#___________________________________________________________________________________________________ 
~WELL INFORMATION 
# QLEmRB3tAfi4h2ohjzYx3rsZtS9yBcz1q2joqn0STWfPGhk373gRG/+4vKKA+3S/hWA+0diIcqk9K+n3WoLixw== 
# MNEM.UNIT                                              DATA : DESCRIPTION OF MNEMONIC 
#-----.-----                    ----------------------------- : ----------------------------- 
CNTY.                                                  REEVES : COUNTY 
STATE.                                                  TEXAS : STATE 
CNTRY.                                                    USA : COUNTRY 
API.                                             42-389-30469 : API (10 Digit) 
API_14.                                    42-389-30469-00-00 : API (14 Digits) 
API_14_std.                                 42-389-30469-0000 : API (14 Digits Standard) 
UWI.                                           42389304690000 : UNIQUE WELL ID 
WELL.                                                 WYNNE 1 : WELL NAME
STRT.FT                                                  30.0 : START DEPTH
STOP.FT                                               15871.0 : STOP DEPTH
STEP.FT                                                   0.5 : STEP BETWEEN DEPTHS
NULL.                                                 -999.25 : NULL VALUE
#___________________________________________________________________________________________________ 
~CURVE INFORMATION 
# MNEM.UNIT           : CURVE DESCRIPTION 
#-----.-----          : ----------------------------- 
 DEPT.FT               : MEASURED DEPTH 
 CALI.IN               : CALIPER (CAL - CAL) 
 GR.API                : GAMMA RAY (GR) 
 DT.US/FT              : SONIC DELTA TRANSIT TIME (DT) 
 #___________________________________________________________________________________________________ 
~A         DEPT           CALI             GR             DT
# ...
         6300.0         13.541         63.688         64.063
         6300.5         13.532         59.677         64.197
         6301.0         13.523         55.667         64.331
         6301.5         13.514         51.657         64.466
         6302.0         13.506         47.647         64.603
         6302.5         13.497         43.636         64.766
         6303.0         13.488         47.579         64.928
         6303.5         13.480         55.227         65.090
         6304.0         13.471         62.875         65.252
         6304.5         13.462         70.523         65.414
         6305.0         13.454         76.811         65.577
         6305.5         13.445         70.476         65.739
         6306.0         13.436         64.141         65.901
         6306.5         13.427         57.806         66.063
         6307.0         13.419         51.470         65.665
         6307.5         13.410         45.135         65.061
         6308.0         13.405         38.800         64.739
         6308.5         13.404         38.379         64.888
         6309.0         13.403         38.582         65.037
         6309.5         13.401         38.785         65.186
         6310.0         13.400         38.989         65.122
         6310.5         13.399         39.192         65.051
         6311.0         13.398         39.395         64.980
         6311.5         13.396         39.598         64.908
         6312.0         13.395         39.802         64.837
         6312.5         13.394         39.337         64.765
         6313.0         13.393         38.535         64.694
         6313.5         13.392         37.734         64.622
         6314.0         13.390         36.933         64.551
         6314.5         13.389         38.626         64.480
         6315.0         13.388         42.795         64.741
         6315.5         13.387         46.964         65.008
         6316.0         13.367         51.133         65.275
         6316.5         13.330         55.301         65.542
         6317.0         13.293         59.470         65.809
         6317.5         13.257         63.639         66.076
         6318.0         13.220         67.808         66.344
         6318.5         13.183         72.340         66.611
         6319.0         13.147         77.122         66.878
         6319.5         13.110         81.904         65.027
         6320.0         13.073         86.686         60.806
         6320.5         13.037         85.655         60.256
         6321.0         13.000         81.661         60.854
         6321.5         12.963         77.668         61.452
         6322.0         12.927         77.450         62.050
         6322.5         12.890         91.129         62.648
         6323.0         12.853        104.809         63.246
         6323.5         12.817        118.489         63.711
         6324.0         12.782        125.544         64.029
         6324.5         12.812        128.412         64.346
         6325.0         12.842        131.280         64.663
         6325.5         12.871        134.148         64.981
         6326.0         12.901        137.016         65.298
         6326.5         12.931        136.064         65.492
         6327.0         12.961        134.208         65.492
         6327.5         12.991        132.351         65.492
         6328.0         13.021        130.494         65.474
         6328.5         13.051        128.637         64.942
         6329.0         13.080        126.780         64.410
         6329.5         13.110         54.196         63.878
         6330.0         13.140         47.524         63.346
         6330.5         13.170         40.852         62.814
         6331.0         13.200         38.795         62.582
         6331.5         13.230         41.714         62.662
         6332.0         13.260         44.633         62.742
         6332.5         13.287         47.553         62.822
         6333.0         13.288         50.472         62.902
         6333.5         13.290         53.391         62.435
         6334.0         13.291         56.310         61.195
         6334.5         13.292         59.229         61.499
         6335.0         13.294         59.893         61.904
         6335.5         13.295         58.035         62.309
         6336.0         13.297         56.177         62.715
         6336.5         13.298         54.640         63.120
         6337.0         13.300         55.885         63.525
         6337.5         13.301         57.130         63.930
         6338.0         13.303         58.374         64.335
         6338.5         13.304         59.619         64.615
         6339.0         13.305         60.864         64.236
         6339.5         13.307         74.326         63.857
         6340.0         13.308         76.919         63.478
         6340.5         13.310         71.414         63.219
         6341.0         13.311         65.908         63.723
         6341.5         13.313         60.403         64.226
         6342.0         13.314         54.897         64.730
         6342.5         13.316         49.391         65.234
         6343.0         13.317         49.324         64.411
         6343.5         13.318         52.280         63.012
         6344.0         13.320         55.235         62.713
         6344.5         13.321         58.191         63.443
         6345.0         13.323         61.146         64.174
         6345.5         13.324         50.961         64.904
         6346.0         13.326         38.271         65.634
         6346.5         13.327         41.266         66.364
         6347.0         13.321         45.400         67.094
         6347.5         13.300         49.535         67.824
         6348.0         13.287         53.669         68.554
         6348.5         13.274         54.663         69.284
         6349.0         13.261         41.972         68.584
         6349.5         13.248         33.751         66.410
         6350.0         13.236         37.066         64.235
         6350.5         13.223         40.381         62.061
         6351.0         13.210         43.696         60.958
         6351.5         13.197         47.011         61.308
         6352.0         13.185         50.327         61.657
         6352.5         13.172         53.642         62.007
         6353.0         13.159         56.372         62.357
         6353.5         13.146         53.912         62.707
         6354.0         13.133         51.452         62.985
         6354.5         13.121         48.992         63.112
         6355.0         13.108         46.532         63.239
         6355.5         13.095         55.587         63.367
         6356.0         13.082         66.503         63.494
         6356.5         13.070         77.419         63.622
         6357.0         13.057         88.335         63.749
         6357.5         13.045         93.465         63.877
         6358.0         13.037         90.765         64.004
         6358.5         13.030         88.066         64.131
         6359.0         13.022         87.427         64.259
         6359.5         13.014        125.140         64.386
         6360.0         13.006        131.638         64.514
         6360.5         12.999        132.109         63.350
         6361.0         12.991        115.665         64.024
         6361.5         12.983         96.910         64.698
         6362.0         12.975         82.704         65.130
         6362.5         12.968         85.596         64.046
         6363.0         12.960         88.488         62.963
         6363.5         12.952         91.380         62.088
         6364.0         12.944         94.273         62.549
         6364.5         12.937         97.165         63.010
         6365.0         12.929        100.057         63.471
         6365.5         12.921        102.950         63.932
