###############################################
##         ENVERUS                           ##
##         ESS - Open Hole                   ##
##         PERMIAN / DELAWARE                ##
##         Nov 04 2023  V4.0                 ##
##         42-389-30469-00-00                ##
###############################################
## Copyright 2017-2023  ENVERUS.  All Rights Reserved. 
## Confidential - Property of ENVERUS, use governed by terms and 
## conditions found within the existing Information Services Subscription Agreement 
## (as may be amended, the “ISSA”) between Customer and ENVERUS. 
## 
~VERSION INFORMATION
# MNEM.UNIT                               DATA : DESCRIPTION OF MNEMONIC
#-----.-----     ----------------------------- : -----------------------------
VERS.                                     2.00 : CWLS LOG ASCII STANDARD - VERSION 2.00
WRAP.                                       NO : MULTIPLE LINES PER DEPTH STEP
VEND.                                  ENVERUS : VENDOR
TYPE.                          ESS - OPEN HOLE : ENVERUS ESSENTIAL CURVES – ACCESSIBLE THROUGH ENVERUS PRISM(TM)
DOC.                                  32305858 : ENVERUS HEADER RAW DOCUMENT ID
#___________________________________________________________________________________________________ 
~WELL INFORMATION 
# QLEmRB3tAfi4h2ohjzYx3rsZtS9yBcz1q2joqn0STWfPGhk373gRG/+4vKKA+3S/hWA+0diIcqk9K+n3WoLixw== 
# MNEM.UNIT                                              DATA : DESCRIPTION OF MNEMONIC 
#-----.-----                    ----------------------------- : ----------------------------- 
CNTY.                                                  REEVES : COUNTY 
STATE.                                                  TEXAS : STATE 
CNTRY.                                                    USA : COUNTRY 
API.                                             42-389-30469 : API (10 Digit) 
API_14.                                    42-389-30469-00-00 : API (14 Digits) 
API_14_std.                                 42-389-30469-0000 : API (14 Digits Standard) 
UWI.                                           42389304690000 : UNIQUE WELL ID 
WELL.                                                 WYNNE 1 : WELL NAME
STRT.FT                                                  30.0 : START DEPTH
STOP.FT                                               15871.0 : STOP DEPTH
STEP.FT                                                   0.5 : STEP BETWEEN DEPTHS
NULL.                                                 -999.25 : NULL VALUE
#___________________________________________________________________________________________________ 
~CURVE INFORMATION 
# MNEM.UNIT           : CURVE DESCRIPTION 
#-----.-----          : ----------------------------- 
 DEPT.FT               : MEASURED DEPTH 
 CALI.IN               : CALIPER (CAL - CAL) 
 GR.API                : GAMMA RAY (GR) 
 DT.US/FT              : SONIC DELTA TRANSIT TIME (DT) 
 #___________________________________________________________________________________________________ 
~A         DEPT           CALI             GR             DT
# ...
        15804.0          7.744         16.165       -999.250
        15804.5          7.780         16.909       -999.250
        15805.0          7.778         17.653       -999.250
        15805.5          7.737         17.132       -999.250
        15806.0          7.715         15.742       -999.250
        15806.5          7.762         14.352       -999.250
        15807.0          7.810         14.102       -999.250
        15807.5          7.857         14.564       -999.250
        15808.0          7.883         15.025       -999.250
        15808.5          7.847         15.487       -999.250
        15809.0          7.811         15.948       -999.250
        15809.5          7.775         13.369       -999.250
        15810.0          7.739         12.514       -999.250
        15810.5          7.736         13.091       -999.250
        15811.0          7.748         13.668       -999.250
        15811.5          7.759         14.246       -999.250
        15812.0          7.770         14.823       -999.250
        15812.5          7.781         15.400       -999.250
        15813.0          7.793         15.977       -999.250
        15813.5          7.780         16.555       -999.250
        15814.0          7.739         17.132       -999.250
        15814.5          7.698         17.709       -999.250
        15815.0          7.657         17.643       -999.250
        15815.5          7.616         16.890       -999.250
        15816.0          7.605         16.137       -999.250
        15816.5          7.597         15.384       -999.250
        15817.0          7.590         14.631       -999.250
        15817.5          7.582         13.878       -999.250
        15818.0          7.575         14.543       -999.250
        15818.5          7.567         16.128       -999.250
        15819.0          7.559         15.556       -999.250
        15819.5          7.552         14.803       -999.250
        15820.0          7.544         14.050       -999.250
        15820.5          7.537         13.297       -999.250
        15821.0          7.529         12.971       -999.250
        15821.5          7.521         14.151       -999.250
        15822.0          7.514         15.331       -999.250
        15822.5          7.506         16.510       -999.250
        15823.0          7.499         17.690       -999.250
        15823.5          7.520         17.409       -999.250
        15824.0          7.566         16.479       -999.250
        15824.5          7.613         15.550       -999.250
        15825.0          7.660         14.620       -999.250
        15825.5          7.702         14.606       -999.250
        15826.0          7.546         15.299       -999.250
        15826.5          7.555         15.993       -999.250
        15827.0          7.564         16.687       -999.250
        15827.5          7.573         17.381       -999.250
        15828.0          7.583         17.472       -999.250
        15828.5          7.538         16.738       -999.250
        15829.0          7.376         16.004       -999.250
        15829.5          7.215         15.270       -999.250
        15830.0          7.133         14.536       -999.250
        15830.5          7.160         13.802       -999.250
        15831.0          7.188         13.068       -999.250
        15831.5          7.215         12.334       -999.250
        15832.0          7.243         12.807       -999.250
        15832.5          7.257         13.613       -999.250
        15833.0          7.242         14.419       -999.250
        15833.5          7.227         15.224       -999.250
        15834.0          7.212         16.030       -999.250
        15834.5          7.197         16.836       -999.250
        15835.0          7.182         16.745       -999.250
        15835.5          7.166         15.806       -999.250
        15836.0          7.121         14.867       -999.250
        15836.5          7.076         13.929       -999.250
        15837.0          7.031         12.990       -999.250
        15837.5          6.986         13.735       -999.250
        15838.0          6.941         14.914       -999.250
        15838.5          6.915         14.837       -999.250
        15839.0          6.928         13.640       -999.250
        15839.5          6.940         12.444       -999.250
        15840.0          6.953         11.931       -999.250
        15840.5          6.965         11.943       -999.250
        15841.0          6.977         11.954       -999.250
        15841.5          6.961         11.966       -999.250
        15842.0          6.930         11.978       -999.250
        15842.5          6.899         11.990       -999.250
        15843.0          6.869         12.002       -999.250
        15843.5          6.838         12.014       -999.250
        15844.0          6.807         12.026       -999.250
        15844.5          6.776         12.038       -999.250
        15845.0          6.785         12.050       -999.250
        15845.5          6.801         12.062       -999.250
        15846.0          6.818         12.074       -999.250
        15846.5          6.834         12.086       -999.250
        15847.0          6.851         12.097       -999.250
        15847.5          6.867         12.109       -999.250
        15848.0          6.884         12.121       -999.250
        15848.5          6.901         12.133       -999.250
        15849.0          6.911         12.145       -999.250
        15849.5          6.908         12.157       -999.250
        15850.0          6.905         12.169       -999.250
        15850.5          6.902         12.181       -999.250
        15851.0          6.899         12.193       -999.250
        15851.5          6.896         12.205       -999.250
        15852.0          6.893         12.217       -999.250
        15852.5          6.890         12.229       -999.250
        15853.0          6.875         12.240       -999.250
        15853.5          6.840         12.252       -999.250
        15854.0          6.804         12.264       -999.250
        15854.5          6.768         12.276       -999.250
        15855.0          6.732         12.288       -999.250
        15855.5          6.725         12.300       -999.250
        15856.0          6.725         12.312       -999.250
        15856.5          6.725         12.324       -999.250
        15857.0          6.725         12.336       -999.250
        15857.5          6.725         12.348       -999.250
        15858.0          6.725         12.360       -999.250
        15858.5          6.725         12.371       -999.250
        15859.0          6.725         12.383       -999.250
        15859.5          6.725         12.395       -999.250
        15860.0          6.725         12.407       -999.250
        15860.5          6.725         12.419       -999.250
        15861.0          6.725         12.431       -999.250
        15861.5          6.725         12.443       -999.250
        15862.0          6.726         12.455       -999.250
        15862.5          6.726         12.467       -999.250
        15863.0          6.726         12.479       -999.250
        15863.5          6.726         12.491       -999.250
        15864.0          6.726         12.503       -999.250
        15864.5          6.726         12.514       -999.250
        15865.0          6.726         12.526       -999.250
        15865.5          6.726         12.538       -999.250
        15866.0          6.726         12.550       -999.250
        15866.5          6.726         12.562       -999.250
        15867.0          6.726         12.574       -999.250
        15867.5          6.726         12.586       -999.250
        15868.0          6.726         12.598       -999.250
        15868.5          6.726         12.610       -999.250
        15869.0          6.726         12.622       -999.250
        15869.5          6.726         12.634       -999.250
