###############################################
##         ENVERUS                           ##
##         ESS - Open Hole                   ##
##         PERMIAN / DELAWARE                ##
##         Nov 04 2023  V4.0                 ##
##         42-389-30469-00-00                ##
###############################################
## Copyright 2017-2023  ENVERUS.  All Rights Reserved. 
## Confidential - Property of ENVERUS, use governed by terms and 
## conditions found within the existing Information Services Subscription Agreement 
## (as may be amended, the “ISSA”) between Customer and ENVERUS. 
## 
~VERSION INFORMATION
# MNEM.UNIT                               DATA : DESCRIPTION OF MNEMONIC
#-----.-----     ----------------------------- : -----------------------------
VERS.                                     2.00 : CWLS LOG ASCII STANDARD - VERSION 2.00
WRAP.                                       NO : MULTIPLE LINES PER DEPTH STEP
VEND.                                  ENVERUS : VENDOR
TYPE.                          ESS - OPEN HOLE : ENVERUS ESSENTIAL CURVES – ACCESSIBLE THROUGH ENVERUS PRISM(TM)
DOC.                                  32305858 : ENVERUS HEADER RAW DOCUMENT ID
#___________________________________________________________________________________________________ 
~WELL INFORMATION 
# QLEmRB3tAfi4h2ohjzYx3rsZtS9yBcz1q2joqn0STWfPGhk373gRG/+4vKKA+3S/hWA+0diIcqk9K+n3WoLixw== 
# MNEM.UNIT                                              DATA : DESCRIPTION OF MNEMONIC 
#-----.-----                    ----------------------------- : ----------------------------- 
CNTY.                                                  REEVES : COUNTY 
STATE.                                                  TEXAS : STATE 
CNTRY.                                                    USA : COUNTRY 
API.                                             42-389-30469 : API (10 Digit) 
API_14.                                    42-389-30469-00-00 : API (14 Digits) 
API_14_std.                                 42-389-30469-0000 : API (14 Digits Standard) 
UWI.                                           42389304690000 : UNIQUE WELL ID 
WELL.                                                 WYNNE 1 : WELL NAME
STRT.FT                                                  30.0 : START DEPTH
STOP.FT                                               15871.0 : STOP DEPTH
STEP.FT                                                   0.5 : STEP BETWEEN DEPTHS
NULL.                                                 -999.25 : NULL VALUE
#___________________________________________________________________________________________________ 
~CURVE INFORMATION 
# MNEM.UNIT           : CURVE DESCRIPTION 
#-----.-----          : ----------------------------- 
 DEPT.FT               : MEASURED DEPTH 
 CALI.IN               : CALIPER (CAL - CAL) 
 GR.API                : GAMMA RAY (GR) 
 DT.US/FT              : SONIC DELTA TRANSIT TIME (DT) 
 #___________________________________________________________________________________________________ 
~A         DEPT           CALI             GR             DT
# ...
         4716.0         13.532        100.385         65.472
         4716.5         13.496        105.925         65.696
         4717.0         13.461        112.404         65.920
         4717.5         13.425        118.884         68.253
         4718.0         13.390        126.890         71.056
         4718.5         13.354        141.538         69.170
         4719.0         13.356        139.435         66.277
         4719.5         13.385        131.180         63.383
         4720.0         13.414        112.597         60.490
         4720.5         13.443         55.057         60.796
         4721.0         13.472         47.007         63.492
         4721.5         13.501         38.958         66.188
         4722.0         13.531         30.920         68.884
         4722.5         13.560         32.266         70.074
         4723.0         13.589         33.613         70.315
         4723.5         13.618         34.959         70.557
         4724.0         13.647         36.305         70.798
         4724.5         13.676         37.651         71.039
         4725.0         13.702         38.998         71.280
         4725.5         13.714         40.344         71.071
         4726.0         13.726         41.690         70.682
         4726.5         13.738         40.099         70.293
         4727.0         13.750         38.288         69.903
         4727.5         13.762         36.477         69.514
         4728.0         13.774         34.666         69.124
         4728.5         13.786         35.299         68.735
         4729.0         13.798         36.646         68.743
         4729.5         13.810         37.992         69.334
         4730.0         13.822         39.338         69.924
         4730.5         13.833         37.934         70.515
         4731.0         13.845         35.557         71.002
         4731.5         13.857         33.180         70.576
         4732.0         13.855         32.932         70.150
         4732.5         13.849         35.935         69.723
         4733.0         13.843         38.939         69.297
         4733.5         13.838         41.942         68.871
         4734.0         13.832         44.945         68.444
         4734.5         13.826         47.948         68.018
         4735.0         13.821         47.314         67.591
         4735.5         13.815         45.925         67.994
         4736.0         13.809         44.535         68.400
         4736.5         13.804         42.073         68.807
         4737.0         13.798         38.607         69.213
         4737.5         13.792         35.141         67.611
         4738.0         13.787         31.985         65.308
         4738.5         13.781         30.756         63.004
         4739.0         13.775         29.528         61.036
         4739.5         13.770         28.299         63.020
         4740.0         13.764         27.071         65.004
         4740.5         13.758         25.843         66.988
         4741.0         13.751         26.439         68.972
         4741.5         13.743         30.416         70.955
         4742.0         13.735         34.392         72.312
         4742.5         13.727         38.369         72.874
         4743.0         13.720         42.346         73.436
         4743.5         13.712         46.323         73.992
         4744.0         13.704         50.299         73.331
         4744.5         13.697         54.276         72.671
         4745.0         13.689         58.253         72.010
         4745.5         13.681         62.230         71.349
         4746.0         13.673         61.452         70.689
         4746.5         13.666         60.088         70.028
         4747.0         13.658         58.724         69.367
         4747.5         13.650         57.360         68.708
         4748.0         13.642         55.995         68.376
         4748.5         13.635         54.631         68.044
         4749.0         13.627         53.267         68.376
         4749.5         13.619         51.903         69.236
         4750.0         13.611         75.384         70.096
         4750.5         13.604         93.331         70.957
         4751.0         13.596        111.279         71.419
         4751.5         13.588        108.376         70.123
         4752.0         13.581        102.911         68.828
         4752.5         13.573         97.446         67.532
         4753.0         13.565         91.981         66.237
         4753.5         13.557         86.516         64.941
         4754.0         13.550         81.051         65.112
         4754.5         13.542         75.586         65.719
         4755.0         13.541         71.015         66.327
         4755.5         13.557         71.015         66.934
         4756.0         13.573         71.014         67.541
         4756.5         13.589         71.014         68.149
         4757.0         13.605         65.182         67.649
         4757.5         13.621         58.660         66.768
         4758.0         13.637         52.137         65.887
         4758.5         13.653         45.614         65.007
         4759.0         13.669         39.092         64.126
         4759.5         13.685         32.569         63.306
         4760.0         13.701         32.028         62.725
         4760.5         13.717         32.939         62.144
         4761.0         13.733         33.851         61.563
         4761.5         13.749         34.763         61.517
         4762.0         13.765         35.675         63.898
         4762.5         13.781         36.587         66.278
         4763.0         13.797         37.499         68.659
         4763.5         13.813         38.411         70.218
         4764.0         13.829         39.323         70.162
         4764.5         13.845         40.235         70.107
         4765.0         13.861         40.667         70.051
         4765.5         13.877         39.779         69.995
         4766.0         13.893         38.891         69.940
         4766.5         13.909         38.003         69.884
         4767.0         13.920         40.708         69.828
         4767.5         13.926         43.528         69.773
         4768.0         13.932         46.347         70.026
         4768.5         13.939         49.167         71.356
         4769.0         13.945         51.987         72.686
         4769.5         13.951         54.806         74.015
         4770.0         13.957         51.752         74.559
         4770.5         13.964         44.704         74.641
         4771.0         13.970         37.655         74.722
         4771.5         13.976         31.329         74.803
         4772.0         13.983         31.842         74.884
         4772.5         13.989         32.355         74.890
         4773.0         13.995         32.868         74.849
         4773.5         14.001         33.381         74.728
         4774.0         14.008         33.895         74.085
         4774.5         14.014         34.408         73.442
         4775.0         14.008         34.921         72.798
         4775.5         13.996         39.173         72.155
         4776.0         13.985         44.539         71.512
         4776.5         13.973         49.906         70.869
         4777.0         13.961         55.272         70.225
         4777.5         13.949         60.638         69.582
         4778.0         13.938         65.998         68.939
         4778.5         13.926         71.359         68.296
         4779.0         13.914         70.123         68.250
         4779.5         13.902         66.777         68.458
         4780.0         13.890         63.430         68.665
         4780.5         13.879         60.084         68.872
         4781.0         13.867         56.738         69.080
         4781.5         13.855         53.391         69.287
