###############################################
##         ENVERUS                           ##
##         Petrophysical Curves              ##
##         PERMIAN / DELAWARE                ##
##         Jan 21 2022                       ##
##         42-389-30261-00-00                ##
###############################################
## Copyright 2017-2022  ENVERUS.  All Rights Reserved. 
## Confidential - Property of ENVERUS, use governed by terms and 
## conditions found within the existing Information Services Subscription Agreement 
## (as may be amended, the “ISSA”) between Customer and ENVERUS. 
## 
~VERSION INFORMATION
# MNEM.UNIT                               DATA : DESCRIPTION OF MNEMONIC
#-----.-----     ----------------------------- : -----------------------------
VERS.                                     2.00 : CWLS LOG ASCII STANDARD - VERSION 2.00
WRAP.                                       NO : MULTIPLE LINES PER DEPTH STEP
VEND.                                  ENVERUS : VENDOR
TYPE.                     PETROPHYSICAL CURVES : ENVERUS PETROPHYSICAL CURVES - ACCESSIBLE THROUGH ENVERUS CORE(TM)
#___________________________________________________________________________________________________ 
~WELL INFORMATION 
# uyaQ8P8kQDJ9DXFS5hR1PxmExEOYaAUkY5f3/tnOS+scoPAUWgXA1zCIHGRbWCuSuUcwDzaESCjqjWQ81XhadA== 
# MNEM.UNIT                                              DATA : DESCRIPTION OF MNEMONIC 
#-----.-----                    ----------------------------- : ----------------------------- 
CNTY.                                                  REEVES : COUNTY 
STATE.                                                  TEXAS : STATE 
CNTRY.                                                    USA : COUNTRY 
API.                                             42-389-30261 : API (10 Digit) 
API_14.                                    42-389-30261-00-00 : API (14 Digits) 
API_14_std.                                 42-389-30261-0000 : API (14 Digits Standard) 
UWI.                                           42389302610000 : UNIQUE WELL ID
STRT.FT                                                 202.0 : START DEPTH
STOP.FT                                               18968.0 : STOP DEPTH
STEP.FT                                                   0.5 : STEP BETWEEN DEPTHS
NULL.                                                 -999.25 : NULL VALUE
COMP.                                                      BP : COMPANY 
WELL.                                                TXL-39 1 : WELL NAME 
FLD.                                            CHAPMAN  DEEP : FIELD NAME
#___________________________________________________________________________________________________ 
~CURVE INFORMATION 
#    Zone Description
#          1 = Upper Avalon
#          2 = Middle Avalon
#          3 = Lower Avalon
#          4 = 1st Bone Spring
#          5 = 2nd Bone Spring
#          6 = 2nd Bone Spring Sand
#          7 = 3rd Bone Spring
#          8 = 3rd Bone Spring Sand
#          9 = Wolfcamp XY
#          10 = Wolfcamp A Upper
#          11 = Wolfcamp A Lower
#          12 = Wolfcamp B Upper
#          13 = Wolfcamp B Lower
#          14 = Wolfcamp C
#          15 = Wolfcamp D
#          16 = Pennsylvanian Shale
#          17 = Lower Pennsylvanian Shale
#          18 = Barnett
#          19 = Barnett Lower
#          20 = Mississippian Lime
#          21 = Woodford
#          22 = Base Woodford 
# MNEM.UNIT           : CURVE DESCRIPTION 
#-----.-----          : ----------------------------- 
 DEPT.FT               : MEASURED DEPTH 
 TVD_I.FT              : ENVERUS TRUE VERTICAL DEPTH 
 ZONE_I.               : ENVERUS DEFINED ZONE CODE 
 GR_N_I.API            : ENVERUS NORMALIZED GAMMA RAY LEVERAGED IN GEOLOGICAL MODELLING 
 RESD_I.OHMM           : ENVERUS DEEP RESISTIVITY LEVERAGED IN GEOLOGICAL MODELLING 
 TEMP_I.DEGF           : ENVERUS INTERPRETED TEMPERATURE DERIVED FROM BOTTOM HOLE TEMPERATURES 
 #___________________________________________________________________________________________________ 
~A         DEPT          TVD_I         ZONE_I         GR_N_I         RESD_I         TEMP_I
# ...
        15206.0      15206.000          19.00         71.932      -999.2500        256.940
        15206.5      15206.501          19.00         71.434      -999.2500        256.946
        15207.0      15207.001          19.00         70.593      -999.2500        256.952
        15207.5      15207.500          19.00         69.753      -999.2500        256.959
        15208.0      15208.000          19.00         68.890      -999.2500        256.965
        15208.5      15208.500          19.00         66.731      -999.2500        256.972
        15209.0      15208.999          19.00         64.571      -999.2500        256.978
        15209.5      15209.499          19.00         64.659      -999.2500        256.984
        15210.0      15209.999          19.00         66.788      -999.2500        256.991
        15210.5      15210.499          19.00         68.917      -999.2500        256.997
        15211.0      15211.001          19.00         71.046      -999.2500        257.003
        15211.5      15211.501          19.00         74.420      -999.2500        257.010
        15212.0      15212.000          19.00         71.608      -999.2500        257.016
        15212.5      15212.500          19.00         68.061      -999.2500        257.023
        15213.0      15213.000          19.00         64.513      -999.2500        257.029
        15213.5      15213.500          19.00         61.677      -999.2500        257.035
        15214.0      15213.999          19.00         60.972      -999.2500        257.042
        15214.5      15214.499          19.00         60.268      -999.2500        257.048
        15215.0      15215.000          19.00         58.871      -999.2500        257.054
        15215.5      15215.500          19.00         57.318      -999.2500        257.061
        15216.0      15216.000          19.00         55.765      -999.2500        257.067
        15216.5      15216.500          19.00         54.212      -999.2500        257.074
        15217.0      15217.000          19.00         53.959      -999.2500        257.080
        15217.5      15217.500          19.00         57.828      -999.2500        257.086
        15218.0      15218.000          19.00         61.696      -999.2500        257.093
        15218.5      15218.499          19.00         65.564      -999.2500        257.099
        15219.0      15218.999          19.00         66.604      -999.2500        257.106
        15219.5      15219.501          19.00         67.641      -999.2500        257.112
        15220.0      15220.001          19.00         68.677      -999.2500        257.118
        15220.5      15220.501          19.00         69.714      -999.2500        257.125
        15221.0      15221.000          19.00         71.169      -999.2500        257.131
        15221.5      15221.500          19.00         72.896      -999.2500        257.137
        15222.0      15222.000          19.00         74.623      -999.2500        257.144
        15222.5      15222.499          19.00         76.350      -999.2500        257.150
        15223.0      15222.999          19.00         78.077      -999.2500        257.157
        15223.5      15223.499          19.00         79.670      -999.2500        257.163
        15224.0      15224.000          19.00         79.452      -999.2500        257.169
        15224.5      15224.500          19.00         78.004      -999.2500        257.176
        15225.0      15225.000          19.00         76.556      -999.2500        257.182
        15225.5      15225.500          19.00         75.109      -999.2500        257.188
        15226.0      15226.000          19.00         74.214      -999.2500        257.195
        15226.5      15226.500          19.00         73.536      -999.2500        257.201
        15227.0      15227.000          19.00         72.857      -999.2500        257.208
        15227.5      15227.499          19.00         72.690      -999.2500        257.214
        15228.0      15228.001          19.00         74.108      -999.2500        257.220
        15228.5      15228.501          19.00         75.525      -999.2500        257.227
        15229.0      15229.001          19.00         76.943      -999.2500        257.233
        15229.5      15229.501          19.00         79.090      -999.2500        257.239
        15230.0      15230.000          19.00         81.333      -999.2500        257.246
        15230.5      15230.500          19.00         83.577      -999.2500        257.252
        15231.0      15230.999          19.00         85.821      -999.2500        257.259
        15231.5      15231.499          19.00         88.064      -999.2500        257.265
        15232.0      15231.999          19.00         86.737      -999.2500        257.271
        15232.5      15232.500          19.00         82.808      -999.2500        257.278
        15233.0      15233.000          19.00         80.706      -999.2500        257.284
        15233.5      15233.500          19.00         81.559      -999.2500        257.290
        15234.0      15234.000          19.00         80.964      -999.2500        257.297
        15234.5      15234.500          19.00         77.632      -999.2500        257.303
        15235.0      15235.000          19.00         74.299      -999.2500        257.310
        15235.5      15235.500          19.00         70.967      -999.2500        257.316
        15236.0      15236.000          19.00         73.089      -999.2500        257.322
        15236.5      15236.499          19.00         77.301      -999.2500        257.329
        15237.0      15237.001          19.00         81.514      -999.2500        257.335
        15237.5      15237.501          19.00         87.133      -999.2500        257.341
        15238.0      15238.001          19.00         92.782      -999.2500        257.348
        15238.5      15238.500          19.00         94.291      -999.2500        257.354
        15239.0      15239.000          19.00         94.535      -999.2500        257.361
        15239.5      15239.499          19.00         93.919      -999.2500        257.367
        15240.0      15239.999          19.00         93.323      -999.2500        257.373
        15240.5      15240.499          19.00         92.828      -999.2500        257.380
        15241.0      15241.001          19.00         90.577      -999.2500        257.386
        15241.5      15241.500          19.00         86.060      -999.2500        257.393
        15242.0      15242.000          19.00         81.543      -999.2500        257.399
        15242.5      15242.500          19.00         77.026      -999.2500        257.405
        15243.0      15243.000          19.00         72.509      -999.2500        257.412
        15243.5      15243.500          19.00         72.570      -999.2500        257.418
        15244.0      15244.000          19.00         72.653      -999.2500        257.424
        15244.5      15244.500          19.00         74.220      -999.2500        257.431
        15245.0      15245.000          19.00         80.182      -999.2500        257.437
        15245.5      15245.501          19.00         86.297      -999.2500        257.444
        15246.0      15246.001          19.00         92.671      -999.2500        257.450
        15246.5      15246.501          19.00         90.490      -999.2500        257.456
        15247.0      15247.000          19.00         79.847      -999.2500        257.463
        15247.5      15247.500          19.00         69.204      -999.2500        257.469
        15248.0      15247.999          19.00         53.410      -999.2500        257.475
        15248.5      15248.499          19.00         28.859      -999.2500        257.482
        15249.0      15248.999          19.00         23.216      -999.2500        257.488
        15249.5      15249.499          19.00         19.161      -999.2500        257.495
