###############################################
##         ENVERUS                           ##
##         Petrophysical Curves              ##
##         PERMIAN / DELAWARE                ##
##         Jan 21 2022                       ##
##         42-371-36857-00-00                ##
###############################################
## Copyright 2017-2022  ENVERUS.  All Rights Reserved. 
## Confidential - Property of ENVERUS, use governed by terms and 
## conditions found within the existing Information Services Subscription Agreement 
## (as may be amended, the “ISSA”) between Customer and ENVERUS. 
## 
~VERSION INFORMATION
# MNEM.UNIT                               DATA : DESCRIPTION OF MNEMONIC
#-----.-----     ----------------------------- : -----------------------------
VERS.                                     2.00 : CWLS LOG ASCII STANDARD - VERSION 2.00
WRAP.                                       NO : MULTIPLE LINES PER DEPTH STEP
VEND.                                  ENVERUS : VENDOR
TYPE.                     PETROPHYSICAL CURVES : ENVERUS PETROPHYSICAL CURVES - ACCESSIBLE THROUGH ENVERUS CORE(TM)
#___________________________________________________________________________________________________ 
~WELL INFORMATION 
# uyaQ8P8kQDJ9DXFS5hR1PxmExEOYaAUkY5f3/tnOS+scoPAUWgXA1zCIHGRbWCuSuUcwDzaESCjqjWQ81XhadA== 
# MNEM.UNIT                                              DATA : DESCRIPTION OF MNEMONIC 
#-----.-----                    ----------------------------- : ----------------------------- 
CNTY.                                                   PECOS : COUNTY 
STATE.                                                  TEXAS : STATE 
CNTRY.                                                    USA : COUNTRY 
API.                                             42-371-36857 : API (10 Digit) 
API_14.                                    42-371-36857-00-00 : API (14 Digits) 
API_14_std.                                 42-371-36857-0000 : API (14 Digits Standard) 
UWI.                                           42371368570000 : UNIQUE WELL ID
STRT.FT                                                7870.0 : START DEPTH
STOP.FT                                               16592.5 : STOP DEPTH
STEP.FT                                                   0.5 : STEP BETWEEN DEPTHS
NULL.                                                 -999.25 : NULL VALUE
COMP.                                             DIAMONDBACK : COMPANY 
WELL.                                         MOORE-GILMORE 1 : WELL NAME 
FLD.                                               WAHA  WEST : FIELD NAME
#___________________________________________________________________________________________________ 
~CURVE INFORMATION 
#    Zone Description
#          1 = Upper Avalon
#          2 = Middle Avalon
#          3 = Lower Avalon
#          4 = 1st Bone Spring
#          5 = 2nd Bone Spring
#          6 = 2nd Bone Spring Sand
#          7 = 3rd Bone Spring
#          8 = 3rd Bone Spring Sand
#          9 = Wolfcamp XY
#          10 = Wolfcamp A Upper
#          11 = Wolfcamp A Lower
#          12 = Wolfcamp B Upper
#          13 = Wolfcamp B Lower
#          14 = Wolfcamp C
#          15 = Wolfcamp D
#          16 = Pennsylvanian Shale
#          17 = Lower Pennsylvanian Shale
#          18 = Barnett
#          19 = Barnett Lower
#          20 = Mississippian Lime
#          21 = Woodford
#          22 = Base Woodford 
# MNEM.UNIT           : CURVE DESCRIPTION 
#-----.-----          : ----------------------------- 
 DEPT.FT               : MEASURED DEPTH 
 TVD_I.FT              : ENVERUS TRUE VERTICAL DEPTH 
 ZONE_I.               : ENVERUS DEFINED ZONE CODE 
 GR_N_I.API            : ENVERUS NORMALIZED GAMMA RAY LEVERAGED IN GEOLOGICAL MODELLING 
 RESD_I.OHMM           : ENVERUS DEEP RESISTIVITY LEVERAGED IN GEOLOGICAL MODELLING 
 DPHI_I.V/V            : ENVERUS INTERPRETED DENSITY POROSITY USING A 2.71 G/CC MATRIX DENSITY 
 PHIE_I.V/V            : ENVERUS INTERPRETED EFFECTIVE POROSITY 
 SW_I.V/V              : ENVERUS INTERPRETED WATER SATURATION USING MODIFIED SIMANDOUX EQUATION 
 TOC_I.WT%             : ENVERUS INTERPRETED TOTAL ORGANIC CARBON USING MULTI-LINEAR REGRESSION 
 VCLAY_I.V/V           : ENVERUS INTERPRETED CLAY VOLUMES USING MULTI-LINEAR REGRESSION 
 NVCLAY_I.V/V          : ENVERUS INTERPRETED NON CLAY VOLUMES 
 HCPV_I.V/V            : ENVERUS INTERPRETED HYDROCARBON PORE VOLUME 
 OOIP_I.MMBBL/SEC      : ENVERUS INTERPRETED ORIGINAL OIL IN PLACE 
 OGIP_I.BCF/SEC        : ENVERUS INTERPRETED ORIGINAL GAS IN PLACE 
 TEMP_I.DEGF           : ENVERUS INTERPRETED TEMPERATURE DERIVED FROM BOTTOM HOLE TEMPERATURES 
 #___________________________________________________________________________________________________ 
~A         DEPT          TVD_I         ZONE_I         GR_N_I         RESD_I         DPHI_I         PHIE_I           SW_I          TOC_I        VCLAY_I       NVCLAY_I         HCPV_I         OOIP_I         OGIP_I         TEMP_I
# ...
         9634.0       9634.000        -999.25         84.432      -999.2500        0.06900        0.05300        0.05950        2.34940        0.23270        0.71440        0.03760        0.23550     1018.66560        428.255
         9634.5       9634.501        -999.25         78.940      -999.2500        0.07160        0.05610        0.05040        2.27000        0.21630        0.72760        0.04190        0.25210     1090.57740        428.273
         9635.0       9635.000        -999.25         73.183      -999.2500        0.07420        0.05910        0.03910        2.19740        0.20300        0.73790        0.04610        0.26850     1161.64330        428.292
         9635.5       9635.500        -999.25         67.482      -999.2500        0.07420        0.06010        0.00780        2.08620        0.19040        0.74950        0.04950        0.28190     1219.49210        428.311
         9636.0       9636.000        -999.25         61.860      -999.2500        0.06880        0.05620        0.00130        1.87120        0.18210        0.76160        0.04510        0.26560     1149.27620        428.330
         9636.5       9636.500        -999.25         58.123      -999.2500        0.06340        0.05180        0.00000        1.71830        0.18230        0.76580        0.04090        0.24510     1060.42150        428.349
         9637.0       9637.000        -999.25         69.533      -999.2500        0.06330        0.05020        0.00000        1.94960        0.20710        0.74280        0.04060        0.23730     1026.57140        428.368
         9637.5       9637.500        -999.25         79.993      -999.2500        0.07120        0.05520        0.00000        2.31330        0.22440        0.72050        0.04480        0.26100     1129.31310        428.387
         9638.0       9637.999        -999.25         90.146      -999.2500        0.07860        0.05960        0.00000        2.67650        0.24160        0.69880        0.04880        0.28190     1219.63210        428.406
         9638.5       9638.499        -999.25         94.367      -999.2500        0.08600        0.06430        0.01300        2.92710        0.25170        0.68400        0.05310        0.30020     1299.23790        428.425
         9639.0       9639.000        -999.25         96.682      -999.2500        0.09330        0.06910        0.02890        3.14110        0.25970        0.67120        0.05750        0.31720     1372.86230        428.444
         9639.5       9639.500        -999.25         98.844      -999.2500        0.09610        0.07010        0.02940        3.26980        0.27120        0.65880        0.05850        0.32160     1391.72460        428.463
         9640.0       9640.000        -999.25         98.923      -999.2500        0.09440        0.06840        0.02660        3.24620        0.27510        0.65650        0.05680        0.31490     1362.88550        428.482
         9640.5       9640.500        -999.25         97.964      -999.2500        0.09110        0.06650        0.02760        3.14750        0.27050        0.66300        0.05460        0.30560     1322.68750        428.501
         9641.0       9641.000        -999.25        102.188      -999.2500        0.08870        0.06450        0.01790        3.17620        0.27330        0.66220        0.05300        0.29940     1295.73070        428.520
         9641.5       9641.500        -999.25        100.912      -999.2500        0.09020        0.06580        0.01860        3.17660        0.27010        0.66410        0.05450        0.30540     1321.93960        428.539
         9642.0       9642.000        -999.25         99.359      -999.2500        0.09410        0.06810        0.01660        3.25100        0.27570        0.65610        0.05710        0.31690     1371.56860        428.558
         9642.5       9642.500        -999.25        101.366      -999.2500        0.09750        0.06940        0.00660        3.39810        0.28890        0.64170        0.05910        0.32580     1410.34910        428.577
         9643.0       9643.000        -999.25        101.301      -999.2500        0.10100        0.07200        0.01050        3.46530        0.28740        0.64060        0.06180        0.33680     1457.73440        428.596
         9643.5       9643.501        -999.25        100.797      -999.2500        0.10450        0.07540        0.02360        3.50090        0.27800        0.64650        0.06480        0.34830     1507.87120        428.615
         9644.0       9644.000        -999.25        102.439      -999.2500        0.10800        0.07920        0.03590        3.56610        0.26670        0.65420        0.06810        0.36090     1562.34990        428.634
         9644.5       9644.500        -999.25        105.253      -999.2500        0.10910        0.08150        0.04490        3.59640        0.25280        0.66570        0.07000        0.36810     1593.30520        428.653
         9645.0       9645.000        -999.25        103.369      -999.2500        0.10520        0.08060        0.04970        3.42660        0.23400        0.68540        0.06860        0.36210     1567.67960        428.672
         9645.5       9645.500        -999.25         96.294      -999.2500        0.09760        0.07510        0.04040        3.13650        0.23020        0.69470        0.06340        0.34100     1476.22380        428.691
         9646.0       9646.000        -999.25         88.279      -999.2500        0.08950        0.06830        0.02130        2.86120        0.23740        0.69430        0.05710        0.31600     1368.14310        428.709
         9646.5       9646.500        -999.25         81.836      -999.2500        0.08870        0.06750        0.02380        2.74600        0.23840        0.69410        0.05600        0.31170     1349.49020        428.728
         9647.0       9647.000        -999.25         85.500      -999.2500        0.09360        0.07060        0.03690        2.92290        0.24530        0.68410        0.05850        0.32160     1392.35460        428.747
         9647.5       9647.500        -999.25         91.333      -999.2500        0.10020        0.07500        0.05180        3.17110        0.25190        0.67310        0.06220        0.33620     1455.70350        428.766
         9648.0       9648.000        -999.25         94.648      -999.2500        0.10000        0.07360        0.06140        3.25550        0.26430        0.66210        0.06010        0.32650     1413.92700        428.785
         9648.5       9648.500        -999.25         94.482      -999.2500        0.09460        0.06950        0.07740        3.14180        0.26550        0.66500        0.05460        0.30320     1312.85460        428.804
         9649.0       9649.000        -999.25         93.452      -999.2500        0.08840        0.06560        0.08980        2.97010        0.25760        0.67680        0.04950        0.28250     1223.49880        428.823
         9649.5       9649.500        -999.25         95.357      -999.2500        0.08220        0.06110        0.07640        2.87240        0.25750        0.68150        0.04540        0.26670     1154.75540        428.842
         9650.0       9650.000        -999.25         95.173      -999.2500        0.08290        0.06180        0.06190        2.87810        0.25510        0.68320        0.04710        0.27400     1186.66250        428.861
         9650.5       9650.500        -999.25         93.322      -999.2500        0.08700        0.06560        0.05430        2.90520        0.24570        0.68870        0.05180        0.29330     1270.15840        428.880
         9651.0       9651.000        -999.25         91.249      -999.2500        0.09130        0.07010        0.07160        2.92030        0.23250        0.69740        0.05540        0.30780     1333.05690        428.899
         9651.5       9651.500        -999.25         89.943      -999.2500        0.09390        0.07230        0.08100        2.94360        0.23000        0.69770        0.05690        0.31420     1361.02290        428.918
