#--------------------------------------------------#
#-------------------ENVERUS, INC.------------------#
#------------------WWW.ENVERUS.COM-----------------#
#------------------COPYRIGHT 2020------------------#
#--------------------------------------------------#
#THIS FILE MAY BE USED ONLY IN ACCORDANCE WITH A CURRENT SUBSCRIPTION AGREEMENT BETWEEN
#THE USER AND ENVERUS, INC. NO PART OF THIS FILE MAY BE REPRODUCED, USED, COPIED,
#MODIFIED, PROPAGATED, OR DISTRIBUTED EXCEPT IN ACCORDANCE WITH THE SUBSCRIPTION
#AGREEMENT. UNAUTHORIZED USE OR DISTRIBUTION OF ALL OR ANY PART OF THIS FILE MAY VIOLATE
#COPYRIGHT, TRADEMARK, AND/OR OTHER LAWS AND IS SUBJECT TO CIVIL AS WELL AS CRIMINAL
#SANCTIONS.
#--------------------------------------------------#
#THIS FILE IS PROVIDED "AS-IS" AND ALL WARRANTIES ARE EXPRESSLY DISCLAIMED, WHETHER
#EXPRESS, ORAL, IMPLIED, STATUTORY OR OTHERWISE, INCLUDING ANY IMPLIED WARRANTY OF FITNESS
#FOR A PARTICULAR PURPOSE, MERCHANTABILITY, TITLE OR NON-INFRINGEMENT, AND ANY WARRANTIES
#ARISING BY VIRTUE OF CUSTOM OF TRADE OR COURSE OF DEALING.  FURTHER, ENVERUS, INC.
#AND ITS LICENSORS DO NOT REPRESENT OR WARRANT THAT THIS FILE WILL MEET USER'S
#REQUIREMENTS OR ARE SUITABLE FOR USER'S NEEDS OR THAT THE DATA OR RESULTS PROVIDED IN
#CONJUNCTION THEREWITH ARE CORRECT, ACCURATE, TIMELY OR RELIABLE. THESE DISCLAIMERS SHALL
#APPLY REGARDLESS OF ANY FAILURE OF ESSENTIAL PURPOSE OF ANY LIMITED REMEDY.  SOME
#JURISDICTIONS DO NOT ALLOW THE EXCLUSION OF CERTAIN WARRANTIES SO SOME OF THE ABOVE
#EXCLUSIONS MAY NOT APPLY. IN NO EVENT SHALL ENVERUS, INC. OR ANY OF ITS AFFILIATES
#BE LIABLE UNDER ANY LEGAL THEORY, WHETHER IN TORT (INCLUDING WITHOUT LIMITATION
#NEGLIGENCE), CONTRACT, STRICT LIABILITY, STATUTORY OR OTHERWISE, FOR ANY SPECIAL,
#INCIDENTAL, CONSEQUENTIAL, EXEMPLARY, PUNITIVE OR INDIRECT DAMAGE OF ANY KIND, INCLUDING
#WITHOUT LIMITATION LOSS OF REVENUE, PROFITS, GOODWILL, USE, AND/OR DATA OR THE COST OF
#PROCUREMENT OF SUBSTITUTE GOODS OR SERVICES, EVEN IF APPRISED OF THE POSSIBILITY OF SUCH
#DAMAGES IN ADVANCE.
#--------------------------------------------------#

~VERSION INFORMATION
VERS. 2.0 : CWLS LOG ASCII STANDARD - VERSION 2.0
WRAP.  NO : ONE LINE PER DEPTH STEP
~WELL INFORMATION
#MNEMONIC     .UNIT              VALUE :DESCRIPTION
STRT       .FT                -3 :START DEPTH
STOP       .FT                21524 :STOP DEPTH
STEP       .FT                   0.500 :STEP
NULL       .                  -999.99 :NULL
UWI        .                42389105080000 :UNIQUE WELL ID
API        .                42389105080000 :API NUMBER
COMP       .         :COMPANY
WELL       .        :WELL
DATE       .                 :LOG DATE
FLD       .                 :FIELD NAME
LOC       .                  UNK :LOCATION
CNTY       .                 UNK :COUNTY
STAT       .                 UNK :STATE
CTRY       .                 UNK :COUNTY
SRVC       .                 UNK :SERVICE COMPANY
~CURVE INFORMATION
#MNEMONIC     .UNIT      API CODE :CURVE DESCRIPTION
DEPTH       .FT                      :MEASURED DEPTH
CAL.IN        UNKNOWN   :CAL
DT.MSEC/FT        UNKNOWN   :DT
GR.API        UNKNOWN   :GR
~A    DEPTH    CAL    DT    GR
# ...
 13622.5     12.12832   94.60535   42.21294
 13623     12.10055   94.52745   42.69962
 13623.5     12.07278   93.4928   43.1863
 13624     12.05768   90.35657   43.67299
 13624.5     12.08274   87.22034   43.89843
 13625     12.1078   84.0841   43.0178
 13625.5     12.13285   81.42689   42.13716
 13626     12.15791   79.51657   40.92466
 13626.5     12.18297   77.60626   38.74948
 13627     12.20803   78.63712   37.99752
 13627.5     12.20951   80.71563   38.23723
 13628     12.20717   82.79414   38.47694
 13628.5     12.20484   84.65426   38.71665
 13629     12.20251   84.12154   39.93031
 13629.5     12.20017   83.58883   41.46354
 13630     12.16554   83.05612   42.99676
 13630.5     12.10097   82.5234   44.52998
 13631     12.0364   81.99069   41.42566
 13631.5     11.97183   81.45798   36.18201
 13632     11.90726   81.42736   31.88144
 13632.5     11.84269   81.68503   31.08659
 13633     11.77812   81.94271   31.13461
 13633.5     11.77009   82.20038   33.5782
 13634     11.78966   72.737   37.11072
 13634.5     11.80923   65.08497   41.06997
 13635     11.8288   66.90792   43.2761
 13635.5     11.84837   68.73086   45.31943
 13636     11.86793   70.9006   46.41268
 13636.5     11.8875   73.63207   46.27353
 13637     11.92686   76.36355   46.13439
 13637.5     12.03542   79.09502   45.99524
 13638     12.14397   81.8265   45.85609
 13638.5     12.25252   84.55798   45.71695
 13639     12.36107   86.84595   44.70517
 13639.5     12.46962   86.3864   43.65997
 13640     12.57818   85.92686   42.61476
 13640.5     12.70598   85.46731   41.56956
 13641     12.72655   85.00777   41.02622
 13641.5     12.74712   89.94744   41.2904
 13642     12.6639   102.20535   41.55458
 13642.5     12.5504   114.46326   41.81876
 13643     12.43691   110.90569   42.08294
 13643.5     12.41724   105.4866   42.3504
 13644     12.49187   100.06752   42.61818
 13644.5     12.56649   94.64843   42.88596
 13645     12.64112   89.22934   43.15374
 13645.5     12.60331   83.81025   43.42152
 13646     12.5021   79.11096   43.6893
 13646.5     12.41506   80.154   43.95708
 13647     12.45895   81.20663   43.92651
 13647.5     12.50284   82.33418   43.66132
 13648     12.54673   83.46173   43.39613
 13648.5     12.59061   84.58927   43.13094
 13649     12.61497   85.50608   42.86575
 13649.5     12.53597   84.18228   42.60057
 13650     12.45697   82.85849   42.32532
 13650.5     12.53228   81.53469   42.04675
 13651     12.69897   80.21089   41.76819
 13651.5     12.80294   78.88709   41.48962
 13652     12.67821   79.14268   41.21106
 13652.5     12.55348   80.61729   40.93249
 13653     12.42876   82.0919   40.92398
 13653.5     12.33146   83.5665   41.55443
 13654     12.3423   85.04111   42.18489
 13654.5     12.35315   71.05237   42.81534
 13655     12.364   72.18304   43.44579
 13655.5     12.37484   73.3137   43.57538
 13656     12.38569   74.44436   43.27661
 13656.5     12.39654   74.96209   42.97784
 13657     12.40738   75.20026   42.67908
 13657.5     12.42137   75.43843   41.99971
 13658     12.5259   76.97913   41.12786
 13658.5     12.63043   79.49005   40.25601
 13659     12.73496   82.00097   39.38416
 13659.5     12.83949   84.51189   38.51231
 13660     12.94402   85.78486   37.64047
 13660.5     12.95662   85.2794   36.98888
 13661     12.81191   83.01859   37.77208
 13661.5     12.44619   80.75777   38.55529
 13662     12.23762   78.49695   39.3385
 13662.5     12.21386   76.23614   40.40645
 13663     12.82039   73.97532   41.48261
 13663.5     12.79006   71.7145   42.55876
 13664     12.75974   69.45369   42.4925
 13664.5     12.72942   73.86891   42.18707
 13665     12.6991   81.32208   41.88164
 13665.5     12.66878   88.77526   41.57621
 13666     12.63846   88.75282   41.27078
 13666.5     12.64602   84.48989   40.96535
 13667     12.65367   80.22695   40.65992
 13667.5     12.66132   75.96457   40.35448
 13668     12.67319   76.555   40.04905
 13668.5     12.72781   77.14543   39.83305
 13669     12.78242   77.73586   40.17113
 13669.5     12.83704   78.32628   40.50921
 13670     12.80927   78.91671   40.84729
 13670.5     12.77458   79.50714   41.18537
 13671     12.73988   80.09757   41.52345
 13671.5     12.70518   77.99992   40.89887
 13672     12.67048   75.74602   39.8956
 13672.5     12.64212   74.2626   38.89233
 13673     12.64098   74.12042   37.88906
 13673.5     12.63984   73.97824   37.91514
 13674     12.6387   73.83606   39.16307
 13674.5     12.63756   73.79464   40.411
 13675     12.63642   74.37451   41.42173
 13675.5     12.63528   76.75422   42.29971
 13676     12.63413   85.6712   43.17769
 13676.5     12.63299   93.9857   44.05566
 13677     12.63185   88.68959   44.93364
 13677.5     12.6235   83.39348   45.01703
 13678     12.59045   86.62932   44.56168
 13678.5     12.5574   90.79383   44.10633
 13679     12.52435   94.26119   43.65099
 13679.5     12.4913   93.61829   43.28198
 13680     12.48406   92.97539   44.26613
 13680.5     12.47886   92.33249   45.25028
 13681     12.47366   91.57137   44.86913
 13681.5     12.46846   88.73735   43.34897
 13682     12.46326   85.36113   41.8288
 13682.5     12.45806   81.98491   41.96212
 13683     12.45286   78.60869   43.39938
 13683.5     12.41499   75.23246   44.83665
 13684     12.05469   75.30619   46.27391
 13684.5     11.97054   76.44008   47.71118
 13685     11.90454   77.7023   48.02125
 13685.5     12.07249   79.93991   47.50882
 13686     12.30831   80.44601   46.22443
 13686.5     12.44589   80.95211   43.19936
 13687     12.43612   81.45821   40.17428
 13687.5     12.42635   79.6562   40.94732
 13688     12.29545   75.0679   42.12192
 13688.5     12.06521   70.4796   43.29652
 13689     11.91285   68.97679   44.47112
 13689.5     11.93458   68.30009   45.64572
 13690     11.9563   67.75943   44.7609
 13690.5     11.97803   67.37017   42.40434
 13691     11.99976   66.98091   40.74958
 13691.5     12.02148   66.59165   41.65572
 13692     11.81378   66.2024   42.56185
 13692.5     11.36983   65.81314   43.46799
 13693     11.35287   65.42388   44.37413
 13693.5     11.33591   68.56555   44.82139
 13694     11.47477   75.80161   43.20585
 13694.5     11.6237   83.03768   41.59032
 13695     11.70217   87.96585   40.85872
 13695.5     11.71716   86.14004   40.28003
 13696     11.73215   84.31422   39.70133
 13696.5     11.74713   82.48841   39.12263
 13697     11.78318   80.66259   38.54393
 13697.5     11.83183   78.83678   37.96524
 13698     11.88048   77.01097   37.38654
 13698.5     11.92914   75.18515   37.89428
 13699     11.97779   76.65375   38.87252
 13699.5     12.02644   80.83174   39.85076
 13700     12.38689   89.08235   40.829
 13700.5     12.75011   93.97682   41.1167
 13701     13.11333   95.0161   39.80842
 13701.5     13.47655   96.05538   38.50015
 13702     13.636   97.09465   37.7843
 13702.5     13.4429   98.13393   38.29089
 13703     13.22034   95.23165   38.79749
 13703.5     12.96967   91.36146   39.30408
 13704     12.719   87.49126   39.90405
 13704.5     12.37686   83.62106   40.87293
 13705     12.0225   80.72302   41.8418
 13705.5     11.66814   83.05392   42.81068
 13706     11.71159   85.38481   43.77956
 13706.5     11.86297   87.71571   44.74843
 13707     12.01821   85.19132   44.16128
 13707.5     12.10211   85.09184   42.31021
 13708     12.06005   84.99236   40.45913
 13708.5     12.01799   84.89288   39.69732
 13709     11.97593   84.7934   39.88057
 13709.5     11.93386   84.69392   40.06383
 13710     11.8918   84.37828   39.09878
 13710.5     11.81808   78.96818   37.29638
 13711     11.65394   77.56015   34.9997
 13711.5     11.4898   77.33087   32.70302
 13712     11.32565   77.10158   31.28471
 13712.5     11.46061   77.00797   32.20367
 13713     12.19217   77.53261   33.12264
 13713.5     12.16567   78.05725   34.0416
 13714     11.29029   93.77993   34.96057
 13714.5     11.25799   94.19611   34.47894
 13715     11.22569   93.92996   33.79756
 13715.5     11.19339   93.6638   33.11618
 13716     11.16109   93.39765   32.4348
