###############################################
##         ENVERUS                           ##
##         ESS - Open Hole                   ##
##         PERMIAN / DELAWARE                ##
##         Nov 04 2023  V4.0                 ##
##         42-389-10116-00-00                ##
###############################################
## Copyright 2017-2023  ENVERUS.  All Rights Reserved. 
## Confidential - Property of ENVERUS, use governed by terms and 
## conditions found within the existing Information Services Subscription Agreement 
## (as may be amended, the “ISSA”) between Customer and ENVERUS. 
## 
~VERSION INFORMATION
# MNEM.UNIT                               DATA : DESCRIPTION OF MNEMONIC
#-----.-----     ----------------------------- : -----------------------------
VERS.                                     2.00 : CWLS LOG ASCII STANDARD - VERSION 2.00
WRAP.                                       NO : MULTIPLE LINES PER DEPTH STEP
VEND.                                  ENVERUS : VENDOR
TYPE.                          ESS - OPEN HOLE : ENVERUS ESSENTIAL CURVES – ACCESSIBLE THROUGH ENVERUS PRISM(TM)
DOC.                                  31818149 : ENVERUS HEADER RAW DOCUMENT ID
#___________________________________________________________________________________________________ 
~WELL INFORMATION 
# kxSJJvG4Ro99GqojvmaAoFb8nmZsGWyMBdB6Op61yYkHZj6VRdx+Ef4kBXz5Syac/VH6awax3Ll89xsC2rvs8g== 
# MNEM.UNIT                                              DATA : DESCRIPTION OF MNEMONIC 
#-----.-----                    ----------------------------- : ----------------------------- 
CNTY.                                                  REEVES : COUNTY 
STATE.                                                  TEXAS : STATE 
CNTRY.                                                    USA : COUNTRY 
API.                                             42-389-10116 : API (10 Digit) 
API_14.                                    42-389-10116-00-00 : API (14 Digits) 
API_14_std.                                 42-389-10116-0000 : API (14 Digits Standard) 
UWI.                                           42389101160000 : UNIQUE WELL ID 
WELL.                                            WOODS -A-  1 : WELL NAME
STRT.FT                                                 107.0 : START DEPTH
STOP.FT                                                5258.0 : STOP DEPTH
STEP.FT                                                   0.5 : STEP BETWEEN DEPTHS
NULL.                                                 -999.25 : NULL VALUE
COMP.                              PHILLIPS PETROLEUM COMPANY : COMPANY
#___________________________________________________________________________________________________ 
~CURVE INFORMATION 
# MNEM.UNIT           : CURVE DESCRIPTION 
#-----.-----          : ----------------------------- 
 DEPT.FT               : MEASURED DEPTH 
 GR.API                : GAMMA RAY (GR) 
 DT.US/FT              : SONIC DELTA TRANSIT TIME (DT) 
 #___________________________________________________________________________________________________ 
~A         DEPT             GR             DT
# ...
         5153.0         85.974         69.414
         5153.5         85.893         65.854
         5154.0        109.742         62.295
         5154.5        166.204         63.425
         5155.0        166.533         68.255
         5155.5        166.412         73.084
         5156.0        166.291         77.914
         5156.5        108.947         77.060
         5157.0        104.736         72.031
         5157.5        100.525         67.809
         5158.0         96.319         67.086
         5158.5         92.188         67.532
         5159.0         84.929         67.977
         5159.5         75.532         68.423
         5160.0         66.134         61.746
         5160.5         62.437         60.836
         5161.0         61.816         60.766
         5161.5         61.194         60.697
         5162.0         60.573         61.569
         5162.5         66.310         63.399
         5163.0         74.147         65.230
         5163.5         81.985         66.409
         5164.0         89.822         67.069
         5164.5         97.659         67.729
         5165.0        105.685         68.020
         5165.5        113.969         68.100
         5166.0        133.011         68.180
         5166.5        132.715         70.012
         5167.0        132.419         72.521
         5167.5        126.219         73.511
         5168.0         80.093         70.489
         5168.5         75.319         67.467
         5169.0         71.251         64.446
         5169.5         72.305         63.996
         5170.0         73.360         67.040
         5170.5         74.415         70.084
         5171.0         75.469         72.291
         5171.5         74.875         73.129
         5172.0         73.699         73.507
         5172.5         72.522         73.885
         5173.0         71.345         74.124
         5173.5         70.169         73.260
         5174.0         70.005         72.395
         5174.5         71.504         70.419
         5175.0         73.002         69.527
         5175.5         74.501         70.718
         5176.0         75.999         71.908
         5176.5         67.243         73.099
         5177.0         58.455         74.289
         5177.5         50.267         73.260
         5178.0         50.460         68.490
         5178.5         50.653         63.720
         5179.0         50.847         67.059
         5179.5         51.040         79.185
         5180.0         51.233         77.253
         5180.5         51.426         75.728
         5181.0         59.769         80.228
         5181.5         62.719         83.049
         5182.0         63.120         74.852
         5182.5         61.168         77.898
         5183.0         54.439         80.945
         5183.5         50.566         82.112
         5184.0         51.352         77.147
         5184.5         52.137         72.182
         5185.0         52.923         67.217
         5185.5         53.709         71.277
         5186.0         54.494         77.017
         5186.5         55.280         82.758
         5187.0         55.026         85.006
         5187.5         53.966         82.835
         5188.0         52.907         80.665
         5188.5         51.847         78.854
         5189.0         51.885         84.317
         5189.5         52.468         85.628
         5190.0         53.052         84.075
         5190.5         52.010         82.522
         5191.0         50.414         80.968
         5191.5         48.818         80.221
         5192.0         47.222         82.250
         5192.5         45.626         84.279
         5193.0         45.195         86.898
         5193.5         44.930         90.793
         5194.0         44.664         94.687
         5194.5         44.399         80.740
         5195.0         44.134         80.408
         5195.5         43.869         78.690
         5196.0         43.603         75.355
         5196.5         45.375         72.043
         5197.0         48.669         69.623
         5197.5         51.666         67.203
         5198.0         52.765         65.543
         5198.5         53.865         70.642
         5199.0         50.867         75.742
         5199.5         53.389         67.356
         5200.0         52.331         76.314
         5200.5         49.209         82.101
         5201.0         50.519         79.570
         5201.5         52.891         77.039
         5202.0         55.262         74.508
         5202.5         57.634         71.977
         5203.0         67.181         76.279
         5203.5         77.450         81.456
         5204.0         87.720         77.915
         5204.5         97.984         74.074
         5205.0        101.228         70.446
         5205.5        103.368         73.969
         5206.0         85.208         77.491
         5206.5         67.048         81.013
         5207.0         56.712         84.536
         5207.5         51.008         77.452
         5208.0         50.260         65.767
         5208.5         65.101         80.014
         5209.0         63.686         81.729
         5209.5         62.271         76.953
         5210.0         63.986         72.177
         5210.5         73.139         72.404
         5211.0         82.292         73.612
         5211.5         82.084         74.821
         5212.0         80.237         70.871
         5212.5         78.389         69.143
         5213.0         76.541         70.491
         5213.5         74.694         71.839
         5214.0         79.962         73.004
         5214.5         85.343         71.884
         5215.0         87.895         70.765
         5215.5         88.063         70.001
         5216.0         88.231         70.944
         5216.5         85.739         70.423
         5217.0         81.613         69.902
         5217.5         78.660         71.815
         5218.0         76.271         71.875
         5218.5         73.883         71.935
         5219.0         71.494         71.995
         5219.5         70.213         71.665
         5220.0         71.545         70.726
         5220.5         72.878         69.786
         5221.0         74.210         70.844
         5221.5         75.543         72.132
         5222.0         74.572         71.412
         5222.5         73.373         70.691
         5223.0         72.175         69.971
         5223.5         70.977         70.449
         5224.0         69.912         71.690
         5224.5         71.838         72.009
         5225.0         73.765         71.894
         5225.5         75.691         71.779
         5226.0         75.776         71.664
         5226.5         74.778         71.549
         5227.0         73.780         71.435
         5227.5         72.781         71.320
         5228.0         71.783         71.205
         5228.5         70.785         71.090
         5229.0         70.555         70.975
         5229.5         72.103         68.300
         5230.0         73.652         69.491
         5230.5         75.201         70.601
         5231.0         76.750         70.168
         5231.5         77.106         69.735
         5232.0         75.857         69.302
         5232.5         74.609         68.870
         5233.0         73.360         68.437
         5233.5         72.111         68.004
         5234.0         70.863         67.571
         5234.5         69.614         68.007
         5235.0         69.761         68.732
         5235.5         70.789         69.457
         5236.0         71.816         70.182
         5236.5         72.844         69.586
         5237.0         73.872         68.812
         5237.5         74.899         68.038
         5238.0         75.927         67.264
         5238.5       -999.250         66.490
         5239.0       -999.250         66.365
         5239.5       -999.250         66.847
