###############################################
##         ENVERUS                           ##
##         Petrophysical Curves              ##
##         PERMIAN / DELAWARE                ##
##         Jan 21 2022                       ##
##         42-389-10491-00-00                ##
###############################################
## Copyright 2017-2022  ENVERUS.  All Rights Reserved. 
## Confidential - Property of ENVERUS, use governed by terms and 
## conditions found within the existing Information Services Subscription Agreement 
## (as may be amended, the “ISSA”) between Customer and ENVERUS. 
## 
~VERSION INFORMATION
# MNEM.UNIT                               DATA : DESCRIPTION OF MNEMONIC
#-----.-----     ----------------------------- : -----------------------------
VERS.                                     2.00 : CWLS LOG ASCII STANDARD - VERSION 2.00
WRAP.                                       NO : MULTIPLE LINES PER DEPTH STEP
VEND.                                  ENVERUS : VENDOR
TYPE.                     PETROPHYSICAL CURVES : ENVERUS PETROPHYSICAL CURVES - ACCESSIBLE THROUGH ENVERUS CORE(TM)
#___________________________________________________________________________________________________ 
~WELL INFORMATION 
# uyaQ8P8kQDJ9DXFS5hR1PxmExEOYaAUkY5f3/tnOS+scoPAUWgXA1zCIHGRbWCuSuUcwDzaESCjqjWQ81XhadA== 
# MNEM.UNIT                                              DATA : DESCRIPTION OF MNEMONIC 
#-----.-----                    ----------------------------- : ----------------------------- 
CNTY.                                                  REEVES : COUNTY 
STATE.                                                  TEXAS : STATE 
CNTRY.                                                    USA : COUNTRY 
API.                                             42-389-10491 : API (10 Digit) 
API_14.                                    42-389-10491-00-00 : API (14 Digits) 
API_14_std.                                 42-389-10491-0000 : API (14 Digits Standard) 
UWI.                                           42389104910000 : UNIQUE WELL ID
STRT.FT                                                 102.0 : START DEPTH
STOP.FT                                                9071.0 : STOP DEPTH
STEP.FT                                                   0.5 : STEP BETWEEN DEPTHS
NULL.                                                 -999.25 : NULL VALUE
COMP.                                FLAT CREEK RESOURCES LLC : COMPANY 
WELL.                                         REEVES-AW-FEE 1 : WELL NAME 
FLD.                                                     TORO : FIELD NAME
#___________________________________________________________________________________________________ 
~CURVE INFORMATION 
#    Zone Description
#          1 = Upper Avalon
#          2 = Middle Avalon
#          3 = Lower Avalon
#          4 = 1st Bone Spring
#          5 = 2nd Bone Spring
#          6 = 2nd Bone Spring Sand
#          7 = 3rd Bone Spring
#          8 = 3rd Bone Spring Sand
#          9 = Wolfcamp XY
#          10 = Wolfcamp A Upper
#          11 = Wolfcamp A Lower
#          12 = Wolfcamp B Upper
#          13 = Wolfcamp B Lower
#          14 = Wolfcamp C
#          15 = Wolfcamp D
#          16 = Pennsylvanian Shale
#          17 = Lower Pennsylvanian Shale
#          18 = Barnett
#          19 = Barnett Lower
#          20 = Mississippian Lime
#          21 = Woodford
#          22 = Base Woodford 
# MNEM.UNIT           : CURVE DESCRIPTION 
#-----.-----          : ----------------------------- 
 DEPT.FT               : MEASURED DEPTH 
 TVD_I.FT              : ENVERUS TRUE VERTICAL DEPTH 
 ZONE_I.               : ENVERUS DEFINED ZONE CODE 
 GR_N_I.API            : ENVERUS NORMALIZED GAMMA RAY LEVERAGED IN GEOLOGICAL MODELLING 
 TEMP_I.DEGF           : ENVERUS INTERPRETED TEMPERATURE DERIVED FROM BOTTOM HOLE TEMPERATURES 
 #___________________________________________________________________________________________________ 
~A         DEPT          TVD_I         ZONE_I         GR_N_I         TEMP_I
# ...
         3070.0       3070.000        -999.25         13.073         95.515
         3070.5       3070.500        -999.25         13.072         95.521
         3071.0       3071.000        -999.25         13.072         95.526
         3071.5       3071.500        -999.25         13.070         95.531
         3072.0       3072.000        -999.25         13.069         95.536
         3072.5       3072.500        -999.25         13.067         95.542
         3073.0       3073.000        -999.25         13.348         95.547
         3073.5       3073.500        -999.25         13.652         95.552
         3074.0       3074.000        -999.25         13.958         95.558
         3074.5       3074.500        -999.25         14.264         95.563
         3075.0       3075.000        -999.25         14.568         95.568
         3075.5       3075.500        -999.25         14.874         95.573
         3076.0       3076.000        -999.25         15.178         95.579
         3076.5       3076.500        -999.25         15.484         95.584
         3077.0       3077.000        -999.25         15.788         95.589
         3077.5       3077.500        -999.25         16.094         95.595
         3078.0       3078.000        -999.25         16.398         95.600
         3078.5       3078.500        -999.25         16.615         95.605
         3079.0       3079.000        -999.25         16.038         95.611
         3079.5       3079.500        -999.25         15.462         95.616
         3080.0       3080.000        -999.25         14.887         95.621
         3080.5       3080.500        -999.25         14.311         95.626
         3081.0       3081.000        -999.25         13.736         95.632
         3081.5       3081.500        -999.25         13.161         95.637
         3082.0       3082.000        -999.25         12.585         95.642
         3082.5       3082.500        -999.25         12.529         95.648
         3083.0       3083.000        -999.25         12.646         95.653
         3083.5       3083.500        -999.25         12.764         95.658
         3084.0       3084.000        -999.25         12.883         95.663
         3084.5       3084.500        -999.25         13.000         95.669
         3085.0       3085.000        -999.25         12.924         95.674
         3085.5       3085.500        -999.25         12.756         95.679
         3086.0       3086.000        -999.25         12.587         95.685
         3086.5       3086.500        -999.25         12.419         95.690
         3087.0       3087.000        -999.25         12.251         95.695
         3087.5       3087.500        -999.25         12.082         95.701
         3088.0       3088.000        -999.25         11.914         95.706
         3088.5       3088.500        -999.25         11.745         95.711
         3089.0       3089.000        -999.25         11.577         95.716
         3089.5       3089.500        -999.25         11.517         95.722
         3090.0       3090.000        -999.25         11.517         95.727
         3090.5       3090.500        -999.25         11.515         95.732
         3091.0       3091.000        -999.25         11.513         95.738
         3091.5       3091.500        -999.25         11.512         95.743
         3092.0       3092.000        -999.25         11.587         95.748
         3092.5       3092.500        -999.25         11.719         95.754
         3093.0       3093.000        -999.25         12.118         95.759
         3093.5       3093.500        -999.25         13.085         95.764
         3094.0       3094.000        -999.25         14.052         95.769
         3094.5       3094.500        -999.25         15.017         95.775
         3095.0       3095.000        -999.25         15.983         95.780
         3095.5       3095.500        -999.25         16.950         95.785
         3096.0       3096.000        -999.25         17.113         95.791
         3096.5       3096.500        -999.25         16.947         95.796
         3097.0       3097.000        -999.25         16.782         95.801
         3097.5       3097.500        -999.25         16.616         95.806
         3098.0       3098.000        -999.25         16.450         95.812
         3098.5       3098.500        -999.25         16.284         95.817
         3099.0       3099.000        -999.25         16.118         95.822
         3099.5       3099.500        -999.25         19.641         95.828
         3100.0       3100.000        -999.25         29.353         95.833
         3100.5       3100.500        -999.25         36.365         95.838
         3101.0       3101.000        -999.25         34.387         95.844
         3101.5       3101.500        -999.25         32.409         95.849
         3102.0       3102.000        -999.25         30.430         95.854
         3102.5       3102.500        -999.25         28.452         95.859
         3103.0       3103.000        -999.25         26.474         95.865
         3103.5       3103.500        -999.25         24.496         95.870
         3104.0       3104.000        -999.25         22.517         95.875
         3104.5       3104.500        -999.25         20.539         95.881
         3105.0       3105.000        -999.25         18.561         95.886
         3105.5       3105.500        -999.25         16.584         95.891
         3106.0       3106.000        -999.25         15.346         95.897
         3106.5       3106.500        -999.25         15.226         95.902
         3107.0       3107.000        -999.25         15.106         95.907
         3107.5       3107.500        -999.25         14.986         95.912
         3108.0       3108.000        -999.25         14.865         95.918
         3108.5       3108.500        -999.25         14.693         95.923
         3109.0       3109.000        -999.25         14.407         95.928
         3109.5       3109.500        -999.25         14.121         95.934
         3110.0       3110.000        -999.25         13.835         95.939
         3110.5       3110.500        -999.25         13.549         95.944
         3111.0       3111.000        -999.25         13.261         95.949
         3111.5       3111.500        -999.25         12.975         95.955
         3112.0       3112.000        -999.25         12.689         95.960
         3112.5       3112.500        -999.25         12.403         95.965
         3113.0       3113.000        -999.25         12.071         95.971
         3113.5       3113.500        -999.25         11.729         95.976
         3114.0       3114.000        -999.25         11.388         95.981
         3114.5       3114.500        -999.25         11.046         95.987
         3115.0       3115.000        -999.25         10.706         95.992
         3115.5       3115.500        -999.25         10.364         95.997
         3116.0       3116.000        -999.25         10.024         96.002
         3116.5       3116.500        -999.25          9.682         96.008
         3117.0       3117.000        -999.25          9.342         96.013
         3117.5       3117.500        -999.25          9.000         96.018
         3118.0       3118.000        -999.25          8.659         96.024
         3118.5       3118.500        -999.25          8.317         96.029
         3119.0       3119.000        -999.25          8.117         96.034
         3119.5       3119.500        -999.25          8.117         96.039
         3120.0       3120.000        -999.25          8.115         96.045
         3120.5       3120.500        -999.25          8.113         96.050
         3121.0       3121.000        -999.25          8.112         96.055
         3121.5       3121.500        -999.25          8.110         96.061
         3122.0       3122.000        -999.25          8.108         96.066
         3122.5       3122.500        -999.25          8.107         96.071
