#--------------------------------------------------#
#-------------------ENVERUS, INC.------------------#
#------------------WWW.ENVERUS.COM-----------------#
#------------------COPYRIGHT 2020------------------#
#--------------------------------------------------#
#THIS FILE MAY BE USED ONLY IN ACCORDANCE WITH A CURRENT SUBSCRIPTION AGREEMENT BETWEEN
#THE USER AND ENVERUS, INC. NO PART OF THIS FILE MAY BE REPRODUCED, USED, COPIED,
#MODIFIED, PROPAGATED, OR DISTRIBUTED EXCEPT IN ACCORDANCE WITH THE SUBSCRIPTION
#AGREEMENT. UNAUTHORIZED USE OR DISTRIBUTION OF ALL OR ANY PART OF THIS FILE MAY VIOLATE
#COPYRIGHT, TRADEMARK, AND/OR OTHER LAWS AND IS SUBJECT TO CIVIL AS WELL AS CRIMINAL
#SANCTIONS.
#--------------------------------------------------#
#THIS FILE IS PROVIDED "AS-IS" AND ALL WARRANTIES ARE EXPRESSLY DISCLAIMED, WHETHER
#EXPRESS, ORAL, IMPLIED, STATUTORY OR OTHERWISE, INCLUDING ANY IMPLIED WARRANTY OF FITNESS
#FOR A PARTICULAR PURPOSE, MERCHANTABILITY, TITLE OR NON-INFRINGEMENT, AND ANY WARRANTIES
#ARISING BY VIRTUE OF CUSTOM OF TRADE OR COURSE OF DEALING.  FURTHER, ENVERUS, INC.
#AND ITS LICENSORS DO NOT REPRESENT OR WARRANT THAT THIS FILE WILL MEET USER'S
#REQUIREMENTS OR ARE SUITABLE FOR USER'S NEEDS OR THAT THE DATA OR RESULTS PROVIDED IN
#CONJUNCTION THEREWITH ARE CORRECT, ACCURATE, TIMELY OR RELIABLE. THESE DISCLAIMERS SHALL
#APPLY REGARDLESS OF ANY FAILURE OF ESSENTIAL PURPOSE OF ANY LIMITED REMEDY.  SOME
#JURISDICTIONS DO NOT ALLOW THE EXCLUSION OF CERTAIN WARRANTIES SO SOME OF THE ABOVE
#EXCLUSIONS MAY NOT APPLY. IN NO EVENT SHALL ENVERUS, INC. OR ANY OF ITS AFFILIATES
#BE LIABLE UNDER ANY LEGAL THEORY, WHETHER IN TORT (INCLUDING WITHOUT LIMITATION
#NEGLIGENCE), CONTRACT, STRICT LIABILITY, STATUTORY OR OTHERWISE, FOR ANY SPECIAL,
#INCIDENTAL, CONSEQUENTIAL, EXEMPLARY, PUNITIVE OR INDIRECT DAMAGE OF ANY KIND, INCLUDING
#WITHOUT LIMITATION LOSS OF REVENUE, PROFITS, GOODWILL, USE, AND/OR DATA OR THE COST OF
#PROCUREMENT OF SUBSTITUTE GOODS OR SERVICES, EVEN IF APPRISED OF THE POSSIBILITY OF SUCH
#DAMAGES IN ADVANCE.
#--------------------------------------------------#

~VERSION INFORMATION
VERS. 2.0 : CWLS LOG ASCII STANDARD - VERSION 2.0
WRAP.  NO : ONE LINE PER DEPTH STEP
~WELL INFORMATION
#MNEMONIC     .UNIT              VALUE :DESCRIPTION
STRT       .FT                429 :START DEPTH
STOP       .FT                6365 :STOP DEPTH
STEP       .FT                   0.500 :STEP
NULL       .                  -999.99 :NULL
UWI        .                42371100750000 :UNIQUE WELL ID
API        .                42371100750000 :API NUMBER
COMP       .         :COMPANY
WELL       .        :WELL
DATE       .                 :LOG DATE
FLD       .                 :FIELD NAME
LOC       .                  UNK :LOCATION
CNTY       .                 UNK :COUNTY
STAT       .                 UNK :STATE
CTRY       .                 UNK :COUNTY
SRVC       .                 UNK :SERVICE COMPANY
~CURVE INFORMATION
#MNEMONIC     .UNIT      API CODE :CURVE DESCRIPTION
DEPTH       .FT                      :MEASURED DEPTH
DT.MSEC/FT        UNKNOWN   :DT
GR.API        UNKNOWN   :GR
~A    DEPTH    DT    GR
# ...
 830     81.52574   77.69395
 830.5     81.38312   71.75225
 831     81.24051   65.96979
 831.5     81.2591   65.66072
 832     82.0079   65.35165
 832.5     82.7567   65.25326
 833     83.5055   65.68465
 833.5     83.12645   66.34124
 834     81.33025   67.83403
 834.5     80.43318   69.32682
 835     79.53611   70.81961
 835.5     78.63905   71.13609
 836     77.74198   70.3982
 836.5     76.89204   69.66031
 837     78.84839   68.92242
 837.5     80.80474   68.89086
 838     82.76109   69.27291
 838.5     84.36188   71.1459
 839     84.79105   73.01889
 839.5     85.22022   74.89188
 840     85.95291   79.58291
 840.5     86.74238   84.21786
 841     87.07281   82.73606
 841.5     86.45971   81.25425
 842     86.59174   79.77245
 842.5     86.96079   78.29064
 843     87.32983   76.80884
 843.5     86.72467   77.04958
 844     85.53822   77.3947
 844.5     83.46531   77.73981
 845     81.3924   78.08493
 845.5     79.31949   78.43004
 846     77.24658   76.90608
 846.5     77.70409   74.75751
 847     78.65962   72.60895
 847.5     79.88896   70.46038
 848     81.9195   69.3185
 848.5     83.95005   68.74308
 849     85.98059   68.68678
 849.5     87.00465   69.13949
 850     86.5605   69.5922
 850.5     86.11635   75.57778
 851     85.67221   78.31859
 851.5     85.22806   80.47338
 852     85.70107   80.99174
 852.5     86.76615   81.51011
 853     87.83123   81.56267
 853.5     88.69071   81.16761
 854     89.12842   78.45724
 854.5     89.56614   74.93203
 855     90.00385   73.72975
 855.5     89.90631   73.16568
 856     89.61498   72.79858
 856.5     89.32365   72.90474
 857     89.03232   73.78162
 857.5     88.74099   75.28507
 858     87.93033   77.00816
 858.5     85.90003   78.9149
 859     83.86973   80.82163
 859.5     84.84568   76.01512
 860     87.59698   66.85497
 860.5     90.34828   67.81378
 861     93.09958   68.94414
 861.5     95.85088   75.56676
 862     97.40122   82.18938
 862.5     96.42959   86.75155
 863     95.45796   88.34814
 863.5     94.48632   89.94473
 864     93.51469   91.54131
 864.5     92.54306   89.76123
 865     93.16083   86.80514
 865.5     94.1461   84.04536
 866     93.9066   84.87158
 866.5     93.47765   85.69781
 867     93.04871   86.52403
 867.5     92.61976   87.35026
 868     92.21738   85.90533
 868.5     92.25247   84.02661
 869     92.28757   79.80243
 869.5     92.32266   76.03404
 870     92.35775   75.68092
 870.5     92.39285   75.3278
 871     92.3731   76.59269
 871.5     92.26635   78.75588
 872     92.15961   80.91907
 872.5     92.05286   81.9644
 873     91.54684   81.05483
 873.5     90.62514   80.14525
 874     88.83612   77.77641
 874.5     86.10229   74.80023
 875     83.36845   71.68075
 875.5     80.63462   67.1464
 876     77.90078   62.64759
 876.5     75.16695   61.31126
 877     72.43312   61.40826
 877.5     71.27846   61.50526
 878     71.86498   61.60227
 878.5     72.45151   62.65905
 879     73.03804   64.53697
 879.5     73.62456   67.30545
 880     74.00916   70.78615
 880.5     74.24342   72.47133
 881     74.47768   74.11519
 881.5     75.2622   75.75904
 882     79.8547   77.4029
 882.5     80.56009   76.94421
 883     81.26548   76.45054
 883.5     81.97087   75.95688
 884     82.63226   74.83507
 884.5     82.35764   72.42526
 885     82.08302   69.52576
 885.5     81.80839   66.62625
 886     82.74448   63.72675
 886.5     84.01627   60.82724
 887     83.98334   58.78418
 887.5     83.48111   60.17688
 888     82.97889   61.68944
 888.5     82.50973   63.202
 889     82.85607   64.71455
 889.5     83.20241   64.98243
 890     83.54875   64.48898
 890.5     83.8951   62.91798
 891     82.5618   61.14751
 891.5     81.03163   59.78277
 892     78.53515   59.61988
 892.5     75.28633   59.79142
 893     72.0375   61.95805
 893.5     71.42317   63.88839
 894     71.32093   65.58865
 894.5     71.21868   67.28891
 895     71.11644   68.98917
 895.5     71.01419   70.84396
 896     70.91195   72.72513
 896.5     70.49597   73.83008
 897     69.95961   72.08112
 897.5     69.42325   70.33216
 898     68.88689   68.58319
 898.5     68.35054   67.9184
 899     67.81418   68.30725
 899.5     69.4092   68.62917
 900     71.11048   68.70661
 900.5     74.90572   68.79416
 901     79.45171   68.90046
 901.5     83.99771   69.00676
 902     88.5437   69.11306
 902.5     92.63275   70.73722
 903     94.84263   72.59711
 903.5     96.75934   74.457
 904     98.46638   76.31689
 904.5     100.17343   76.68876
 905     99.74408   75.95225
 905.5     98.18098   75.21573
 906     96.61787   74.47922
 906.5     95.05477   74.1944
 907     93.49166   73.9126
 907.5     91.92855   73.20552
 908     91.95495   72.07583
 908.5     93.06277   70.50125
 909     94.17059   68.92668
 909.5     95.27842   67.84167
 910     96.38624   67.25054
 910.5     97.51252   68.84759
 911     98.68674   71.30908
 911.5     99.86096   73.77058
 912     101.94025   76.23208
 912.5     102.34886   77.70689
 913     102.75746   78.65649
 913.5     103.16606   77.74874
 914     103.22558   76.84098
 914.5     102.05407   75.59759
 915     100.88255   74.15384
 915.5     99.70021   73.1396
 916     98.49164   72.70107
 916.5     97.28307   72.26254
 917     96.0745   71.75353
 917.5     94.86593   71.01688
 918     93.65736   70.24132
 918.5     92.44879   69.06391
 919     91.24022   67.88651
 919.5     90.1631   66.7091
 920     91.27333   65.53169
 920.5     92.38357   64.35647
 921     93.4938   66.43151
 921.5     93.89339   68.50656
 922     94.02337   70.5816
 922.5     94.15334   72.47641
 923     94.28331   71.92213
 923.5     94.41329   71.36785
 924     94.54326   70.81357
 924.5     95.59885   70.25929
 925     96.67435   69.70501
 925.5     97.74986   71.48631
 926     98.35924   77.18813
 926.5     98.73663   80.6754
 927     99.11401   82.01865
 927.5     99.4914   81.68967
 928     100.1101   81.01798
 928.5     100.96712   78.60661
 929     101.87891   74.17092
 929.5     102.56385   68.81669
 930     102.59711   68.17941
 930.5     102.63037   67.82698
 931     102.66362   67.49158
 931.5     102.69688   67.17465
 932     102.73014   66.85771
 932.5     102.76339   66.54078
 933     102.79665   66.22385
 933.5     103.27413   66.03427
 934     104.5759   65.95521
 934.5     105.87767   66.36429
 935     107.17944   66.88527
 935.5     108.48121   62.74137
 936     109.78298   63.54959
 936.5     110.18611   64.35782
 937     106.90204   65.16604
 937.5     104.1993   65.62459
 938     103.40584   65.70236
 938.5     102.61237   65.71815
 939     101.81891   64.14599
 939.5     101.02545   62.57383
 940     101.37939   61.78976
 940.5     102.36016   61.94014
 941     103.34093   62.12155
 941.5     104.3217   63.67856
 942     104.33746   65.23557
 942.5     104.01002   66.79257
 943     103.68259   68.33716
 943.5     103.35515   69.49815
 944     103.47536   70.31702
 944.5     103.61687   70.49204
 945     103.68671   70.66707
 945.5     102.876   70.8421
 946     102.06529   70.81365
 946.5     101.25458   69.83876
 947     100.44387   68.86387
 947.5     100.26785   67.88898
 948     100.1439   66.37625
 948.5     99.95566   66.33709
 949     99.76743   68.1298
 949.5     99.5792   70.13791
 950     98.79272   72.38614
 950.5     97.4042   74.63438
 951     96.01569   76.11626
 951.5     94.67573   77.48299
 952     93.54743   78.26358
 952.5     93.52901   78.52436
 953     93.92907   78.78514
 953.5     94.55929   79.04593
 954     95.64732   78.72668
 954.5     96.73535   77.42403
 955     97.82338   76.12137
 955.5     98.91141   74.81872
 956     98.92335   74.2911
 956.5     98.4207   74.06787
 957     97.91806   73.84464
 957.5     97.41541   73.62141
 958     95.98864   72.68366
 958.5     94.5464   71.63993
 959     93.10416   71.31149
 959.5     91.66192   70.98306
 960     90.21968   70.65462
 960.5     88.77743   69.775
 961     91.43588   68.70619
 961.5     94.59449   65.74656
 962     97.7531   64.21533
 962.5     97.2393   64.13648
 963     95.97982   65.08795
 963.5     94.72033   67.62853
