###############################################
##         ENVERUS                           ##
##         ESS - Open Hole                   ##
##         PERMIAN / DELAWARE                ##
##         Nov 04 2023  V4.0                 ##
##         42-389-10116-00-00                ##
###############################################
## Copyright 2017-2023  ENVERUS.  All Rights Reserved. 
## Confidential - Property of ENVERUS, use governed by terms and 
## conditions found within the existing Information Services Subscription Agreement 
## (as may be amended, the “ISSA”) between Customer and ENVERUS. 
## 
~VERSION INFORMATION
# MNEM.UNIT                               DATA : DESCRIPTION OF MNEMONIC
#-----.-----     ----------------------------- : -----------------------------
VERS.                                     2.00 : CWLS LOG ASCII STANDARD - VERSION 2.00
WRAP.                                       NO : MULTIPLE LINES PER DEPTH STEP
VEND.                                  ENVERUS : VENDOR
TYPE.                          ESS - OPEN HOLE : ENVERUS ESSENTIAL CURVES – ACCESSIBLE THROUGH ENVERUS PRISM(TM)
DOC.                                  31818149 : ENVERUS HEADER RAW DOCUMENT ID
#___________________________________________________________________________________________________ 
~WELL INFORMATION 
# kxSJJvG4Ro99GqojvmaAoFb8nmZsGWyMBdB6Op61yYkHZj6VRdx+Ef4kBXz5Syac/VH6awax3Ll89xsC2rvs8g== 
# MNEM.UNIT                                              DATA : DESCRIPTION OF MNEMONIC 
#-----.-----                    ----------------------------- : ----------------------------- 
CNTY.                                                  REEVES : COUNTY 
STATE.                                                  TEXAS : STATE 
CNTRY.                                                    USA : COUNTRY 
API.                                             42-389-10116 : API (10 Digit) 
API_14.                                    42-389-10116-00-00 : API (14 Digits) 
API_14_std.                                 42-389-10116-0000 : API (14 Digits Standard) 
UWI.                                           42389101160000 : UNIQUE WELL ID 
WELL.                                            WOODS -A-  1 : WELL NAME
STRT.FT                                                 107.0 : START DEPTH
STOP.FT                                                5258.0 : STOP DEPTH
STEP.FT                                                   0.5 : STEP BETWEEN DEPTHS
NULL.                                                 -999.25 : NULL VALUE
COMP.                              PHILLIPS PETROLEUM COMPANY : COMPANY
#___________________________________________________________________________________________________ 
~CURVE INFORMATION 
# MNEM.UNIT           : CURVE DESCRIPTION 
#-----.-----          : ----------------------------- 
 DEPT.FT               : MEASURED DEPTH 
 GR.API                : GAMMA RAY (GR) 
 DT.US/FT              : SONIC DELTA TRANSIT TIME (DT) 
 #___________________________________________________________________________________________________ 
~A         DEPT             GR             DT
# ...
         1760.0         44.673         51.592
         1760.5         40.043         52.367
         1761.0         35.414         52.527
         1761.5         30.785         52.092
         1762.0         26.155         54.264
         1762.5         21.457         56.870
         1763.0         16.736         59.475
         1763.5         12.112         58.186
         1764.0         10.439         53.233
         1764.5          8.793         53.059
         1765.0          9.588         53.282
         1765.5         10.383         53.505
         1766.0         11.178         53.742
         1766.5         11.973         58.753
         1767.0         11.829         76.853
         1767.5         11.298         72.256
         1768.0         10.767         57.838
         1768.5         10.236         52.198
         1769.0          9.705         51.952
         1769.5          9.562         51.706
         1770.0         10.357         52.615
         1770.5         11.152         60.119
         1771.0         11.946         60.444
         1771.5         12.741         59.980
         1772.0         12.029         58.194
         1772.5         11.300         56.409
         1773.0         10.571         54.929
         1773.5          9.842         53.556
         1774.0          9.151         52.502
         1774.5          9.307         58.075
         1775.0          9.464         63.647
         1775.5          9.620         70.988
         1776.0          9.776         68.700
         1776.5          9.932         66.508
         1777.0         10.089         66.507
         1777.5         10.245         66.506
         1778.0         10.401         75.180
         1778.5         10.557         75.139
         1779.0         10.277         75.097
         1779.5          9.172         71.681
         1780.0          8.067         66.750
         1780.5          6.962         65.858
         1781.0          6.962         64.966
         1781.5          7.150         64.709
         1782.0          7.339         66.750
         1782.5          7.527         67.569
         1783.0          7.715         67.385
         1783.5          7.665         67.201
         1784.0          7.401         67.016
         1784.5          7.137         66.459
         1785.0          6.873         65.744
         1785.5          6.609         65.030
         1786.0          6.504         66.014
         1786.5          7.356         66.115
         1787.0          7.673         64.139
         1787.5          7.770         62.779
         1788.0          7.866         64.473
         1788.5          7.963         66.167
         1789.0          8.060         67.861
         1789.5          8.761         69.476
         1790.0         10.493         71.084
         1790.5          9.165         71.590
         1791.0          7.724         68.138
         1791.5          7.767         69.181
         1792.0          7.882         70.225
         1792.5          7.996         69.728
         1793.0          8.111         69.130
         1793.5          8.226         68.531
         1794.0          8.341         67.932
         1794.5          8.455         68.036
         1795.0          8.570         68.418
         1795.5          8.685         68.287
         1796.0          8.799         67.962
         1796.5          8.914         67.636
         1797.0          8.943         67.311
         1797.5          8.949         66.985
         1798.0          8.955         69.678
         1798.5          8.961         70.817
         1799.0          8.744         70.011
         1799.5          8.502         69.205
         1800.0          8.260         68.399
         1800.5          9.099         67.593
         1801.0          9.976         66.788
         1801.5         10.853         69.825
         1802.0         11.730         71.922
         1802.5         12.607         70.388
         1803.0         13.484         68.853
         1803.5         14.865         67.319
         1804.0         17.511         65.785
         1804.5         20.157         64.289
         1805.0         21.739         64.757
         1805.5         22.377         65.225
         1806.0         20.650         65.692
         1806.5         17.421         66.099
         1807.0         14.192         62.384
         1807.5         10.963         58.669
         1808.0         10.245         54.953
         1808.5          9.688         49.828
         1809.0          9.132         51.642
         1809.5          9.612         53.457
         1810.0         11.166         55.271
         1810.5         12.719         57.085
         1811.0         14.513         62.767
         1811.5         17.271         57.228
         1812.0         20.028         62.448
         1812.5         17.418         65.291
         1813.0         14.274         59.044
         1813.5         12.031         52.798
         1814.0         11.966         55.263
         1814.5         11.901         59.676
         1815.0         11.836         64.089
         1815.5         10.880         68.012
         1816.0          9.805         70.381
         1816.5          8.730         69.814
         1817.0          7.655         69.248
         1817.5          7.071         68.681
         1818.0          7.235         68.115
         1818.5          7.399         67.548
         1819.0          7.563         66.982
         1819.5          7.727         66.904
         1820.0          7.891         68.603
         1820.5          8.055         70.234
         1821.0          8.218         70.364
         1821.5          8.382         70.494
         1822.0          8.481         70.625
         1822.5          8.294         70.755
         1823.0          8.107         67.927
         1823.5          7.920         66.731
         1824.0          7.733         67.074
         1824.5          7.546         67.417
         1825.0          7.577         67.760
         1825.5          7.551         68.103
         1826.0          7.511         68.446
         1826.5          7.472         68.292
         1827.0          7.433         68.121
         1827.5          7.393         67.949
         1828.0          7.621         67.778
         1828.5          8.131         67.704
         1829.0          8.641         68.171
         1829.5          8.495         68.638
         1830.0          7.910         68.673
         1830.5          7.516         68.473
         1831.0          8.334         68.274
         1831.5          9.152         68.075
         1832.0          9.970         67.531
         1832.5         10.788         66.905
         1833.0         11.086         66.278
         1833.5         10.453         65.750
         1834.0          9.821         66.781
         1834.5          9.188         67.812
         1835.0          8.555         68.842
         1835.5          8.163         68.729
         1836.0          8.101         68.462
         1836.5          8.038         68.864
         1837.0          7.975         68.782
         1837.5          7.912         68.700
         1838.0          7.849         68.618
         1838.5          7.787         68.509
         1839.0          7.724         68.251
         1839.5          7.661         67.993
         1840.0          7.598         67.735
         1840.5          7.536         67.477
         1841.0          7.473         67.450
         1841.5          7.410         67.816
         1842.0          7.347         68.183
         1842.5          7.607         68.550
         1843.0          8.632         68.582
         1843.5          9.658         68.084
         1844.0         10.080         68.480
         1844.5          9.744         68.901
         1845.0          9.407         68.946
         1845.5          9.070         68.576
         1846.0          8.734         68.205
         1846.5          8.397         67.835
