###############################################
##         ENVERUS                           ##
##         Petrophysical Curves              ##
##         PERMIAN / DELAWARE                ##
##         Jan 21 2022                       ##
##         42-389-10491-00-00                ##
###############################################
## Copyright 2017-2022  ENVERUS.  All Rights Reserved. 
## Confidential - Property of ENVERUS, use governed by terms and 
## conditions found within the existing Information Services Subscription Agreement 
## (as may be amended, the “ISSA”) between Customer and ENVERUS. 
## 
~VERSION INFORMATION
# MNEM.UNIT                               DATA : DESCRIPTION OF MNEMONIC
#-----.-----     ----------------------------- : -----------------------------
VERS.                                     2.00 : CWLS LOG ASCII STANDARD - VERSION 2.00
WRAP.                                       NO : MULTIPLE LINES PER DEPTH STEP
VEND.                                  ENVERUS : VENDOR
TYPE.                     PETROPHYSICAL CURVES : ENVERUS PETROPHYSICAL CURVES - ACCESSIBLE THROUGH ENVERUS CORE(TM)
#___________________________________________________________________________________________________ 
~WELL INFORMATION 
# uyaQ8P8kQDJ9DXFS5hR1PxmExEOYaAUkY5f3/tnOS+scoPAUWgXA1zCIHGRbWCuSuUcwDzaESCjqjWQ81XhadA== 
# MNEM.UNIT                                              DATA : DESCRIPTION OF MNEMONIC 
#-----.-----                    ----------------------------- : ----------------------------- 
CNTY.                                                  REEVES : COUNTY 
STATE.                                                  TEXAS : STATE 
CNTRY.                                                    USA : COUNTRY 
API.                                             42-389-10491 : API (10 Digit) 
API_14.                                    42-389-10491-00-00 : API (14 Digits) 
API_14_std.                                 42-389-10491-0000 : API (14 Digits Standard) 
UWI.                                           42389104910000 : UNIQUE WELL ID
STRT.FT                                                 102.0 : START DEPTH
STOP.FT                                                9071.0 : STOP DEPTH
STEP.FT                                                   0.5 : STEP BETWEEN DEPTHS
NULL.                                                 -999.25 : NULL VALUE
COMP.                                FLAT CREEK RESOURCES LLC : COMPANY 
WELL.                                         REEVES-AW-FEE 1 : WELL NAME 
FLD.                                                     TORO : FIELD NAME
#___________________________________________________________________________________________________ 
~CURVE INFORMATION 
#    Zone Description
#          1 = Upper Avalon
#          2 = Middle Avalon
#          3 = Lower Avalon
#          4 = 1st Bone Spring
#          5 = 2nd Bone Spring
#          6 = 2nd Bone Spring Sand
#          7 = 3rd Bone Spring
#          8 = 3rd Bone Spring Sand
#          9 = Wolfcamp XY
#          10 = Wolfcamp A Upper
#          11 = Wolfcamp A Lower
#          12 = Wolfcamp B Upper
#          13 = Wolfcamp B Lower
#          14 = Wolfcamp C
#          15 = Wolfcamp D
#          16 = Pennsylvanian Shale
#          17 = Lower Pennsylvanian Shale
#          18 = Barnett
#          19 = Barnett Lower
#          20 = Mississippian Lime
#          21 = Woodford
#          22 = Base Woodford 
# MNEM.UNIT           : CURVE DESCRIPTION 
#-----.-----          : ----------------------------- 
 DEPT.FT               : MEASURED DEPTH 
 TVD_I.FT              : ENVERUS TRUE VERTICAL DEPTH 
 ZONE_I.               : ENVERUS DEFINED ZONE CODE 
 GR_N_I.API            : ENVERUS NORMALIZED GAMMA RAY LEVERAGED IN GEOLOGICAL MODELLING 
 TEMP_I.DEGF           : ENVERUS INTERPRETED TEMPERATURE DERIVED FROM BOTTOM HOLE TEMPERATURES 
 #___________________________________________________________________________________________________ 
~A         DEPT          TVD_I         ZONE_I         GR_N_I         TEMP_I
          102.0        102.000        -999.25         10.660       -999.250
          102.5        102.500        -999.25         13.988       -999.250
          103.0        103.000        -999.25         25.234         64.091
          103.5        103.500        -999.25         40.157         64.096
          104.0        104.000        -999.25         57.524         64.102
          104.5        104.500        -999.25         92.136         64.107
          105.0        105.000        -999.25        126.748         64.112
          105.5        105.500        -999.25        154.479         64.117
          106.0        106.000        -999.25        150.507         64.123
          106.5        106.500        -999.25        146.535         64.128
          107.0        107.000        -999.25        142.565         64.133
          107.5        107.500        -999.25        138.593         64.139
          108.0        108.000        -999.25        135.001         64.144
          108.5        108.500        -999.25        138.327         64.149
          109.0        109.000        -999.25        141.653         64.154
          109.5        109.500        -999.25        144.978         64.160
          110.0        110.000        -999.25        148.304         64.165
          110.5        110.500        -999.25        146.871         64.170
          111.0        111.000        -999.25        144.835         64.176
          111.5        111.500        -999.25        142.798         64.181
          112.0        112.000        -999.25        140.763         64.186
          112.5        112.500        -999.25        138.728         64.192
          113.0        113.000        -999.25        137.135         64.197
          113.5        113.500        -999.25        138.626         64.202
          114.0        114.000        -999.25        140.119         64.207
          114.5        114.500        -999.25        141.611         64.213
          115.0        115.000        -999.25        143.103         64.218
          115.5        115.500        -999.25        144.595         64.223
          116.0        116.000        -999.25        146.088         64.229
          116.5        116.500        -999.25        147.579         64.234
          117.0        117.000        -999.25        149.072         64.239
          117.5        117.500        -999.25        150.284         64.245
          118.0        118.000        -999.25        151.459         64.250
          118.5        118.500        -999.25        152.636         64.255
          119.0        119.000        -999.25        153.812         64.260
          119.5        119.500        -999.25        154.877         64.266
          120.0        120.000        -999.25        155.459         64.271
          120.5        120.500        -999.25        156.040         64.276
          121.0        121.000        -999.25        156.622         64.282
          121.5        121.500        -999.25        157.202         64.287
          122.0        122.000        -999.25        157.784         64.292
          122.5        122.500        -999.25        151.946         64.297
          123.0        123.000        -999.25        145.534         64.303
          123.5        123.500        -999.25        139.124         64.308
          124.0        124.000        -999.25        133.977         64.313
          124.5        124.500        -999.25        129.858         64.319
          125.0        125.000        -999.25        125.738         64.324
          125.5        125.500        -999.25        126.447         64.329
          126.0        126.000        -999.25        129.171         64.335
          126.5        126.500        -999.25        131.894         64.340
          127.0        127.000        -999.25        134.618         64.345
          127.5        127.500        -999.25        137.342         64.350
          128.0        128.000        -999.25        140.066         64.356
          128.5        128.500        -999.25        142.789         64.361
          129.0        129.000        -999.25        142.823         64.366
          129.5        129.500        -999.25        140.974         64.372
          130.0        130.000        -999.25        139.126         64.377
          130.5        130.500        -999.25        137.276         64.382
          131.0        131.000        -999.25        135.427         64.388
          131.5        131.500        -999.25        133.577         64.393
          132.0        132.000        -999.25        131.540         64.398
          132.5        132.500        -999.25        128.915         64.403
          133.0        133.000        -999.25        126.289         64.409
          133.5        133.500        -999.25        123.663         64.414
          134.0        134.000        -999.25        119.718         64.419
          134.5        134.500        -999.25        114.258         64.425
          135.0        135.000        -999.25        110.943         64.430
          135.5        135.500        -999.25        111.920         64.435
          136.0        136.000        -999.25        112.897         64.440
          136.5        136.500        -999.25        113.873         64.446
          137.0        137.000        -999.25        114.850         64.451
          137.5        137.500        -999.25        115.826         64.456
          138.0        138.000        -999.25        116.803         64.462
          138.5        138.500        -999.25        117.779         64.467
          139.0        139.000        -999.25        118.756         64.472
          139.5        139.500        -999.25        119.733         64.478
          140.0        140.000        -999.25        120.709         64.483
          140.5        140.500        -999.25        120.714         64.488
          141.0        141.000        -999.25        117.917         64.493
          141.5        141.500        -999.25        115.121         64.499
          142.0        142.000        -999.25        112.326         64.504
          142.5        142.500        -999.25        109.530         64.509
          143.0        143.000        -999.25        106.735         64.515
          143.5        143.500        -999.25        103.938         64.520
          144.0        144.000        -999.25        101.142         64.525
          144.5        144.500        -999.25         92.445         64.530
          145.0        145.000        -999.25         83.340         64.536
          145.5        145.500        -999.25         74.235         64.541
          146.0        146.000        -999.25         65.131         64.546
          146.5        146.500        -999.25         56.026         64.552
          147.0        147.000        -999.25         46.919         64.557
          147.5        147.500        -999.25         41.489         64.562
          148.0        148.000        -999.25         46.706         64.568
          148.5        148.500        -999.25         51.921         64.573
          149.0        149.000        -999.25         56.202         64.578
          149.5        149.500        -999.25         55.985         64.583
          150.0        150.000        -999.25         55.769         64.589
          150.5        150.500        -999.25         56.123         64.594
          151.0        151.000        -999.25         57.574         64.599
          151.5        151.500        -999.25         59.025         64.605
          152.0        152.000        -999.25         60.475         64.610
          152.5        152.500        -999.25         61.925         64.615
          153.0        153.000        -999.25         62.890         64.621
          153.5        153.500        -999.25         61.824         64.626
          154.0        154.000        -999.25         60.757         64.631
          154.5        154.500        -999.25         57.602         64.636
