###############################################
##         ENVERUS                           ##
##         Petrophysical Curves              ##
##         PERMIAN / DELAWARE                ##
##         Jan 21 2022                       ##
##         42-389-10508-00-00                ##
###############################################
## Copyright 2017-2022  ENVERUS.  All Rights Reserved. 
## Confidential - Property of ENVERUS, use governed by terms and 
## conditions found within the existing Information Services Subscription Agreement 
## (as may be amended, the “ISSA”) between Customer and ENVERUS. 
## 
~VERSION INFORMATION
# MNEM.UNIT                               DATA : DESCRIPTION OF MNEMONIC
#-----.-----     ----------------------------- : -----------------------------
VERS.                                     2.00 : CWLS LOG ASCII STANDARD - VERSION 2.00
WRAP.                                       NO : MULTIPLE LINES PER DEPTH STEP
VEND.                                  ENVERUS : VENDOR
TYPE.                     PETROPHYSICAL CURVES : ENVERUS PETROPHYSICAL CURVES - ACCESSIBLE THROUGH ENVERUS CORE(TM)
#___________________________________________________________________________________________________ 
~WELL INFORMATION 
# uyaQ8P8kQDJ9DXFS5hR1PxmExEOYaAUkY5f3/tnOS+scoPAUWgXA1zCIHGRbWCuSuUcwDzaESCjqjWQ81XhadA== 
# MNEM.UNIT                                              DATA : DESCRIPTION OF MNEMONIC 
#-----.-----                    ----------------------------- : ----------------------------- 
CNTY.                                                  REEVES : COUNTY 
STATE.                                                  TEXAS : STATE 
CNTRY.                                                    USA : COUNTRY 
API.                                             42-389-10508 : API (10 Digit) 
API_14.                                    42-389-10508-00-00 : API (14 Digits) 
API_14_std.                                 42-389-10508-0000 : API (14 Digits Standard) 
UWI.                                           42389105080000 : UNIQUE WELL ID
STRT.FT                                               11776.0 : START DEPTH
STOP.FT                                               33299.5 : STOP DEPTH
STEP.FT                                                   0.5 : STEP BETWEEN DEPTHS
NULL.                                                 -999.25 : NULL VALUE
COMP.                                                  SABINE : COMPANY 
WELL.                                                       1 : WELL NAME 
FLD.                                         ROJO CABALLOS W. : FIELD NAME
#___________________________________________________________________________________________________ 
~CURVE INFORMATION 
#    Zone Description
#          1 = Upper Avalon
#          2 = Middle Avalon
#          3 = Lower Avalon
#          4 = 1st Bone Spring
#          5 = 2nd Bone Spring
#          6 = 2nd Bone Spring Sand
#          7 = 3rd Bone Spring
#          8 = 3rd Bone Spring Sand
#          9 = Wolfcamp XY
#          10 = Wolfcamp A Upper
#          11 = Wolfcamp A Lower
#          12 = Wolfcamp B Upper
#          13 = Wolfcamp B Lower
#          14 = Wolfcamp C
#          15 = Wolfcamp D
#          16 = Pennsylvanian Shale
#          17 = Lower Pennsylvanian Shale
#          18 = Barnett
#          19 = Barnett Lower
#          20 = Mississippian Lime
#          21 = Woodford
#          22 = Base Woodford 
# MNEM.UNIT           : CURVE DESCRIPTION 
#-----.-----          : ----------------------------- 
 DEPT.FT               : MEASURED DEPTH 
 TVD_I.FT              : ENVERUS TRUE VERTICAL DEPTH 
 ZONE_I.               : ENVERUS DEFINED ZONE CODE 
 GR_N_I.API            : ENVERUS NORMALIZED GAMMA RAY LEVERAGED IN GEOLOGICAL MODELLING 
 TEMP_I.DEGF           : ENVERUS INTERPRETED TEMPERATURE DERIVED FROM BOTTOM HOLE TEMPERATURES 
 #___________________________________________________________________________________________________ 
~A         DEPT          TVD_I         ZONE_I         GR_N_I         TEMP_I
# ...
        26086.0      26085.998          22.00         40.777        221.274
        26086.5      26086.498          22.00         40.621        221.280
        26087.0      26086.998          22.00         37.459        221.285
        26087.5      26087.500          22.00         34.297        221.291
        26088.0      26088.000          22.00         32.354        221.296
        26088.5      26088.500          22.00         32.053        221.302
        26089.0      26089.000          22.00         33.453        221.308
        26089.5      26089.500          22.00         34.853        221.313
        26090.0      26090.000          22.00         36.220        221.319
        26090.5      26090.500          22.00         37.222        221.324
        26091.0      26091.000          22.00         38.225        221.330
        26091.5      26091.498          22.00         38.314        221.335
        26092.0      26092.000          22.00         37.850        221.341
        26092.5      26092.500          22.00         37.387        221.346
        26093.0      26093.000          22.00         36.923        221.352
        26093.5      26093.500          22.00         36.460        221.357
        26094.0      26094.000          22.00         37.106        221.363
        26094.5      26094.500          22.00         38.054        221.368
        26095.0      26095.000          22.00         39.001        221.374
        26095.5      26095.500          22.00         39.931        221.379
        26096.0      26096.002          22.00         40.673        221.385
        26096.5      26096.500          22.00         41.415        221.391
        26097.0      26097.000          22.00         42.158        221.396
        26097.5      26097.500          22.00         42.900        221.402
        26098.0      26098.000          22.00         43.642        221.407
        26098.5      26098.500          22.00         43.629        221.413
        26099.0      26099.000          22.00         42.867        221.418
        26099.5      26099.500          22.00         42.105        221.424
        26100.0      26100.000          22.00         41.319        221.429
        26100.5      26100.502          22.00         40.515        221.435
        26101.0      26101.002          22.00         39.710        221.440
        26101.5      26101.500          22.00         39.899        221.446
        26102.0      26102.000          22.00         40.127        221.451
        26102.5      26102.500          22.00         40.354        221.457
        26103.0      26102.998          22.00         40.582        221.462
        26103.5      26103.498          22.00         40.810        221.468
        26104.0      26103.998          22.00         40.637        221.473
        26104.5      26104.498          22.00         40.428        221.479
        26105.0      26105.000          22.00         39.885        221.485
        26105.5      26105.500          22.00         38.749        221.490
        26106.0      26106.000          22.00         37.613        221.496
        26106.5      26106.500          22.00         36.478        221.501
        26107.0      26107.000          22.00         35.342        221.507
        26107.5      26107.500          22.00         35.564        221.512
        26108.0      26108.000          22.00         36.245        221.518
        26108.5      26108.500          22.00         36.927        221.523
        26109.0      26109.000          22.00         37.628        221.529
        26109.5      26109.500          22.00         38.370        221.534
        26110.0      26110.000          22.00         39.111        221.540
        26110.5      26110.500          22.00         39.853        221.545
        26111.0      26111.000          22.00         40.595        221.551
        26111.5      26111.500          22.00         41.337        221.556
        26112.0      26112.000          22.00         41.120        221.562
        26112.5      26112.500          22.00         40.564        221.567
        26113.0      26113.000          22.00         40.009        221.573
        26113.5      26113.502          22.00         39.702        221.579
        26114.0      26114.002          22.00         40.505        221.584
        26114.5      26114.502          22.00         41.307        221.590
        26115.0      26115.000          22.00         42.109        221.595
        26115.5      26115.500          22.00         42.258        221.601
        26116.0      26116.000          22.00         41.662        221.606
        26116.5      26116.500          22.00         41.067        221.612
        26117.0      26117.000          22.00         40.471        221.617
        26117.5      26117.500          22.00         39.876        221.623
        26118.0      26118.000          22.00         40.231        221.628
        26118.5      26118.500          22.00         41.192        221.634
        26119.0      26119.000          22.00         41.818        221.639
        26119.5      26119.500          22.00         42.039        221.645
        26120.0      26120.000          22.00         42.259        221.650
        26120.5      26120.500          22.00         42.480        221.656
        26121.0      26121.000          22.00         39.058        221.662
        26121.5      26121.498          22.00         38.710        221.667
        26122.0      26122.000          22.00         40.839        221.673
        26122.5      26122.500          22.00         42.569        221.678
        26123.0      26123.000          22.00         42.428        221.684
        26123.5      26123.500          22.00         42.301        221.689
        26124.0      26124.000          22.00         42.214        221.695
        26124.5      26124.500          22.00         42.127        221.700
        26125.0      26125.000          22.00         41.965        221.706
        26125.5      26125.500          22.00         40.882        221.711
        26126.0      26126.000          22.00         39.800        221.717
        26126.5      26126.500          22.00         39.931        221.722
        26127.0      26127.000          22.00         40.412        221.728
        26127.5      26127.500          22.00         41.290        221.733
        26128.0      26128.000          22.00         42.214        221.739
        26128.5      26128.500          22.00         43.138        221.745
        26129.0      26129.000          22.00         42.882        221.750
        26129.5      26129.500          22.00         42.353        221.756
        26130.0      26130.000          22.00         41.823        221.761
        26130.5      26130.500          22.00         40.061        221.767
        26131.0      26131.002          22.00         38.147        221.772
        26131.5      26131.502          22.00         39.157        221.778
        26132.0      26132.002          22.00         40.167        221.783
        26132.5      26132.500          22.00         41.177        221.789
        26133.0      26133.000          22.00         42.187        221.794
        26133.5      26133.498          22.00         43.197        221.800
        26134.0      26133.998          22.00         44.110        221.805
        26134.5      26134.498          22.00         42.542        221.811
        26135.0      26135.000          22.00         40.974        221.816
        26135.5      26135.500          22.00         40.728        221.822
        26136.0      26136.000          22.00         41.041        221.827
        26136.5      26136.500          22.00         41.354        221.833
        26137.0      26137.000          22.00         41.668        221.839
        26137.5      26137.500          22.00         41.035        221.844
        26138.0      26138.000          22.00         39.804        221.850
        26138.5      26138.500          22.00         38.574        221.855
