#--------------------------------------------------#
#-------------------ENVERUS, INC.------------------#
#------------------WWW.ENVERUS.COM-----------------#
#------------------COPYRIGHT 2020------------------#
#--------------------------------------------------#
#THIS FILE MAY BE USED ONLY IN ACCORDANCE WITH A CURRENT SUBSCRIPTION AGREEMENT BETWEEN
#THE USER AND ENVERUS, INC. NO PART OF THIS FILE MAY BE REPRODUCED, USED, COPIED,
#MODIFIED, PROPAGATED, OR DISTRIBUTED EXCEPT IN ACCORDANCE WITH THE SUBSCRIPTION
#AGREEMENT. UNAUTHORIZED USE OR DISTRIBUTION OF ALL OR ANY PART OF THIS FILE MAY VIOLATE
#COPYRIGHT, TRADEMARK, AND/OR OTHER LAWS AND IS SUBJECT TO CIVIL AS WELL AS CRIMINAL
#SANCTIONS.
#--------------------------------------------------#
#THIS FILE IS PROVIDED "AS-IS" AND ALL WARRANTIES ARE EXPRESSLY DISCLAIMED, WHETHER
#EXPRESS, ORAL, IMPLIED, STATUTORY OR OTHERWISE, INCLUDING ANY IMPLIED WARRANTY OF FITNESS
#FOR A PARTICULAR PURPOSE, MERCHANTABILITY, TITLE OR NON-INFRINGEMENT, AND ANY WARRANTIES
#ARISING BY VIRTUE OF CUSTOM OF TRADE OR COURSE OF DEALING.  FURTHER, ENVERUS, INC.
#AND ITS LICENSORS DO NOT REPRESENT OR WARRANT THAT THIS FILE WILL MEET USER'S
#REQUIREMENTS OR ARE SUITABLE FOR USER'S NEEDS OR THAT THE DATA OR RESULTS PROVIDED IN
#CONJUNCTION THEREWITH ARE CORRECT, ACCURATE, TIMELY OR RELIABLE. THESE DISCLAIMERS SHALL
#APPLY REGARDLESS OF ANY FAILURE OF ESSENTIAL PURPOSE OF ANY LIMITED REMEDY.  SOME
#JURISDICTIONS DO NOT ALLOW THE EXCLUSION OF CERTAIN WARRANTIES SO SOME OF THE ABOVE
#EXCLUSIONS MAY NOT APPLY. IN NO EVENT SHALL ENVERUS, INC. OR ANY OF ITS AFFILIATES
#BE LIABLE UNDER ANY LEGAL THEORY, WHETHER IN TORT (INCLUDING WITHOUT LIMITATION
#NEGLIGENCE), CONTRACT, STRICT LIABILITY, STATUTORY OR OTHERWISE, FOR ANY SPECIAL,
#INCIDENTAL, CONSEQUENTIAL, EXEMPLARY, PUNITIVE OR INDIRECT DAMAGE OF ANY KIND, INCLUDING
#WITHOUT LIMITATION LOSS OF REVENUE, PROFITS, GOODWILL, USE, AND/OR DATA OR THE COST OF
#PROCUREMENT OF SUBSTITUTE GOODS OR SERVICES, EVEN IF APPRISED OF THE POSSIBILITY OF SUCH
#DAMAGES IN ADVANCE.
#--------------------------------------------------#

~VERSION INFORMATION
VERS. 2.0 : CWLS LOG ASCII STANDARD - VERSION 2.0
WRAP.  NO : ONE LINE PER DEPTH STEP
~WELL INFORMATION
#MNEMONIC     .UNIT              VALUE :DESCRIPTION
STRT       .FT                102 :START DEPTH
STOP       .FT                9071 :STOP DEPTH
STEP       .FT                   0.500 :STEP
NULL       .                  -999.99 :NULL
UWI        .                42389104910000 :UNIQUE WELL ID
API        .                42389104910000 :API NUMBER
COMP       .         :COMPANY
WELL       .        :WELL
DATE       .                 :LOG DATE
FLD       .                 :FIELD NAME
LOC       .                  UNK :LOCATION
CNTY       .                 UNK :COUNTY
STAT       .                 UNK :STATE
CTRY       .                 UNK :COUNTY
SRVC       .                 UNK :SERVICE COMPANY
~CURVE INFORMATION
#MNEMONIC     .UNIT      API CODE :CURVE DESCRIPTION
DEPTH       .FT                      :MEASURED DEPTH
DT.MSEC/FT        UNKNOWN   :DT
GR.API        UNKNOWN   :GR
~A    DEPTH    DT    GR
 102     -999.99   6.48438
 102.5     -999.99   8.50755
 103     -999.99   15.34926
 103.5     -999.99   24.4258
 104     -999.99   34.98927
 104.5     -999.99   56.04197
 105     -999.99   77.09468
 105.5     -999.99   93.96254
 106     -999.99   91.54691
 106.5     -999.99   89.13127
 107     -999.99   86.71564
 107.5     -999.99   84.3
 108     -999.99   82.11536
 108.5     -999.99   84.13839
 109     -999.99   86.16142
 109.5     -999.99   88.18445
 110     -999.99   90.20749
 110.5     -999.99   89.33534
 111     -999.99   88.09689
 111.5     -999.99   86.85843
 112     -999.99   85.61998
 112.5     -999.99   84.38153
 113     -999.99   83.41283
 113.5     -999.99   84.32047
 114     -999.99   85.2281
 114.5     -999.99   86.13573
 115     -999.99   87.04336
 115.5     -999.99   87.95099
 116     -999.99   88.85862
 116.5     -999.99   89.76625
 117     -999.99   90.67389
 117.5     -999.99   91.41098
 118     -999.99   92.12626
 118.5     -999.99   92.84154
 119     -999.99   93.55683
 119.5     -999.99   94.20505
 120     -999.99   94.55859
 120.5     -999.99   94.91214
 121     -999.99   95.26568
 121.5     -999.99   95.61923
 122     -999.99   95.97277
 122.5     -999.99   92.42163
 123     -999.99   88.52219
 123.5     -999.99   84.62275
 124     -999.99   81.49168
 124.5     -999.99   78.98657
 125     -999.99   76.48146
 125.5     -999.99   76.91195
 126     -999.99   78.5687
 126.5     -999.99   80.22545
 127     -999.99   81.8822
 127.5     -999.99   83.53895
 128     -999.99   85.1957
 128.5     -999.99   86.85245
 129     -999.99   86.87317
 129.5     -999.99   85.74838
 130     -999.99   84.62359
 130.5     -999.99   83.4988
 131     -999.99   82.374
 131.5     -999.99   81.24921
 132     -999.99   80.00993
 132.5     -999.99   78.41297
 133     -999.99   76.816
 133.5     -999.99   75.21904
 134     -999.99   72.8188
 134.5     -999.99   69.49777
 135     -999.99   67.48175
 135.5     -999.99   68.07575
 136     -999.99   68.66975
 136.5     -999.99   69.26375
 137     -999.99   69.85775
 137.5     -999.99   70.45174
 138     -999.99   71.04574
 138.5     -999.99   71.63974
 139     -999.99   72.23374
 139.5     -999.99   72.82774
 140     -999.99   73.42174
 140.5     -999.99   73.42477
 141     -999.99   71.72412
 141.5     -999.99   70.02348
 142     -999.99   68.32284
 142.5     -999.99   66.62219
 143     -999.99   64.92155
 143.5     -999.99   63.22091
 144     -999.99   61.52026
 144.5     -999.99   56.23033
 145     -999.99   50.69212
 145.5     -999.99   45.15392
 146     -999.99   39.61571
 146.5     -999.99   34.07751
 147     -999.99   28.5393
 147.5     -999.99   25.23642
 148     -999.99   28.40864
 148.5     -999.99   31.58086
 149     -999.99   34.1848
 149.5     -999.99   34.05341
 150     -999.99   33.92202
 150.5     -999.99   34.13727
 151     -999.99   35.01955
 151.5     -999.99   35.90182
 152     -999.99   36.7841
 152.5     -999.99   37.66638
 153     -999.99   38.25312
 153.5     -999.99   37.60472
 154     -999.99   36.95631
 154.5     -999.99   35.03681
 155     -999.99   33.03178
 155.5     -999.99   31.02676
 156     -999.99   29.02174
 156.5     -999.99   27.01672
 157     -999.99   27.28642
 157.5     -999.99   27.72383
 158     -999.99   28.16123
 158.5     -999.99   28.59864
 159     -999.99   28.87165
 159.5     -999.99   28.86913
 160     -999.99   28.86662
 160.5     -999.99   28.86411
 161     -999.99   28.86159
 161.5     -999.99   27.64408
 162     -999.99   26.19287
 162.5     -999.99   24.74166
 163     -999.99   23.29045
 163.5     -999.99   21.83924
 164     -999.99   21.91664
 164.5     -999.99   22.36178
 165     -999.99   22.80692
 165.5     -999.99   24.81147
 166     -999.99   26.88613
 166.5     -999.99   28.96079
 167     -999.99   31.03544
 167.5     -999.99   33.1101
 168     -999.99   34.77408
 168.5     -999.99   34.36828
 169     -999.99   33.96247
 169.5     -999.99   33.55667
 170     -999.99   33.15087
 170.5     -999.99   32.74507
 171     -999.99   32.33927
 171.5     -999.99   31.98963
 172     -999.99   31.72897
 172.5     -999.99   31.46831
 173     -999.99   32.0417
 173.5     -999.99   33.26932
 174     -999.99   34.49694
 174.5     -999.99   35.72455
 175     -999.99   36.95217
 175.5     -999.99   36.62694
 176     -999.99   36.24821
 176.5     -999.99   35.86948
 177     -999.99   35.90764
 177.5     -999.99   36.25209
 178     -999.99   36.59653
 178.5     -999.99   36.94097
 179     -999.99   37.28542
 179.5     -999.99   37.62986
 180     -999.99   37.9743
 180.5     -999.99   37.75808
 181     -999.99   37.35242
 181.5     -999.99   36.94676
 182     -999.99   36.5411
 182.5     -999.99   36.10113
 183     -999.99   35.54458
 183.5     -999.99   34.98803
 184     -999.99   34.43147
 184.5     -999.99   33.87492
 185     -999.99   33.31837
 185.5     -999.99   32.76181
 186     -999.99   32.20526
 186.5     -999.99   31.64871
 187     -999.99   31.09216
 187.5     -999.99   30.5356
 188     -999.99   29.97905
 188.5     -999.99   29.91858
 189     -999.99   30.6603
 189.5     -999.99   31.40201
 190     -999.99   32.14373
 190.5     -999.99   32.88544
 191     -999.99   33.62716
 191.5     -999.99   34.36887
 192     -999.99   34.72128
 192.5     -999.99   34.7188
 193     -999.99   34.71631
 193.5     -999.99   34.87956
 194     -999.99   35.11751
 194.5     -999.99   35.35547
 195     -999.99   35.59342
 195.5     -999.99   35.83137
 196     -999.99   36.06932
 196.5     -999.99   36.30727
 197     -999.99   36.54522
 197.5     -999.99   36.78317
 198     -999.99   36.73071
 198.5     -999.99   36.47758
 199     -999.99   36.22444
 199.5     -999.99   35.97131
 200     -999.99   35.71818
 200.5     -999.99   35.46505
 201     -999.99   35.21192
 201.5     -999.99   34.95879
 202     -999.99   34.70565
 202.5     -999.99   34.45252
 203     -999.99   34.59094
 203.5     -999.99   35.29779
 204     -999.99   36.00465
 204.5     -999.99   36.71151
 205     -999.99   37.41836
 205.5     -999.99   38.00568
 206     -999.99   38.26548
 206.5     -999.99   38.52528
 207     -999.99   38.78507
 207.5     -999.99   39.04487
 208     -999.99   39.30466
 208.5     -999.99   39.55973
 209     -999.99   39.40398
 209.5     -999.99   39.24824
 210     -999.99   39.09249
 210.5     -999.99   38.93674
 211     -999.99   38.781
 211.5     -999.99   38.62525
 212     -999.99   38.4695
 212.5     -999.99   38.31376
 213     -999.99   38.15801
 213.5     -999.99   38.00227
 214     -999.99   37.84652
 214.5     -999.99   37.74714
 215     -999.99   38.06497
 215.5     -999.99   38.3828
 216     -999.99   38.70063
 216.5     -999.99   39.01847
 217     -999.99   39.3363
 217.5     -999.99   39.65413
 218     -999.99   39.97197
 218.5     -999.99   39.26664
 219     -999.99   38.16409
 219.5     -999.99   37.06155
 220     -999.99   35.959
 220.5     -999.99   34.85645
 221     -999.99   33.7539
 221.5     -999.99   32.65135
 222     -999.99   32.72253
 222.5     -999.99   34.36479
 223     -999.99   36.00705
 223.5     -999.99   37.64931
 224     -999.99   39.29158
 224.5     -999.99   40.93384
 225     -999.99   41.44333
 225.5     -999.99   41.37651
 226     -999.99   41.30968
 226.5     -999.99   41.24285
 227     -999.99   41.17603
 227.5     -999.99   41.1092
 228     -999.99   41.03533
 228.5     -999.99   40.96141
 229     -999.99   40.88749
 229.5     -999.99   40.81357
 230     -999.99   40.73966
 230.5     -999.99   40.66574
 231     -999.99   40.59182
 231.5     -999.99   40.5179
 232     -999.99   40.44398
 232.5     -999.99   40.37006
 233     -999.99   41.06637
 233.5     -999.99   41.96669
 234     -999.99   42.867
 234.5     -999.99   43.37975
 235     -999.99   43.19319
 235.5     -999.99   43.00663
 236     -999.99   42.82006
 236.5     -999.99   42.65311
 237     -999.99   42.51662
 237.5     -999.99   42.38012
 238     -999.99   42.24363
 238.5     -999.99   42.10714
 239     -999.99   41.97064
 239.5     -999.99   41.83415
 240     -999.99   41.30649
 240.5     -999.99   40.51183
