#--------------------------------------------------#
#-------------------ENVERUS, INC.------------------#
#------------------WWW.ENVERUS.COM-----------------#
#------------------COPYRIGHT 2020------------------#
#--------------------------------------------------#
#THIS FILE MAY BE USED ONLY IN ACCORDANCE WITH A CURRENT SUBSCRIPTION AGREEMENT BETWEEN
#THE USER AND ENVERUS, INC. NO PART OF THIS FILE MAY BE REPRODUCED, USED, COPIED,
#MODIFIED, PROPAGATED, OR DISTRIBUTED EXCEPT IN ACCORDANCE WITH THE SUBSCRIPTION
#AGREEMENT. UNAUTHORIZED USE OR DISTRIBUTION OF ALL OR ANY PART OF THIS FILE MAY VIOLATE
#COPYRIGHT, TRADEMARK, AND/OR OTHER LAWS AND IS SUBJECT TO CIVIL AS WELL AS CRIMINAL
#SANCTIONS.
#--------------------------------------------------#
#THIS FILE IS PROVIDED "AS-IS" AND ALL WARRANTIES ARE EXPRESSLY DISCLAIMED, WHETHER
#EXPRESS, ORAL, IMPLIED, STATUTORY OR OTHERWISE, INCLUDING ANY IMPLIED WARRANTY OF FITNESS
#FOR A PARTICULAR PURPOSE, MERCHANTABILITY, TITLE OR NON-INFRINGEMENT, AND ANY WARRANTIES
#ARISING BY VIRTUE OF CUSTOM OF TRADE OR COURSE OF DEALING.  FURTHER, ENVERUS, INC.
#AND ITS LICENSORS DO NOT REPRESENT OR WARRANT THAT THIS FILE WILL MEET USER'S
#REQUIREMENTS OR ARE SUITABLE FOR USER'S NEEDS OR THAT THE DATA OR RESULTS PROVIDED IN
#CONJUNCTION THEREWITH ARE CORRECT, ACCURATE, TIMELY OR RELIABLE. THESE DISCLAIMERS SHALL
#APPLY REGARDLESS OF ANY FAILURE OF ESSENTIAL PURPOSE OF ANY LIMITED REMEDY.  SOME
#JURISDICTIONS DO NOT ALLOW THE EXCLUSION OF CERTAIN WARRANTIES SO SOME OF THE ABOVE
#EXCLUSIONS MAY NOT APPLY. IN NO EVENT SHALL ENVERUS, INC. OR ANY OF ITS AFFILIATES
#BE LIABLE UNDER ANY LEGAL THEORY, WHETHER IN TORT (INCLUDING WITHOUT LIMITATION
#NEGLIGENCE), CONTRACT, STRICT LIABILITY, STATUTORY OR OTHERWISE, FOR ANY SPECIAL,
#INCIDENTAL, CONSEQUENTIAL, EXEMPLARY, PUNITIVE OR INDIRECT DAMAGE OF ANY KIND, INCLUDING
#WITHOUT LIMITATION LOSS OF REVENUE, PROFITS, GOODWILL, USE, AND/OR DATA OR THE COST OF
#PROCUREMENT OF SUBSTITUTE GOODS OR SERVICES, EVEN IF APPRISED OF THE POSSIBILITY OF SUCH
#DAMAGES IN ADVANCE.
#--------------------------------------------------#

~VERSION INFORMATION
VERS. 2.0 : CWLS LOG ASCII STANDARD - VERSION 2.0
WRAP.  NO : ONE LINE PER DEPTH STEP
~WELL INFORMATION
#MNEMONIC     .UNIT              VALUE :DESCRIPTION
STRT       .FT                102 :START DEPTH
STOP       .FT                9071 :STOP DEPTH
STEP       .FT                   0.500 :STEP
NULL       .                  -999.99 :NULL
UWI        .                42389104910000 :UNIQUE WELL ID
API        .                42389104910000 :API NUMBER
COMP       .         :COMPANY
WELL       .        :WELL
DATE       .                 :LOG DATE
FLD       .                 :FIELD NAME
LOC       .                  UNK :LOCATION
CNTY       .                 UNK :COUNTY
STAT       .                 UNK :STATE
CTRY       .                 UNK :COUNTY
SRVC       .                 UNK :SERVICE COMPANY
~CURVE INFORMATION
#MNEMONIC     .UNIT      API CODE :CURVE DESCRIPTION
DEPTH       .FT                      :MEASURED DEPTH
DT.MSEC/FT        UNKNOWN   :DT
GR.API        UNKNOWN   :GR
~A    DEPTH    DT    GR
# ...
 1811.5     75.68266   3.57368
 1812     75.60735   6.12317
 1812.5     75.68923   17.00318
 1813     75.7711   29.25222
 1813.5     75.85298   63.56861
 1814     76.20287   84.01604
 1814.5     76.91991   93.00363
 1815     80.23144   101.99122
 1815.5     84.68521   110.97881
 1816     89.13899   92.21085
 1816.5     90.15067   70.44567
 1817     88.35432   62.46969
 1817.5     86.55798   54.49371
 1818     84.76163   46.51773
 1818.5     82.96529   38.54175
 1819     81.16894   30.56578
 1819.5     81.61515   22.5898
 1820     83.89513   14.61382
 1820.5     86.17511   6.63784
 1821     88.45509   3.73503
 1821.5     90.73508   3.62792
 1822     93.01506   3.5208
 1822.5     95.29504   3.41369
 1823     95.81651   3.30657
 1823.5     96.292   3.19946
 1824     96.82432   3.09235
 1824.5     97.82061   2.99559
 1825     98.09464   2.91997
 1825.5     97.12795   2.84436
 1826     96.63052   2.76874
 1826.5     96.33214   2.69312
 1827     96.03375   2.6175
 1827.5     95.73537   2.54188
 1828     95.43699   2.46627
 1828.5     95.1386   2.39065
 1829     94.84022   2.31503
 1829.5     94.54184   2.24476
 1830     94.63735   2.17747
 1830.5     94.82367   2.11019
 1831     95.01   2.0429
 1831.5     95.19632   1.97562
 1832     95.16954   1.90833
 1832.5     95.09677   1.84105
 1833     95.024   1.77376
 1833.5     95.04613   1.70648
 1834     95.19684   1.63919
 1834.5     95.34755   1.57191
 1835     95.49826   1.50462
 1835.5     95.64897   1.43734
 1836     95.79968   1.37005
 1836.5     95.95039   1.30277
 1837     96.08772   1.23548
 1837.5     95.70217   1.1682
 1838     95.31663   1.10091
 1838.5     95.46512   1.03363
 1839     95.76906   .96634
 1839.5     96.073   .89906
 1840     96.29713   .83178
 1840.5     96.51428   .76449
 1841     96.73143   .69721
 1841.5     96.94857   .65376
 1842     97.32926   .75139
 1842.5     98.00477   .84902
 1843     98.68028   .94664
 1843.5     99.35579   1.04427
 1844     98.87646   1.1419
 1844.5     96.67178   1.23952
 1845     96.49953   1.33715
 1845.5     96.32727   1.43478
 1846     96.15502   1.5324
 1846.5     95.98276   1.63003
 1847     95.81051   1.72766
 1847.5     95.63825   1.82528
 1848     95.466   1.92291
 1848.5     95.38629   2.02054
 1849     95.47705   2.11816
 1849.5     95.5678   2.21579
 1850     95.65856   2.31342
 1850.5     95.74932   2.41104
 1851     95.84008   2.50867
 1851.5     95.93084   2.6063
 1852     95.71545   2.70392
 1852.5     95.22894   2.80155
 1853     94.74243   2.89918
 1853.5     94.25592   2.9968
 1854     93.76941   2.99502
 1854.5     93.2829   2.95315
 1855     94.04122   2.91127
 1855.5     94.89572   2.8694
 1856     95.75023   2.82752
 1856.5     96.60473   2.78564
 1857     95.94093   2.74377
 1857.5     95.04774   2.70189
 1858     94.26004   2.66002
 1858.5     94.4773   2.61814
 1859     94.69456   2.57627
 1859.5     94.91181   2.53439
 1860     95.12907   2.49252
 1860.5     95.34633   2.45064
 1861     95.61542   2.40876
 1861.5     95.88653   2.36689
 1862     95.48215   2.32501
 1862.5     94.75862   2.28314
 1863     94.72642   2.24126
 1863.5     95.528   2.19939
 1864     96.13918   2.15751
 1864.5     95.52846   2.11564
 1865     94.91775   2.07376
 1865.5     94.61557   2.03188
 1866     94.34659   1.99001
 1866.5     94.07761   1.94813
 1867     93.80863   2.09038
 1867.5     93.53964   2.39636
 1868     89.51961   2.70235
 1868.5     84.75878   3.00833
 1869     79.99795   3.31432
 1869.5     75.23713   3.6203
 1870     70.4763   3.92629
 1870.5     67.07071   4.23227
 1871     66.96086   4.53825
 1871.5     66.86821   4.84424
 1872     67.27931   4.90753
 1872.5     67.69041   4.49577
 1873     68.1015   4.084
 1873.5     68.5126   3.67224
 1874     68.9237   3.26047
 1874.5     69.3282   2.84871
 1875     69.71774   2.43694
 1875.5     70.10728   2.02518
 1876     70.07809   1.82797
 1876.5     69.52311   2.07075
 1877     69.07362   2.31353
 1877.5     69.01861   2.55632
 1878     68.9636   2.7991
 1878.5     68.82914   2.96769
 1879     68.69047   3.11703
 1879.5     68.55179   3.26638
 1880     68.41311   3.41573
 1880.5     68.27443   3.56507
 1881     68.13575   3.71442
 1881.5     67.99707   3.86377
 1882     67.85839   4.16869
 1882.5     67.71971   4.68841
 1883     67.58103   5.20814
 1883.5     67.60291   6.16463
 1884     68.17741   7.41421
 1884.5     68.7519   8.6638
 1885     69.3264   9.91338
 1885.5     69.1713   11.16296
 1886     68.80293   12.41255
 1886.5     68.43455   13.66213
 1887     69.71902   14.91171
 1887.5     73.39464   14.88342
 1888     73.90177   10.66825
 1888.5     71.49274   6.45308
 1889     69.08371   5.55166
 1889.5     67.43153   5.48737
 1890     67.30616   5.42308
 1890.5     67.18079   5.35879
 1891     67.05542   5.2945
 1891.5     68.27276   5.20764
 1892     71.69557   4.93746
 1892.5     75.11838   4.66727
 1893     78.54118   4.39708
 1893.5     81.96399   4.1269
 1894     85.3868   3.85671
 1894.5     88.92892   3.58652
 1895     93.38349   3.31634
 1895.5     97.00522   3.04615
 1896     96.51803   2.77596
 1896.5     96.03084   2.50578
 1897     95.43993   2.37818
 1897.5     94.6737   2.64813
 1898     93.90746   2.91807
 1898.5     93.14123   3.18802
 1899     93.00334   3.11643
 1899.5     93.52002   2.99287
 1900     94.0367   2.86931
 1900.5     94.55338   2.74575
 1901     95.07006   2.62219
 1901.5     95.58674   2.49863
 1902     95.65116   2.37507
 1902.5     95.55141   2.25151
 1903     95.45166   2.12795
 1903.5     95.3519   2.00439
 1904     95.25215   1.88083
 1904.5     95.1524   1.75727
 1905     95.13663   1.63371
 1905.5     95.19894   1.51015
 1906     95.26126   1.41204
 1906.5     95.32357   1.68653
 1907     96.27351   1.96102
 1907.5     97.97608   2.2355
 1908     99.67865   2.50999
 1908.5     100.33009   2.78448
 1909     100.14688   3.05897
 1909.5     99.96366   3.33346
 1910     99.7401   3.40299
 1910.5     99.32505   3.38855
 1911     98.91   3.37412
 1911.5     98.49495   3.35968
 1912     98.07989   3.34525
 1912.5     98.92548   3.33081
 1913     100.3226   3.31638
 1913.5     101.4067   3.30194
 1914     100.84202   3.2875
 1914.5     99.73831   3.27307
 1915     98.6346   3.25863
 1915.5     97.53089   3.2442
 1916     96.42718   4.00772
 1916.5     97.67896   7.77108
 1917     99.48065   8.79704
 1917.5     101.28235   7.98326
 1918     103.08404   7.16948
 1918.5     101.07265   6.3557
 1919     96.68106   5.54192
 1919.5     94.94922   5.62028
 1920     94.90045   6.93942
 1920.5     94.85169   8.25856
 1921     94.80293   9.5777
 1921.5     94.75417   10.89684
 1922     94.59341   12.21598
 1922.5     94.32896   13.53512
 1923     94.06452   13.69032
 1923.5     91.62982   13.44938
 1924     88.29703   11.49021
 1924.5     84.96423   7.5642
 1925     86.93108   5.96467
 1925.5     92.12964   5.64386
 1926     97.32819   5.32305
 1926.5     97.32728   5.00223
 1927     96.92136   4.68142
 1927.5     96.51544   4.36061
 1928     97.07221   4.23249
 1928.5     98.35827   4.11783
 1929     99.64433   4.00317
 1929.5     100.93038   3.88851
 1930     102.21644   3.77385
 1930.5     100.94706   3.65919
 1931     99.2199   3.54453
 1931.5     98.52211   3.42987
 1932     98.27425   3.40701
 1932.5     98.02639   3.3871
 1933     97.77852   3.36719
 1933.5     97.41835   3.34729
 1934     96.59599   3.32738
 1934.5     82.312   3.30747
 1935     71.58534   3.28756
 1935.5     71.21654   3.26765
 1936     70.84774   3.24775
 1936.5     70.45559   3.09434
 1937     69.98689   2.92304
 1937.5     69.51819   2.75173
 1938     69.04948   2.58043
 1938.5     68.58078   2.40913
 1939     68.44168   2.23782
 1939.5     69.55092   2.06652
 1940     70.66017   1.89521
 1940.5     70.38575   1.87034
 1941     69.89213   2.12735
 1941.5     69.3985   2.38435
 1942     68.90488   2.64135
 1942.5     68.41126   2.89836
 1943     68.80475   3.15536
 1943.5     69.3637   3.41236
 1944     69.92266   3.66937
 1944.5     69.46286   3.92637
 1945     68.96262   4.18337
