#--------------------------------------------------#
#-------------------ENVERUS, INC.------------------#
#------------------WWW.ENVERUS.COM-----------------#
#------------------COPYRIGHT 2020------------------#
#--------------------------------------------------#
#THIS FILE MAY BE USED ONLY IN ACCORDANCE WITH A CURRENT SUBSCRIPTION AGREEMENT BETWEEN
#THE USER AND ENVERUS, INC. NO PART OF THIS FILE MAY BE REPRODUCED, USED, COPIED,
#MODIFIED, PROPAGATED, OR DISTRIBUTED EXCEPT IN ACCORDANCE WITH THE SUBSCRIPTION
#AGREEMENT. UNAUTHORIZED USE OR DISTRIBUTION OF ALL OR ANY PART OF THIS FILE MAY VIOLATE
#COPYRIGHT, TRADEMARK, AND/OR OTHER LAWS AND IS SUBJECT TO CIVIL AS WELL AS CRIMINAL
#SANCTIONS.
#--------------------------------------------------#
#THIS FILE IS PROVIDED "AS-IS" AND ALL WARRANTIES ARE EXPRESSLY DISCLAIMED, WHETHER
#EXPRESS, ORAL, IMPLIED, STATUTORY OR OTHERWISE, INCLUDING ANY IMPLIED WARRANTY OF FITNESS
#FOR A PARTICULAR PURPOSE, MERCHANTABILITY, TITLE OR NON-INFRINGEMENT, AND ANY WARRANTIES
#ARISING BY VIRTUE OF CUSTOM OF TRADE OR COURSE OF DEALING.  FURTHER, ENVERUS, INC.
#AND ITS LICENSORS DO NOT REPRESENT OR WARRANT THAT THIS FILE WILL MEET USER'S
#REQUIREMENTS OR ARE SUITABLE FOR USER'S NEEDS OR THAT THE DATA OR RESULTS PROVIDED IN
#CONJUNCTION THEREWITH ARE CORRECT, ACCURATE, TIMELY OR RELIABLE. THESE DISCLAIMERS SHALL
#APPLY REGARDLESS OF ANY FAILURE OF ESSENTIAL PURPOSE OF ANY LIMITED REMEDY.  SOME
#JURISDICTIONS DO NOT ALLOW THE EXCLUSION OF CERTAIN WARRANTIES SO SOME OF THE ABOVE
#EXCLUSIONS MAY NOT APPLY. IN NO EVENT SHALL ENVERUS, INC. OR ANY OF ITS AFFILIATES
#BE LIABLE UNDER ANY LEGAL THEORY, WHETHER IN TORT (INCLUDING WITHOUT LIMITATION
#NEGLIGENCE), CONTRACT, STRICT LIABILITY, STATUTORY OR OTHERWISE, FOR ANY SPECIAL,
#INCIDENTAL, CONSEQUENTIAL, EXEMPLARY, PUNITIVE OR INDIRECT DAMAGE OF ANY KIND, INCLUDING
#WITHOUT LIMITATION LOSS OF REVENUE, PROFITS, GOODWILL, USE, AND/OR DATA OR THE COST OF
#PROCUREMENT OF SUBSTITUTE GOODS OR SERVICES, EVEN IF APPRISED OF THE POSSIBILITY OF SUCH
#DAMAGES IN ADVANCE.
#--------------------------------------------------#

~VERSION INFORMATION
VERS. 2.0 : CWLS LOG ASCII STANDARD - VERSION 2.0
WRAP.  NO : ONE LINE PER DEPTH STEP
~WELL INFORMATION
#MNEMONIC     .UNIT              VALUE :DESCRIPTION
STRT       .FT                -3 :START DEPTH
STOP       .FT                21524 :STOP DEPTH
STEP       .FT                   0.500 :STEP
NULL       .                  -999.99 :NULL
UWI        .                42389105080000 :UNIQUE WELL ID
API        .                42389105080000 :API NUMBER
COMP       .         :COMPANY
WELL       .        :WELL
DATE       .                 :LOG DATE
FLD       .                 :FIELD NAME
LOC       .                  UNK :LOCATION
CNTY       .                 UNK :COUNTY
STAT       .                 UNK :STATE
CTRY       .                 UNK :COUNTY
SRVC       .                 UNK :SERVICE COMPANY
~CURVE INFORMATION
#MNEMONIC     .UNIT      API CODE :CURVE DESCRIPTION
DEPTH       .FT                      :MEASURED DEPTH
CAL.IN        UNKNOWN   :CAL
DT.MSEC/FT        UNKNOWN   :DT
GR.API        UNKNOWN   :GR
~A    DEPTH    CAL    DT    GR
# ...
 18163     7.04182   54.98152   66.43321
 18163.5     7.04256   56.26453   64.33245
 18164     7.0433   57.54753   63.64892
 18164.5     7.04403   58.83054   62.96539
 18165     7.04477   60.11354   62.28187
 18165.5     7.04551   60.887   61.59834
 18166     7.04625   59.77106   58.21292
 18166.5     7.04699   58.65512   52.07417
 18167     7.04773   57.53917   45.93542
 18167.5     7.04846   56.42323   39.79666
 18168     7.0492   55.34228   40.44392
 18168.5     7.04994   54.4726   52.08735
 18169     7.05068   53.95447   68.48959
 18169.5     7.05142   54.04308   79.32276
 18170     7.05215   54.1317   84.48249
 18170.5     7.05289   54.22031   89.64223
 18171     7.05341   54.30893   94.80197
 18171.5     7.05218   54.39755   94.94352
 18172     7.05096   54.43901   90.76481
 18172.5     7.04974   54.45165   79.76512
 18173     7.04852   54.46429   68.76542
 18173.5     7.0473   54.47693   57.76573
 18174     7.04607   54.48957   46.76604
 18174.5     7.04485   54.50221   46.09966
 18175     7.04363   54.66875   46.277
 18175.5     7.04241   55.26673   46.45434
 18176     7.04118   55.8647   46.63169
 18176.5     7.03996   55.70132   47.81296
 18177     7.03874   55.38227   51.78651
 18177.5     7.03752   55.06322   53.98269
 18178     7.0363   54.74417   53.59768
 18178.5     7.03507   54.42513   51.01022
 18179     7.03385   54.10608   48.42276
 18179.5     7.03263   54.60379   47.49851
 18180     7.03141   55.18621   47.8101
 18180.5     7.03019   55.76864   48.12169
 18181     7.02896   55.77702   48.43328
 18181.5     7.02774   55.50778   54.30041
 18182     7.02652   55.23854   57.28855
 18182.5     7.0253   54.9693   58.69319
 18183     7.02407   54.70005   58.05971
 18183.5     7.02285   54.43081   57.33896
 18184     7.02163   54.16157   56.61821
 18184.5     7.02041   53.89233   55.83892
 18185     7.01919   53.85022   55.04163
 18185.5     7.01796   53.90938   54.24434
 18186     7.01674   53.96854   54.6564
 18186.5     7.01552   54.0277   60.0064
 18187     7.0143   54.08686   59.72946
 18187.5     7.01308   54.14602   57.29385
 18188     7.01185   54.20519   54.85823
 18188.5     7.01063   54.26435   52.42261
 18189     7.00941   54.26345   49.98699
 18189.5     7.00819   53.8456   47.55137
 18190     7.00697   53.42774   45.11575
 18190.5     7.00574   53.00988   43.83623
 18191     7.00452   52.59203   44.14785
 18191.5     7.0033   52.40148   44.45947
 18192     7.00208   52.35972   51.28942
 18192.5     7.00085   52.31795   54.59935
 18193     6.99963   52.27618   55.92291
 18193.5     6.99841   52.23442   55.94051
 18194     6.99719   52.19265   55.77692
 18194.5     6.99597   52.01809   55.61334
 18195     6.99474   51.56312   55.44975
 18195.5     6.99352   51.10815   53.15168
 18196     6.9923   50.70668   50.27288
 18196.5     6.99108   50.72783   47.39408
 18197     6.98986   50.74897   44.51528
 18197.5     6.98863   50.77012   41.63648
 18198     6.98741   50.79126   38.75769
 18198.5     6.98619   50.81241   37.73057
 18199     6.98497   50.83355   36.92878
 18199.5     6.98375   50.85469   36.12699
 18200     6.98252   50.9616   35.3252
 18200.5     6.9813   51.24582   34.52341
 18201     6.98008   51.53003   33.72162
 18201.5     6.97886   51.66214   31.80532
 18202     6.97763   51.47131   28.64942
 18202.5     6.97641   51.28049   25.49353
 18203     6.97519   51.08966   22.33763
 18203.5     6.97397   50.89884   19.18173
 18204     6.97275   50.70802   18.43529
 18204.5     6.97152   50.70744   18.5188
 18205     6.9703   50.72674   18.6023
 18205.5     6.96908   50.74605   18.83246
 18206     6.96786   50.76536   19.28844
 18206.5     6.96664   50.68904   19.74441
 18207     6.96541   50.56322   20.20038
 18207.5     6.96419   50.43741   20.65635
 18208     6.96297   50.3116   21.11233
 18208.5     6.9643   50.18579   21.5683
 18209     6.98546   50.18163   22.72423
 18209.5     7.00661   50.19802   26.58017
 18210     7.02777   50.21441   27.73216
 18210.5     7.04893   50.2308   23.58757
 18211     7.07008   50.24719   22.30779
 18211.5     7.09124   50.26358   21.24423
 18212     7.11239   50.27997   20.18067
 18212.5     7.13355   50.29636   19.11711
 18213     7.15471   50.31276   18.05355
 18213.5     7.17586   50.32915   16.98999
 18214     7.19702   50.43081   15.92643
 18214.5     7.21817   50.53683   14.86287
 18215     7.22738   50.64284   13.79931
 18215.5     7.22638   50.74886   12.77688
 18216     7.22539   50.85488   12.0467
 18216.5     7.22439   50.9609   11.31651
 18217     7.22339   51.06691   10.58632
 18217.5     7.2224   51.02143   9.85613
 18218     7.2214   50.92115   9.12595
 18218.5     7.2204   50.82088   8.39576
 18219     7.21941   50.7206   7.66557
 18219.5     7.21841   50.62032   6.93538
 18220     7.21741   50.52004   6.93358
 18220.5     7.21642   50.41976   6.95231
 18221     7.21542   50.31949   6.97104
 18221.5     7.21442   50.21921   6.98978
 18222     7.21343   50.11893   7.00851
 18222.5     7.21243   50.10212   7.02724
 18223     7.21143   50.2197   7.04598
 18223.5     7.21044   50.33728   7.06471
 18224     7.20944   50.45485   7.22392
 18224.5     7.20844   50.57243   7.49323
 18225     7.20745   50.69001   7.76253
 18225.5     7.20645   50.69198   8.03184
 18226     7.20545   50.615   8.30114
 18226.5     7.20446   50.53801   8.57045
 18227     7.20346   50.46103   8.83976
 18227.5     7.20246   50.38404   8.62662
 18228     7.20147   50.30706   8.38393
 18228.5     7.20047   50.23007   8.14125
 18229     7.19947   50.15308   7.89856
 18229.5     7.19848   50.0761   7.65588
 18230     7.19748   49.9709   7.41319
 18230.5     7.19648   49.8451   7.1705
 18231     7.19549   49.71929   7.94879
 18231.5     7.19449   49.59349   9.07121
 18232     7.19349   49.83529   10.19363
 18232.5     7.1925   50.51465   11.31604
 18233     7.1915   51.19401   10.39668
 18233.5     7.1905   51.87336   9.45552
 18234     7.1895   52.55272   8.51435
 18234.5     7.18851   53.23208   7.91777
 18235     7.18751   52.44486   7.85368
 18235.5     7.18651   50.89647   7.78959
 18236     7.18552   50.26084   7.7255
 18236.5     7.18452   50.36395   7.66141
 18237     7.18352   50.46706   7.59733
 18237.5     7.18253   50.57017   7.6481
 18238     7.18153   50.67329   7.96533
 18238.5     7.18053   50.7764   8.28256
 18239     7.18715   51.07795   8.59978
 18239.5     7.19752   51.4354   8.91701
 18240     7.20788   51.79286   9.23424
 18240.5     7.21825   52.15032   15.99871
 18241     7.22862   51.86977   25.60584
 18241.5     7.23898   51.557   35.21298
 18242     7.24935   51.24423   40.53896
 18242.5     7.25971   51.49454   40.14928
 18243     7.27008   52.04551   25.29962
 18243.5     7.28045   52.59647   7.06342
 18244     7.29081   53.14744   8.27582
 18244.5     7.30118   53.6984   9.48821
 18245     7.31154   53.34922   9.99516
 18245.5     7.32191   52.82273   9.0346
 18246     7.33228   52.29623   8.07405
 18246.5     7.34264   51.76974   7.39525
 18247     7.35301   51.24325   9.81837
 18247.5     7.36337   51.42812   11.30761
 18248     7.37374   51.81617   11.02038
 18248.5     7.38411   52.20421   10.73315
 18249     7.38905   52.19187   10.44592
 18249.5     7.39057   52.00095   10.15869
 18250     7.39209   51.81003   9.96605
 18250.5     7.39361   51.61912   10.17294
 18251     7.39513   52.0692   10.37983
 18251.5     7.39665   52.89681   10.58673
 18252     7.39817   53.65932   10.79362
 18252.5     7.39969   52.9299   11.00051
 18253     7.40122   52.20048   10.46875
 18253.5     7.40274   51.47106   9.82879
 18254     7.40426   51.18738   9.18883
 18254.5     7.40578   51.5928   8.54887
 18255     7.4073   51.9592   7.9089
 18255.5     7.40882   51.81497   7.95317
 18256     7.41034   51.67074   8.46856
 18256.5     7.41186   51.52651   8.98395
 18257     7.41338   51.38228   9.49933
 18257.5     7.41491   51.27436   11.36878
 18258     7.41643   51.25818   15.67639
 18258.5     7.41795   51.242   19.98401
 18259     7.41947   51.22582   24.29162
 18259.5     7.42099   51.20964   25.26251
