###############################################
##         ENVERUS                           ##
##         ESS - Open Hole                   ##
##         PERMIAN / DELAWARE                ##
##         Nov 04 2023  V4.0                 ##
##         42-389-10116-00-00                ##
###############################################
## Copyright 2017-2023  ENVERUS.  All Rights Reserved. 
## Confidential - Property of ENVERUS, use governed by terms and 
## conditions found within the existing Information Services Subscription Agreement 
## (as may be amended, the “ISSA”) between Customer and ENVERUS. 
## 
~VERSION INFORMATION
# MNEM.UNIT                               DATA : DESCRIPTION OF MNEMONIC
#-----.-----     ----------------------------- : -----------------------------
VERS.                                     2.00 : CWLS LOG ASCII STANDARD - VERSION 2.00
WRAP.                                       NO : MULTIPLE LINES PER DEPTH STEP
VEND.                                  ENVERUS : VENDOR
TYPE.                          ESS - OPEN HOLE : ENVERUS ESSENTIAL CURVES – ACCESSIBLE THROUGH ENVERUS PRISM(TM)
DOC.                                  31818149 : ENVERUS HEADER RAW DOCUMENT ID
#___________________________________________________________________________________________________ 
~WELL INFORMATION 
# kxSJJvG4Ro99GqojvmaAoFb8nmZsGWyMBdB6Op61yYkHZj6VRdx+Ef4kBXz5Syac/VH6awax3Ll89xsC2rvs8g== 
# MNEM.UNIT                                              DATA : DESCRIPTION OF MNEMONIC 
#-----.-----                    ----------------------------- : ----------------------------- 
CNTY.                                                  REEVES : COUNTY 
STATE.                                                  TEXAS : STATE 
CNTRY.                                                    USA : COUNTRY 
API.                                             42-389-10116 : API (10 Digit) 
API_14.                                    42-389-10116-00-00 : API (14 Digits) 
API_14_std.                                 42-389-10116-0000 : API (14 Digits Standard) 
UWI.                                           42389101160000 : UNIQUE WELL ID 
WELL.                                            WOODS -A-  1 : WELL NAME
STRT.FT                                                 107.0 : START DEPTH
STOP.FT                                                5258.0 : STOP DEPTH
STEP.FT                                                   0.5 : STEP BETWEEN DEPTHS
NULL.                                                 -999.25 : NULL VALUE
COMP.                              PHILLIPS PETROLEUM COMPANY : COMPANY
#___________________________________________________________________________________________________ 
~CURVE INFORMATION 
# MNEM.UNIT           : CURVE DESCRIPTION 
#-----.-----          : ----------------------------- 
 DEPT.FT               : MEASURED DEPTH 
 GR.API                : GAMMA RAY (GR) 
 DT.US/FT              : SONIC DELTA TRANSIT TIME (DT) 
 #___________________________________________________________________________________________________ 
~A         DEPT             GR             DT
          107.0          1.866       -999.250
          107.5          3.255       -999.250
          108.0          4.643       -999.250
          108.5          6.032       -999.250
          109.0          7.420       -999.250
          109.5          9.893       -999.250
          110.0         13.967       -999.250
          110.5         18.042       -999.250
          111.0         22.116       -999.250
          111.5         23.908       -999.250
          112.0         23.545       -999.250
          112.5         23.182       -999.250
          113.0         22.818       -999.250
          113.5         22.455       -999.250
          114.0         22.309       -999.250
          114.5         23.312       -999.250
          115.0         24.030       -999.250
          115.5         23.697       -999.250
          116.0         23.364       -999.250
          116.5         23.030       -999.250
          117.0         22.697       -999.250
          117.5         22.364       -999.250
          118.0         22.529       -999.250
          118.5         23.532       -999.250
          119.0         24.535       -999.250
          119.5         25.537       -999.250
          120.0         26.540       -999.250
          120.5         27.543       -999.250
          121.0         28.546       -999.250
          121.5         28.611       -999.250
          122.0         27.944       -999.250
          122.5         27.278       -999.250
          123.0         27.272       -999.250
          123.5         27.637       -999.250
          124.0         28.002       -999.250
          124.5         28.367       -999.250
          125.0         28.732       -999.250
          125.5         26.909       -999.250
          126.0         22.100       -999.250
          126.5         22.664       -999.250
          127.0         23.228       -999.250
          127.5         23.793       -999.250
          128.0         23.463       -999.250
          128.5         21.890       -999.250
          129.0         20.318       -999.250
          129.5         18.763       -999.250
          130.0         18.964       -999.250
          130.5         19.165       -999.250
          131.0         20.768       -999.250
          131.5         23.401       -999.250
          132.0         24.520       -999.250
          132.5         24.756       -999.250
          133.0         24.993       -999.250
          133.5         25.229       -999.250
          134.0         25.466       -999.250
          134.5         25.702       -999.250
          135.0         25.939       -999.250
          135.5         26.175       -999.250
          136.0         25.986       -999.250
          136.5         25.036       -999.250
          137.0         24.086       -999.250
          137.5         23.135       -999.250
          138.0         22.185       -999.250
          138.5         21.762       -999.250
          139.0         21.888       -999.250
          139.5         22.014       -999.250
          140.0         22.140       -999.250
          140.5         22.266       -999.250
          141.0         22.392       -999.250
          141.5         23.030       -999.250
          142.0         23.944       -999.250
          142.5         24.858       -999.250
          143.0         25.773       -999.250
          143.5         26.687       -999.250
          144.0         27.602       -999.250
          144.5         28.516       -999.250
          145.0         29.430       -999.250
          145.5         30.226       -999.250
          146.0         30.828       -999.250
          146.5         31.430       -999.250
          147.0         32.032       -999.250
          147.5         32.634       -999.250
          148.0         33.236       -999.250
          148.5         33.838       -999.250
          149.0         34.369       -999.250
          149.5         34.100       -999.250
          150.0         33.831       -999.250
          150.5         33.562       -999.250
          151.0         33.293       -999.250
          151.5         33.025       -999.250
          152.0         32.756       -999.250
          152.5         31.511       -999.250
          153.0         29.949       -999.250
          153.5         28.387       -999.250
          154.0         26.824       -999.250
          154.5         27.359       -999.250
          155.0         28.247       -999.250
          155.5         29.134       -999.250
          156.0         30.021       -999.250
          156.5         30.908       -999.250
          157.0         31.796       -999.250
          157.5         32.325       -999.250
          158.0         32.540       -999.250
          158.5         32.756       -999.250
          159.0         33.359       -999.250
          159.5         36.623       -999.250
          160.0         40.353       -999.250
          160.5         44.659       -999.250
          161.0         43.596       -999.250
          161.5         42.534       -999.250
          162.0         41.471       -999.250
          162.5         40.556       -999.250
          163.0         39.956       -999.250
          163.5         39.356       -999.250
          164.0         38.757       -999.250
          164.5         38.157       -999.250
          165.0         37.557       -999.250
          165.5         36.957       -999.250
          166.0         36.384       -999.250
          166.5         37.443       -999.250
          167.0         38.501       -999.250
          167.5         39.560       -999.250
          168.0         40.619       -999.250
          168.5         41.514       -999.250
          169.0         42.317       -999.250
          169.5         43.119       -999.250
          170.0         43.922       -999.250
          170.5         44.725       -999.250
          171.0         45.358       -999.250
          171.5         45.944       -999.250
          172.0         46.529       -999.250
          172.5         48.077       -999.250
          173.0         49.783       -999.250
          173.5         51.489       -999.250
          174.0         53.195       -999.250
          174.5         54.900       -999.250
          175.0         57.691       -999.250
          175.5         60.483       -999.250
          176.0         63.274       -999.250
          176.5         66.065       -999.250
          177.0         66.499       -999.250
          177.5         65.565       -999.250
          178.0         64.632       -999.250
          178.5         63.699       -999.250
          179.0         62.766       -999.250
          179.5         61.832       -999.250
          180.0         60.899       -999.250
          180.5         61.463       -999.250
          181.0         65.109       -999.250
          181.5         66.443       -999.250
          182.0         64.133       -999.250
          182.5         61.823       -999.250
          183.0         59.513       -999.250
          183.5         58.740       -999.250
          184.0         59.593       -999.250
          184.5         60.447       -999.250
          185.0         61.300       -999.250
          185.5         62.153       -999.250
          186.0         61.067       -999.250
          186.5         58.819       -999.250
          187.0         56.572       -999.250
          187.5         54.325       -999.250
          188.0         55.726       -999.250
          188.5         58.526       -999.250
          189.0         61.327       -999.250
          189.5         63.702       -999.250
          190.0         65.208       -999.250
          190.5         66.714       -999.250
          191.0         68.220       -999.250
          191.5         69.726       -999.250
          192.0         69.349       -999.250
          192.5         68.888       -999.250
          193.0         68.426       -999.250
          193.5         67.965       -999.250
