#--------------------------------------------------#
#-------------------ENVERUS, INC.------------------#
#------------------WWW.ENVERUS.COM-----------------#
#------------------COPYRIGHT 2020------------------#
#--------------------------------------------------#
#THIS FILE MAY BE USED ONLY IN ACCORDANCE WITH A CURRENT SUBSCRIPTION AGREEMENT BETWEEN
#THE USER AND ENVERUS, INC. NO PART OF THIS FILE MAY BE REPRODUCED, USED, COPIED,
#MODIFIED, PROPAGATED, OR DISTRIBUTED EXCEPT IN ACCORDANCE WITH THE SUBSCRIPTION
#AGREEMENT. UNAUTHORIZED USE OR DISTRIBUTION OF ALL OR ANY PART OF THIS FILE MAY VIOLATE
#COPYRIGHT, TRADEMARK, AND/OR OTHER LAWS AND IS SUBJECT TO CIVIL AS WELL AS CRIMINAL
#SANCTIONS.
#--------------------------------------------------#
#THIS FILE IS PROVIDED "AS-IS" AND ALL WARRANTIES ARE EXPRESSLY DISCLAIMED, WHETHER
#EXPRESS, ORAL, IMPLIED, STATUTORY OR OTHERWISE, INCLUDING ANY IMPLIED WARRANTY OF FITNESS
#FOR A PARTICULAR PURPOSE, MERCHANTABILITY, TITLE OR NON-INFRINGEMENT, AND ANY WARRANTIES
#ARISING BY VIRTUE OF CUSTOM OF TRADE OR COURSE OF DEALING.  FURTHER, ENVERUS, INC.
#AND ITS LICENSORS DO NOT REPRESENT OR WARRANT THAT THIS FILE WILL MEET USER'S
#REQUIREMENTS OR ARE SUITABLE FOR USER'S NEEDS OR THAT THE DATA OR RESULTS PROVIDED IN
#CONJUNCTION THEREWITH ARE CORRECT, ACCURATE, TIMELY OR RELIABLE. THESE DISCLAIMERS SHALL
#APPLY REGARDLESS OF ANY FAILURE OF ESSENTIAL PURPOSE OF ANY LIMITED REMEDY.  SOME
#JURISDICTIONS DO NOT ALLOW THE EXCLUSION OF CERTAIN WARRANTIES SO SOME OF THE ABOVE
#EXCLUSIONS MAY NOT APPLY. IN NO EVENT SHALL ENVERUS, INC. OR ANY OF ITS AFFILIATES
#BE LIABLE UNDER ANY LEGAL THEORY, WHETHER IN TORT (INCLUDING WITHOUT LIMITATION
#NEGLIGENCE), CONTRACT, STRICT LIABILITY, STATUTORY OR OTHERWISE, FOR ANY SPECIAL,
#INCIDENTAL, CONSEQUENTIAL, EXEMPLARY, PUNITIVE OR INDIRECT DAMAGE OF ANY KIND, INCLUDING
#WITHOUT LIMITATION LOSS OF REVENUE, PROFITS, GOODWILL, USE, AND/OR DATA OR THE COST OF
#PROCUREMENT OF SUBSTITUTE GOODS OR SERVICES, EVEN IF APPRISED OF THE POSSIBILITY OF SUCH
#DAMAGES IN ADVANCE.
#--------------------------------------------------#

~VERSION INFORMATION
VERS. 2.0 : CWLS LOG ASCII STANDARD - VERSION 2.0
WRAP.  NO : ONE LINE PER DEPTH STEP
~WELL INFORMATION
#MNEMONIC     .UNIT              VALUE :DESCRIPTION
STRT       .FT                429 :START DEPTH
STOP       .FT                6365 :STOP DEPTH
STEP       .FT                   0.500 :STEP
NULL       .                  -999.99 :NULL
UWI        .                42371100750000 :UNIQUE WELL ID
API        .                42371100750000 :API NUMBER
COMP       .         :COMPANY
WELL       .        :WELL
DATE       .                 :LOG DATE
FLD       .                 :FIELD NAME
LOC       .                  UNK :LOCATION
CNTY       .                 UNK :COUNTY
STAT       .                 UNK :STATE
CTRY       .                 UNK :COUNTY
SRVC       .                 UNK :SERVICE COMPANY
~CURVE INFORMATION
#MNEMONIC     .UNIT      API CODE :CURVE DESCRIPTION
DEPTH       .FT                      :MEASURED DEPTH
DT.MSEC/FT        UNKNOWN   :DT
GR.API        UNKNOWN   :GR
~A    DEPTH    DT    GR
# ...
 5909     70.01814   66.71075
 5909.5     73.02618   67.45114
 5910     75.07688   65.5549
 5910.5     75.3536   63.65867
 5911     75.17514   61.76244
 5911.5     74.94548   59.86621
 5912     74.38011   57.96997
 5912.5     75.37244   56.07374
 5913     75.65089   54.34196
 5913.5     75.56776   57.85179
 5914     75.48463   61.36163
 5914.5     72.62193   64.87146
 5915     72.34066   67.46357
 5915.5     72.05939   66.85411
 5916     73.44012   63.95763
 5916.5     73.22093   61.40978
 5917     72.77157   59.76183
 5917.5     72.77201   59.93824
 5918     71.97905   60.83702
 5918.5     70.88924   61.73579
 5919     70.26222   62.63456
 5919.5     70.26266   63.53333
 5920     70.3358   65.99462
 5920.5     70.79174   70.03684
 5921     71.24769   71.20152
 5921.5     71.70363   69.88141
 5922     71.66904   68.76654
 5922.5     71.94417   70.44916
 5923     72.38165   71.19838
 5923.5     71.96405   69.80037
 5924     71.54645   68.40236
 5924.5     71.08027   67.00435
 5925     70.14911   65.9375
 5925.5     69.23271   66.7625
 5926     68.99427   66.75427
 5926.5     68.80538   64.42434
 5927     68.93672   62.09441
 5927.5     68.5754   65.42668
 5928     67.9577   70.91178
 5928.5     67.36732   77.43943
 5929     66.78453   83.60255
 5929.5     66.56801   88.49966
 5930     66.38945   93.12845
 5930.5     67.46511   93.25043
 5931     70.33993   93.3724
 5931.5     70.39121   93.49437
 5932     69.59888   95.10433
 5932.5     68.58867   109.58018
 5933     70.14828   123.65885
 5933.5     73.18555   123.98444
 5934     73.88718   124.31004
 5934.5     74.07057   124.63563
 5935     76.93962   121.70767
 5935.5     76.13949   110.07345
 5936     70.02478   112.39015
 5936.5     70.00339   114.70684
 5937     71.68195   117.02354
 5937.5     67.90413   110.65415
 5938     67.29615   109.76246
 5938.5     70.52377   108.47941
 5939     68.88807   106.59286
 5939.5     66.69006   104.70631
 5940     64.49206   104.09105
 5940.5     66.87443   105.37027
 5941     68.35026   100.70258
 5941.5     65.75138   93.36373
 5942     64.72853   81.59738
 5942.5     64.42145   69.83103
 5943     63.73878   58.06468
 5943.5     62.11612   59.96723
 5944     58.34736   65.78129
 5944.5     63.28962   76.41434
 5945     64.16921   91.60596
 5945.5     65.0488   106.79758
 5946     68.70268   121.9892
 5946.5     70.27953   116.51256
 5947     70.10094   109.40438
 5947.5     71.16338   102.29621
 5948     68.19419   96.01806
 5948.5     67.80263   90.38959
 5949     69.13762   84.76112
 5949.5     70.47262   76.09128
 5950     66.85432   65.10572
 5950.5     62.33856   54.12016
 5951     64.35464   55.00937
 5951.5     66.37072   55.58796
 5952     66.37939   56.16654
 5952.5     67.54811   56.80491
 5953     68.33649   58.22768
 5953.5     69.05136   59.81078
 5954     69.34635   63.17834
 5954.5     69.38075   66.49322
 5955     70.20305   69.74202
 5955.5     71.32492   72.99083
 5956     71.74296   77.21457
 5956.5     74.32406   71.04391
 5957     78.13453   60.92893
 5957.5     80.908   55.51219
 5958     77.91175   51.81102
 5958.5     72.73226   49.32744
 5959     69.80437   48.35863
 5959.5     69.34229   47.78046
 5960     72.81746   47.3995
 5960.5     74.32727   47.01855
 5961     72.7809   43.29523
 5961.5     71.23452   40.42526
 5962     74.89315   41.76915
 5962.5     73.11632   43.44523
 5963     70.5749   44.34399
 5963.5     72.43286   46.27023
 5964     74.29081   48.19647
 5964.5     76.14876   50.12271
 5965     75.11349   49.05622
 5965.5     73.89818   49.87014
 5966     73.3844   51.37313
 5966.5     74.86063   52.20491
 5967     74.68192   50.31918
 5967.5     74.50321   48.43344
 5968     74.58305   47.62194
 5968.5     72.64504   49.72215
 5969     75.4366   51.82235
 5969.5     74.82168   53.92255
 5970     73.29168   51.95065
 5970.5     73.66766   49.8449
 5971     76.20591   47.73915
 5971.5     78.39039   46.4982
 5972     76.46073   46.22537
 5972.5     75.21706   47.92816
 5973     74.8818   49.82655
 5973.5     75.25365   50.42755
 5974     76.07682   48.87179
 5974.5     78.27894   47.67091
 5975     77.28153   47.41014
 5975.5     76.18074   48.26532
 5976     75.07994   49.66479
 5976.5     74.51269   51.06427
 5977     75.24709   52.46374
 5977.5     73.44171   53.86321
 5978     72.86202   52.51844
 5978.5     73.59261   50.55547
 5979     74.34064   48.5925
 5979.5     75.64675   46.62953
 5980     76.95286   44.66657
 5980.5     77.1883   42.7036
 5981     76.47133   40.74063
 5981.5     75.49955   38.77767
 5982     74.32929   36.8147
 5982.5     72.54334   40.74796
 5983     70.90008   44.65668
 5983.5     74.47967   45.58459
 5984     78.02024   46.43551
 5984.5     77.50617   47.40834
 5985     75.65895   48.45347
 5985.5     73.93497   49.22527
 5986     75.04606   48.84431
 5986.5     75.57631   48.46335
 5987     74.57627   50.61931
 5987.5     73.57623   52.88452
 5988     76.24963   54.49294
 5988.5     77.31189   53.6272
 5989     71.93379   52.50304
 5989.5     70.74788   48.50471
 5990     73.31798   44.50638
 5990.5     74.88193   40.50805
 5991     73.87121   36.50972
 5991.5     72.408   38.52859
 5992     70.94455   45.67978
 5992.5     65.38897   70.97784
 5993     64.46345   91.89608
 5993.5     65.11204   107.86777
 5994     70.20959   123.59104
 5994.5     74.95681   125.99806
 5995     75.72846   127.89426
 5995.5     74.83125   138.15856
 5996     70.24818   148.42287
 5996.5     67.04829   156.7906
 5997     71.08421   146.52154
 5997.5     76.17159   141.26079
 5998     72.46574   142.44205
 5998.5     70.4715   143.6233
 5999     71.99914   138.71751
 5999.5     74.77718   129.02741
 6000     70.91587   127.98184
 6000.5     69.92442   129.21239
 6001     71.73066   130.44294
 6001.5     71.62887   138.56343
 6002     71.80061   142.94015
 6002.5     72.5254   145.98506
 6003     70.24713   138.30139
 6003.5     72.20804   130.61772
 6004     74.52985   118.97337
 6004.5     76.35087   98.40725
 6005     76.1991   80.87259
 6005.5     67.90838   71.77263
 6006     63.05717   63.25963
 6006.5     63.51302   57.88404
 6007     65.1635   55.08064
 6007.5     68.24256   53.8189
 6008     68.94127   52.55717
 6008.5     68.01892   52.7315
 6009     67.14798   52.93457
 6009.5     67.67897   52.35893
 6010     68.20995   48.77531
 6010.5     68.35502   47.51311
 6011     68.28722   46.25091
 6011.5     68.21941   44.88406
 6012     68.15161   45.7685
 6012.5     67.22879   47.66159
 6013     65.85165   48.77832
 6013.5     64.409   49.37325
 6014     64.51848   50.92142
 6014.5     67.23309   52.53827
 6015     68.5947   53.47598
 6015.5     67.98443   53.37018
 6016     67.33158   53.27256
 6016.5     67.12712   52.08889
 6017     67.21716   51.14577
 6017.5     67.48399   51.21987
 6018     66.25853   52.89458
 6018.5     64.92776   58.0989
 6019     65.70421   69.74429
 6019.5     67.95816   81.38968
 6020     69.53021   93.03508
 6020.5     71.10226   100.7296
 6021     72.67431   93.10295
 6021.5     71.05157   85.4763
 6022     63.25042   70.37148
 6022.5     61.66981   55.16507
 6023     63.49415   59.98884
 6023.5     63.2148   66.79361
 6024     62.93545   73.59839
 6024.5     67.87363   94.63704
 6025     72.28244   125.34384
 6025.5     75.09872   134.65873
 6026     77.915   143.97362
 6026.5     77.60895   153.2885
 6027     76.73505   148.72951
 6027.5     75.09058   139.55623
 6028     71.31976   137.81827
 6028.5     72.46962   136.08031
 6029     74.2194   116.56804
 6029.5     74.05191   110.22263
 6030     70.70749   96.83086
 6030.5     66.8848   81.1714
 6031     63.06211   73.60531
 6031.5     63.29054   71.24654
 6032     62.49256   70.43319
 6032.5     61.10346   73.67008
 6033     60.22878   79.3225
 6033.5     62.65927   85.08545
 6034     65.18177   90.84839
 6034.5     67.70426   96.61134
 6035     69.32668   97.62835
 6035.5     70.78624   90.46399
 6036     66.97304   82.86407
 6036.5     63.85053   75.26415
 6037     61.23923   67.66422
 6037.5     61.20535   64.47813
