#--------------------------------------------------#
#-------------------ENVERUS, INC.------------------#
#------------------WWW.ENVERUS.COM-----------------#
#------------------COPYRIGHT 2020------------------#
#--------------------------------------------------#
#THIS FILE MAY BE USED ONLY IN ACCORDANCE WITH A CURRENT SUBSCRIPTION AGREEMENT BETWEEN
#THE USER AND ENVERUS, INC. NO PART OF THIS FILE MAY BE REPRODUCED, USED, COPIED,
#MODIFIED, PROPAGATED, OR DISTRIBUTED EXCEPT IN ACCORDANCE WITH THE SUBSCRIPTION
#AGREEMENT. UNAUTHORIZED USE OR DISTRIBUTION OF ALL OR ANY PART OF THIS FILE MAY VIOLATE
#COPYRIGHT, TRADEMARK, AND/OR OTHER LAWS AND IS SUBJECT TO CIVIL AS WELL AS CRIMINAL
#SANCTIONS.
#--------------------------------------------------#
#THIS FILE IS PROVIDED "AS-IS" AND ALL WARRANTIES ARE EXPRESSLY DISCLAIMED, WHETHER
#EXPRESS, ORAL, IMPLIED, STATUTORY OR OTHERWISE, INCLUDING ANY IMPLIED WARRANTY OF FITNESS
#FOR A PARTICULAR PURPOSE, MERCHANTABILITY, TITLE OR NON-INFRINGEMENT, AND ANY WARRANTIES
#ARISING BY VIRTUE OF CUSTOM OF TRADE OR COURSE OF DEALING.  FURTHER, ENVERUS, INC.
#AND ITS LICENSORS DO NOT REPRESENT OR WARRANT THAT THIS FILE WILL MEET USER'S
#REQUIREMENTS OR ARE SUITABLE FOR USER'S NEEDS OR THAT THE DATA OR RESULTS PROVIDED IN
#CONJUNCTION THEREWITH ARE CORRECT, ACCURATE, TIMELY OR RELIABLE. THESE DISCLAIMERS SHALL
#APPLY REGARDLESS OF ANY FAILURE OF ESSENTIAL PURPOSE OF ANY LIMITED REMEDY.  SOME
#JURISDICTIONS DO NOT ALLOW THE EXCLUSION OF CERTAIN WARRANTIES SO SOME OF THE ABOVE
#EXCLUSIONS MAY NOT APPLY. IN NO EVENT SHALL ENVERUS, INC. OR ANY OF ITS AFFILIATES
#BE LIABLE UNDER ANY LEGAL THEORY, WHETHER IN TORT (INCLUDING WITHOUT LIMITATION
#NEGLIGENCE), CONTRACT, STRICT LIABILITY, STATUTORY OR OTHERWISE, FOR ANY SPECIAL,
#INCIDENTAL, CONSEQUENTIAL, EXEMPLARY, PUNITIVE OR INDIRECT DAMAGE OF ANY KIND, INCLUDING
#WITHOUT LIMITATION LOSS OF REVENUE, PROFITS, GOODWILL, USE, AND/OR DATA OR THE COST OF
#PROCUREMENT OF SUBSTITUTE GOODS OR SERVICES, EVEN IF APPRISED OF THE POSSIBILITY OF SUCH
#DAMAGES IN ADVANCE.
#--------------------------------------------------#

~VERSION INFORMATION
VERS. 2.0 : CWLS LOG ASCII STANDARD - VERSION 2.0
WRAP.  NO : ONE LINE PER DEPTH STEP
~WELL INFORMATION
#MNEMONIC     .UNIT              VALUE :DESCRIPTION
STRT       .FT                102 :START DEPTH
STOP       .FT                9071 :STOP DEPTH
STEP       .FT                   0.500 :STEP
NULL       .                  -999.99 :NULL
UWI        .                42389104910000 :UNIQUE WELL ID
API        .                42389104910000 :API NUMBER
COMP       .         :COMPANY
WELL       .        :WELL
DATE       .                 :LOG DATE
FLD       .                 :FIELD NAME
LOC       .                  UNK :LOCATION
CNTY       .                 UNK :COUNTY
STAT       .                 UNK :STATE
CTRY       .                 UNK :COUNTY
SRVC       .                 UNK :SERVICE COMPANY
~CURVE INFORMATION
#MNEMONIC     .UNIT      API CODE :CURVE DESCRIPTION
DEPTH       .FT                      :MEASURED DEPTH
DT.MSEC/FT        UNKNOWN   :DT
GR.API        UNKNOWN   :GR
~A    DEPTH    DT    GR
# ...
 5452     65.96049   35.25364
 5452.5     65.48361   35.64107
 5453     64.2323   36.99792
 5453.5     62.981   39.04182
 5454     62.4559   41.40229
 5454.5     62.45481   42.69977
 5455     63.12014   43.81327
 5455.5     65.49767   45.60206
 5456     65.59554   48.64787
 5456.5     65.6934   51.69368
 5457     65.79127   54.73949
 5457.5     65.93306   55.21374
 5458     66.31762   54.29919
 5458.5     67.83404   50.98967
 5459     69.59128   47.68015
 5459.5     69.44908   44.37063
 5460     68.97543   45.71417
 5460.5     68.07463   47.19379
 5461     67.82961   46.87429
 5461.5     67.99374   43.59375
 5462     68.29191   39.67907
 5462.5     68.63484   39.29484
 5463     70.40462   40.13576
 5463.5     70.40353   42.6167
 5464     70.03624   45.09764
 5464.5     69.35215   47.57858
 5465     68.66806   50.05951
 5465.5     68.6397   52.54045
 5466     69.41218   50.41852
 5466.5     70.18465   46.34636
 5467     70.43487   42.2742
 5467.5     70.01146   38.20204
 5468     69.58805   35.3321
 5468.5     69.16463   32.98179
 5469     68.74122   30.63148
 5469.5     69.00301   29.10271
 5470     69.59283   28.22112
 5470.5     70.18265   27.33953
 5471     70.23128   26.45795
 5471.5     66.85326   25.67075
 5472     62.94022   26.82666
 5472.5     61.6298   27.98257
 5473     61.1771   29.13848
 5473.5     64.81927   30.29438
 5474     68.73044   31.03125
 5474.5     70.70131   31.33813
 5475     70.88873   31.87673
 5475.5     70.28112   32.69572
 5476     69.62427   33.51471
 5476.5     68.90153   34.33369
 5477     68.14642   35.15268
 5477.5     67.25725   35.72606
 5478     67.15362   36.27416
 5478.5     67.44132   36.96224
 5479     68.13017   37.73008
 5479.5     68.85788   38.49792
 5480     69.12622   39.26523
 5480.5     69.16169   39.49674
 5481     69.32719   39.24773
 5481.5     69.56934   38.72935
 5482     69.8115   38.21097
 5482.5     70.05365   38.09175
 5483     69.49985   38.14098
 5483.5     67.4197   38.19021
 5484     65.42819   38.23944
 5484.5     65.09833   38.28868
 5485     64.76848   38.33791
 5485.5     64.43863   38.38714
 5486     65.68958   40.23699
 5486.5     65.81693   41.85305
 5487     65.33404   43.13617
 5487.5     64.85115   44.41928
 5488     64.59419   45.7024
 5488.5     64.73441   46.22386
 5489     65.41153   46.36484
 5489.5     66.17173   47.17185
 5490     66.92301   49.12113
 5490.5     67.32577   55.49005
 5491     67.22344   61.85897
 5491.5     67.1211   69.9222
 5492     67.44331   78.68149
 5492.5     68.24598   87.44078
 5493     73.48403   95.47351
 5493.5     74.26298   100.43199
 5494     75.04194   105.39047
 5494.5     75.82089   110.34895
 5495     76.38053   110.55784
 5495.5     77.66824   109.13841
 5496     79.218   99.49789
 5496.5     83.13662   89.66157
 5497     87.94441   79.78757
 5497.5     88.92396   69.91358
 5498     87.5991   60.03959
 5498.5     84.55122   50.1656
 5499     78.05761   48.40004
 5499.5     72.26504   43.88082
 5500     71.14167   40.52505
 5500.5     70.01831   40.00687
 5501     68.89494   39.48868
 5501.5     68.86301   38.27023
 5502     68.89338   35.62016
 5502.5     68.92375   31.86785
 5503     68.95411   28.11554
 5503.5     68.27159   27.22681
 5504     66.2178   26.89174
 5504.5     64.16401   26.55667
 5505     61.27019   26.73767
 5505.5     59.6505   28.76658
 5506     59.20134   30.79549
 5506.5     58.95667   32.82439
 5507     63.12358   34.8533
 5507.5     67.29048   36.88221
 5508     70.7644   38.91112
 5508.5     70.81539   40.94002
 5509     70.86637   41.62341
 5509.5     70.91736   40.71954
 5510     70.96835   39.81568
 5510.5     70.60933   38.82672
 5511     70.19188   37.80932
 5511.5     69.77442   36.12269
 5512     69.79258   34.39596
 5512.5     70.28678   32.66922
 5513     70.67763   27.96508
 5513.5     70.7065   28.30972
 5514     70.73538   28.65436
 5514.5     65.24652   30.33683
 5515     61.11154   33.98508
 5515.5     60.44954   36.87349
 5516     61.31641   39.57107
 5516.5     64.69308   42.26866
 5517     68.06975   44.96624
 5517.5     68.87723   45.09859
 5518     69.22961   44.04398
 5518.5     69.58199   45.43309
 5519     70.63302   48.13093
 5519.5     71.9984   49.84441
 5520     72.0149   49.84954
 5520.5     71.86767   49.2264
 5521     71.24344   47.42905
 5521.5     70.53893   42.95286
 5522     69.83442   40.74991
 5522.5     69.63023   41.77073
 5523     69.6601   42.79154
 5523.5     69.68996   43.81235
 5524     69.71982   41.80489
 5524.5     69.74969   38.92955
 5525     69.77955   37.04596
 5525.5     69.80941   36.02914
 5526     68.98782   37.43524
 5526.5     67.11845   39.75145
 5527     66.91566   42.06765
 5527.5     67.90045   41.70049
 5528     68.93299   38.9637
 5528.5     69.96553   39.83213
 5529     70.63838   40.85234
 5529.5     70.63737   41.23201
 5530     70.63636   39.48048
 5530.5     70.25788   38.70081
 5531     69.81843   38.43407
 5531.5     69.48348   38.16734
 5532     69.77079   37.68861
 5532.5     70.20812   36.51999
 5533     70.94085   34.78725
 5533.5     71.57188   33.05451
 5534     71.97395   30.60064
 5534.5     72.67957   27.76008
 5535     74.18259   24.91953
 5535.5     75.68561   23.32982
 5536     75.98403   22.82353
 5536.5     75.39389   23.35011
 5537     74.73601   23.87668
 5537.5     73.1236   24.40326
 5538     70.951   24.92984
 5538.5     68.77841   25.45642
 5539     67.31152   25.67427
 5539.5     66.73524   25.55214
 5540     67.9063   25.43002
 5540.5     70.09891   25.30789
 5541     72.29151   25.18576
 5541.5     74.48411   25.06363
 5542     76.67672   24.9415
 5542.5     76.95717   24.79684
 5543     77.05745   24.57569
 5543.5     77.15774   24.35455
 5544     77.8026   24.13341
 5544.5     78.46114   23.91226
 5545     79.11968   23.69112
 5545.5     78.66698   24.24606
 5546     77.9619   25.00372
 5546.5     77.25682   26.26614
 5547     77.28683   27.69866
 5547.5     78.65007   29.13117
 5548     80.04684   30.56369
 5548.5     81.36416   31.9962
 5549     80.0804   33.42871
 5549.5     78.46504   34.86123
 5550     76.84968   36.29374
 5550.5     76.20095   35.69092
 5551     76.3244   33.47608
 5551.5     76.52614   33.1679
 5552     76.72788   33.47466
 5552.5     76.88104   32.88378
 5553     77.0652   31.93543
 5553.5     77.42116   30.03066
 5554     77.77712   26.98322
 5554.5     77.87608   23.93578
 5555     77.26394   22.99751
 5555.5     76.33911   23.90575
 5556     75.41429   24.81398
 5556.5     74.48946   25.72221
 5557     74.45338   26.00927
 5557.5     74.58359   25.51979
 5558     75.43595   25.03031
 5558.5     76.28832   25.2719
 5559     77.14069   25.54824
 5559.5     77.77594   25.82459
 5560     77.9395   25.95089
 5560.5     78.10307   25.95596
 5561     78.04158   26.13525
 5561.5     76.69971   26.47954
 5562     75.35784   26.39717
 5562.5     74.53512   27.24268
 5563     74.77576   28.93628
 5563.5     75.89592   28.77803
 5564     77.01608   27.98999
 5564.5     78.13624   27.23954
 5565     77.45506   27.61427
 5565.5     76.59951   27.989
 5566     75.74395   28.36373
 5566.5     75.58935   28.73846
 5567     76.09498   28.99583
 5567.5     76.6006   26.54429
 5568     76.70761   26.09155
 5568.5     76.52144   25.82487
 5569     76.33528   25.55819
 5569.5     76.14911   25.29151
 5570     74.92193   25.02484
 5570.5     73.56182   25.6666
 5571     71.69127   28.98475
 5571.5     69.82072   32.30289
 5572     68.25583   34.61043
 5572.5     68.00248   34.36072
 5573     68.81233   34.11102
 5573.5     69.62217   33.86131
 5574     70.26334   33.89137
 5574.5     69.76881   34.06548
 5575     69.27429   35.24128
 5575.5     69.16085   36.59925
 5576     69.58603   37.95723
 5576.5     70.01122   38.96057
 5577     70.43641   38.62584
 5577.5     70.61815   38.29111
 5578     70.61722   37.95638
 5578.5     70.61628   37.62166
 5579     69.81242   39.65672
 5579.5     68.87523   46.06642
 5580     67.93805   52.48962
 5580.5     67.77262   58.91283
 5581     68.06489   66.67679
 5581.5     70.47559   75.55219
