#--------------------------------------------------#
#-------------------ENVERUS, INC.------------------#
#------------------WWW.ENVERUS.COM-----------------#
#------------------COPYRIGHT 2020------------------#
#--------------------------------------------------#
#THIS FILE MAY BE USED ONLY IN ACCORDANCE WITH A CURRENT SUBSCRIPTION AGREEMENT BETWEEN
#THE USER AND ENVERUS, INC. NO PART OF THIS FILE MAY BE REPRODUCED, USED, COPIED,
#MODIFIED, PROPAGATED, OR DISTRIBUTED EXCEPT IN ACCORDANCE WITH THE SUBSCRIPTION
#AGREEMENT. UNAUTHORIZED USE OR DISTRIBUTION OF ALL OR ANY PART OF THIS FILE MAY VIOLATE
#COPYRIGHT, TRADEMARK, AND/OR OTHER LAWS AND IS SUBJECT TO CIVIL AS WELL AS CRIMINAL
#SANCTIONS.
#--------------------------------------------------#
#THIS FILE IS PROVIDED "AS-IS" AND ALL WARRANTIES ARE EXPRESSLY DISCLAIMED, WHETHER
#EXPRESS, ORAL, IMPLIED, STATUTORY OR OTHERWISE, INCLUDING ANY IMPLIED WARRANTY OF FITNESS
#FOR A PARTICULAR PURPOSE, MERCHANTABILITY, TITLE OR NON-INFRINGEMENT, AND ANY WARRANTIES
#ARISING BY VIRTUE OF CUSTOM OF TRADE OR COURSE OF DEALING.  FURTHER, ENVERUS, INC.
#AND ITS LICENSORS DO NOT REPRESENT OR WARRANT THAT THIS FILE WILL MEET USER'S
#REQUIREMENTS OR ARE SUITABLE FOR USER'S NEEDS OR THAT THE DATA OR RESULTS PROVIDED IN
#CONJUNCTION THEREWITH ARE CORRECT, ACCURATE, TIMELY OR RELIABLE. THESE DISCLAIMERS SHALL
#APPLY REGARDLESS OF ANY FAILURE OF ESSENTIAL PURPOSE OF ANY LIMITED REMEDY.  SOME
#JURISDICTIONS DO NOT ALLOW THE EXCLUSION OF CERTAIN WARRANTIES SO SOME OF THE ABOVE
#EXCLUSIONS MAY NOT APPLY. IN NO EVENT SHALL ENVERUS, INC. OR ANY OF ITS AFFILIATES
#BE LIABLE UNDER ANY LEGAL THEORY, WHETHER IN TORT (INCLUDING WITHOUT LIMITATION
#NEGLIGENCE), CONTRACT, STRICT LIABILITY, STATUTORY OR OTHERWISE, FOR ANY SPECIAL,
#INCIDENTAL, CONSEQUENTIAL, EXEMPLARY, PUNITIVE OR INDIRECT DAMAGE OF ANY KIND, INCLUDING
#WITHOUT LIMITATION LOSS OF REVENUE, PROFITS, GOODWILL, USE, AND/OR DATA OR THE COST OF
#PROCUREMENT OF SUBSTITUTE GOODS OR SERVICES, EVEN IF APPRISED OF THE POSSIBILITY OF SUCH
#DAMAGES IN ADVANCE.
#--------------------------------------------------#

~VERSION INFORMATION
VERS. 2.0 : CWLS LOG ASCII STANDARD - VERSION 2.0
WRAP.  NO : ONE LINE PER DEPTH STEP
~WELL INFORMATION
#MNEMONIC     .UNIT              VALUE :DESCRIPTION
STRT       .FT                -3 :START DEPTH
STOP       .FT                21524 :STOP DEPTH
STEP       .FT                   0.500 :STEP
NULL       .                  -999.99 :NULL
UWI        .                42389105080000 :UNIQUE WELL ID
API        .                42389105080000 :API NUMBER
COMP       .         :COMPANY
WELL       .        :WELL
DATE       .                 :LOG DATE
FLD       .                 :FIELD NAME
LOC       .                  UNK :LOCATION
CNTY       .                 UNK :COUNTY
STAT       .                 UNK :STATE
CTRY       .                 UNK :COUNTY
SRVC       .                 UNK :SERVICE COMPANY
~CURVE INFORMATION
#MNEMONIC     .UNIT      API CODE :CURVE DESCRIPTION
DEPTH       .FT                      :MEASURED DEPTH
CAL.IN        UNKNOWN   :CAL
DT.MSEC/FT        UNKNOWN   :DT
GR.API        UNKNOWN   :GR
~A    DEPTH    CAL    DT    GR
# ...
 15600.5     10.12285   72.26976   57.44795
 15601     10.12218   72.3235   57.68269
 15601.5     10.12678   72.6689   57.91744
 15602     10.13138   73.0143   58.15218
 15602.5     10.13598   73.3597   58.38692
 15603     10.14058   73.59616   58.62166
 15603.5     10.14518   73.41925   58.68358
 15604     10.14978   73.24233   58.33245
 15604.5     10.15438   73.06542   57.98133
 15605     10.15898   72.88851   57.63021
 15605.5     10.16358   72.7116   57.27909
 15606     10.16819   72.733   56.92796
 15606.5     10.17279   72.82359   56.57684
 15607     10.17736   72.91418   56.4216
 15607.5     10.17253   73.00478   56.85401
 15608     10.16769   73.09537   57.28643
 15608.5     10.16285   73.11811   57.71884
 15609     10.15801   73.12978   58.15126
 15609.5     10.15317   73.14146   58.58367
 15610     10.14833   73.15313   58.44123
 15610.5     10.14349   73.16481   57.6843
 15611     10.13865   73.17648   56.92737
 15611.5     10.13996   73.07744   56.17043
 15612     10.14857   72.94468   55.41395
 15612.5     10.15718   72.81192   55.77846
 15613     10.16578   72.67916   56.14297
 15613.5     10.17439   72.5464   56.50749
 15614     10.183   72.41364   56.872
 15614.5     10.19161   72.28088   57.23651
 15615     10.20022   72.40991   57.1763
 15615.5     10.20883   72.83212   55.7249
 15616     10.21744   73.25433   54.27349
 15616.5     10.22605   73.67655   53.76808
 15617     10.23465   73.65089   54.99467
 15617.5     10.24326   73.50374   56.22125
 15618     10.25187   73.35658   57.44757
 15618.5     10.26048   73.88167   58.67357
 15619     10.26909   74.63061   59.89958
 15619.5     10.2777   75.30578   61.12558
 15620     10.28631   75.78744   62.09649
 15620.5     10.29491   76.2691   62.91469
 15621     10.30352   76.75075   63.73289
 15621.5     10.31213   77.23241   64.35577
 15622     10.32074   77.50759   63.23376
 15622.5     10.32935   77.40548   62.11175
 15623     10.33796   77.30337   60.98974
 15623.5     10.34657   77.20126   59.86773
 15624     10.3514   76.77213   58.74572
 15624.5     10.34015   76.20512   57.62371
 15625     10.3289   75.63811   57.7749
 15625.5     10.31766   75.07109   58.47974
 15626     10.30641   74.50408   59.18458
 15626.5     10.29568   73.93707   59.88942
 15627     10.28696   73.80681   60.59426
 15627.5     10.27825   73.88218   61.2991
 15628     10.26953   73.95755   60.7362
 15628.5     10.26082   74.03291   60.07789
 15629     10.25211   74.10828   59.41958
 15629.5     10.24339   73.17704   58.76128
 15630     10.23468   72.7381   58.16482
 15630.5     10.22596   72.77807   57.58716
 15631     10.21725   72.81804   57.0095
 15631.5     10.21218   72.85801   56.43183
 15632     10.20967   72.27324   57.998
 15632.5     10.20717   71.65576   59.73479
 15633     10.20466   71.03828   61.47159
 15633.5     10.20216   70.42081   62.99813
 15634     10.19966   69.95432   62.12831
 15634.5     10.19715   70.40565   61.25849
 15635     10.19465   70.85698   60.38867
 15635.5     10.19214   73.01617   59.51884
 15636     10.18964   73.4972   59.24968
 15636.5     10.18713   73.97823   60.55877
 15637     10.18463   74.45926   61.86786
 15637.5     10.18212   74.94029   63.00107
 15638     10.17962   75.33356   61.90453
 15638.5     10.17711   74.91302   60.808
 15639     10.17461   74.49247   59.71146
 15639.5     10.1845   74.07193   58.61493
 15640     10.20399   73.65138   57.51839
 15640.5     10.22348   73.23084   59.15194
 15641     10.24297   72.8103   60.93329
 15641.5     10.26245   72.38975   62.71464
 15642     10.28194   72.92794   64.496
 15642.5     10.30143   73.6256   64.6526
 15643     10.32092   74.32326   62.92451
 15643.5     10.3404   74.89322   61.19643
 15644     10.35989   74.67514   59.46835
 15644.5     10.37398   74.45707   58.75374
 15645     10.37212   74.23899   60.38989
 15645.5     10.37027   74.02092   62.02605
 15646     10.36841   73.80284   62.82261
 15646.5     10.36655   73.74196   62.45261
 15647     10.36469   73.75356   62.08261
 15647.5     10.36284   73.76517   61.71261
 15648     10.36098   73.77677   61.3426
 15648.5     10.35912   73.78837   60.9726
 15649     10.35727   73.79998   60.6026
 15649.5     10.35541   73.97302   60.2326
 15650     10.35355   74.25938   59.86259
 15650.5     10.35169   74.54574   59.49259
 15651     10.34984   74.8321   59.12259
 15651.5     10.34798   75.11846   59.43364
 15652     10.34612   75.02499   59.8643
 15652.5     10.34426   74.75044   60.29496
 15653     10.34241   74.47589   60.72562
 15653.5     10.34055   74.20135   61.15627
 15654     10.33869   73.9268   61.58693
 15654.5     10.33683   73.65225   61.49358
 15655     10.33498   73.3777   60.74575
 15655.5     10.33312   73.10316   59.99792
 15656     10.33126   72.82861   59.25009
 15656.5     10.3294   72.55406   58.50226
 15657     10.32755   72.52303   57.75443
 15657.5     10.32569   72.86916   57.86698
 15658     10.32383   73.2153   58.38389
 15658.5     10.32197   73.56144   58.90079
 15659     10.32012   73.90758   59.4177
 15659.5     10.31826   74.01627   59.93461
 15660     10.3164   73.86014   60.45152
 15660.5     10.31454   73.70401   60.96843
 15661     10.31269   73.54788   60.67057
 15661.5     10.31083   73.39174   58.57556
 15662     10.30897   73.23561   56.48055
 15662.5     10.30653   73.07948   57.53626
 15663     10.30409   73.30808   59.63224
 15663.5     10.30164   73.63304   61.17805
 15664     10.2992   73.958   60.36179
 15664.5     10.29676   74.28297   59.54553
 15665     10.29432   74.60793   58.72928
 15665.5     10.29188   74.9329   57.91302
 15666     10.28944   74.78717   57.84176
 15666.5     10.287   74.38667   58.07988
 15667     10.28455   73.98616   58.318
 15667.5     10.28211   73.58565   58.55612
 15668     10.27967   73.18515   58.79425
 15668.5     10.27723   74.02823   59.03237
 15669     10.27479   75.12808   55.48487
 15669.5     10.27235   75.13357   55.57733
 15670     10.26991   75.07211   55.66978
 15670.5     10.41363   75.01064   55.76223
 15671     10.64363   74.94917   55.85468
 15671.5     10.71155   74.92649   55.94713
 15672     10.63218   75.37591   54.91998
 15672.5     10.55281   75.82534   52.92661
 15673     10.52688   75.6828   50.93324
 15673.5     10.5284   75.15261   51.35371
 15674     10.52993   74.62243   51.83215
 15674.5     10.53145   74.09224   52.31059
 15675     10.53298   74.00221   52.78903
 15675.5     10.5345   74.56033   53.26747
 15676     10.53603   75.13947   53.74591
 15676.5     10.53755   75.73607   54.22435
 15677     10.53908   76.33267   53.93482
 15677.5     10.5406   76.92928   51.75421
 15678     10.54213   77.35649   50.82836
 15678.5     10.54365   77.11079   52.05645
 15679     10.54518   76.8651   53.28453
 15679.5     10.5467   76.6194   54.51261
 15680     10.54823   76.37371   55.74069
 15680.5     10.54975   76.12801   55.234
 15681     10.55128   75.96974   54.49907
 15681.5     10.5528   76.29592   53.76414
 15682     10.55433   76.62209   53.02921
 15682.5     10.55586   76.94826   52.43798
 15683     10.55738   77.27443   53.46191
 15683.5     10.55891   76.97954   54.48585
 15684     10.56043   76.56816   55.50978
 15684.5     10.56196   76.15677   56.53371
 15685     10.56348   75.74539   57.55765
 15685.5     10.56501   75.334   58.58158
 15686     10.56653   75.24025   58.54646
 15686.5     10.56806   75.57066   58.00249
 15687     10.56958   75.90107   57.45852
 15687.5     10.57111   76.23148   56.91455
 15688     10.57263   76.56189   56.37058
 15688.5     10.57102   76.57322   55.82661
 15689     10.56336   76.26559   55.28264
 15689.5     10.5557   75.95796   54.47886
 15690     10.54804   75.65034   53.66196
 15690.5     10.54038   75.34271   52.84507
 15691     10.53272   75.03508   52.02817
 15691.5     10.52506   75.02394   51.21128
 15692     10.5174   75.35424   50.39438
 15692.5     10.50974   75.68453   50.88561
 15693     10.50208   76.01482   51.57496
 15693.5     10.49442   76.34512   52.26431
 15694     10.48676   76.38741   52.95366
