###############################################
##         ENVERUS                           ##
##         Petrophysical Curves              ##
##         PERMIAN / DELAWARE                ##
##         Jan 21 2022                       ##
##         42-389-10508-00-00                ##
###############################################
## Copyright 2017-2022  ENVERUS.  All Rights Reserved. 
## Confidential - Property of ENVERUS, use governed by terms and 
## conditions found within the existing Information Services Subscription Agreement 
## (as may be amended, the “ISSA”) between Customer and ENVERUS. 
## 
~VERSION INFORMATION
# MNEM.UNIT                               DATA : DESCRIPTION OF MNEMONIC
#-----.-----     ----------------------------- : -----------------------------
VERS.                                     2.00 : CWLS LOG ASCII STANDARD - VERSION 2.00
WRAP.                                       NO : MULTIPLE LINES PER DEPTH STEP
VEND.                                  ENVERUS : VENDOR
TYPE.                     PETROPHYSICAL CURVES : ENVERUS PETROPHYSICAL CURVES - ACCESSIBLE THROUGH ENVERUS CORE(TM)
#___________________________________________________________________________________________________ 
~WELL INFORMATION 
# uyaQ8P8kQDJ9DXFS5hR1PxmExEOYaAUkY5f3/tnOS+scoPAUWgXA1zCIHGRbWCuSuUcwDzaESCjqjWQ81XhadA== 
# MNEM.UNIT                                              DATA : DESCRIPTION OF MNEMONIC 
#-----.-----                    ----------------------------- : ----------------------------- 
CNTY.                                                  REEVES : COUNTY 
STATE.                                                  TEXAS : STATE 
CNTRY.                                                    USA : COUNTRY 
API.                                             42-389-10508 : API (10 Digit) 
API_14.                                    42-389-10508-00-00 : API (14 Digits) 
API_14_std.                                 42-389-10508-0000 : API (14 Digits Standard) 
UWI.                                           42389105080000 : UNIQUE WELL ID
STRT.FT                                               11776.0 : START DEPTH
STOP.FT                                               33299.5 : STOP DEPTH
STEP.FT                                                   0.5 : STEP BETWEEN DEPTHS
NULL.                                                 -999.25 : NULL VALUE
COMP.                                                  SABINE : COMPANY 
WELL.                                                       1 : WELL NAME 
FLD.                                         ROJO CABALLOS W. : FIELD NAME
#___________________________________________________________________________________________________ 
~CURVE INFORMATION 
#    Zone Description
#          1 = Upper Avalon
#          2 = Middle Avalon
#          3 = Lower Avalon
#          4 = 1st Bone Spring
#          5 = 2nd Bone Spring
#          6 = 2nd Bone Spring Sand
#          7 = 3rd Bone Spring
#          8 = 3rd Bone Spring Sand
#          9 = Wolfcamp XY
#          10 = Wolfcamp A Upper
#          11 = Wolfcamp A Lower
#          12 = Wolfcamp B Upper
#          13 = Wolfcamp B Lower
#          14 = Wolfcamp C
#          15 = Wolfcamp D
#          16 = Pennsylvanian Shale
#          17 = Lower Pennsylvanian Shale
#          18 = Barnett
#          19 = Barnett Lower
#          20 = Mississippian Lime
#          21 = Woodford
#          22 = Base Woodford 
# MNEM.UNIT           : CURVE DESCRIPTION 
#-----.-----          : ----------------------------- 
 DEPT.FT               : MEASURED DEPTH 
 TVD_I.FT              : ENVERUS TRUE VERTICAL DEPTH 
 ZONE_I.               : ENVERUS DEFINED ZONE CODE 
 GR_N_I.API            : ENVERUS NORMALIZED GAMMA RAY LEVERAGED IN GEOLOGICAL MODELLING 
 TEMP_I.DEGF           : ENVERUS INTERPRETED TEMPERATURE DERIVED FROM BOTTOM HOLE TEMPERATURES 
 #___________________________________________________________________________________________________ 
~A         DEPT          TVD_I         ZONE_I         GR_N_I         TEMP_I
# ...
        16069.0      16068.999        -999.25         30.697        110.459
        16069.5      16069.499        -999.25         30.009        110.465
        16070.0      16070.001        -999.25         29.321        110.470
        16070.5      16070.501        -999.25         28.633        110.476
        16071.0      16071.000        -999.25         27.945        110.481
        16071.5      16071.500        -999.25         27.369        110.487
        16072.0      16072.000        -999.25         27.616        110.492
        16072.5      16072.500        -999.25         27.863        110.498
        16073.0      16073.000        -999.25         28.110        110.503
        16073.5      16073.499        -999.25         28.357        110.509
        16074.0      16073.999        -999.25         28.513        110.514
        16074.5      16074.500        -999.25         28.652        110.520
        16075.0      16075.000        -999.25         28.791        110.525
        16075.5      16075.500        -999.25         28.930        110.531
        16076.0      16076.000        -999.25         29.054        110.537
        16076.5      16076.500        -999.25         29.053        110.542
        16077.0      16077.000        -999.25         29.051        110.548
        16077.5      16077.500        -999.25         29.050        110.553
        16078.0      16077.999        -999.25         29.049        110.559
        16078.5      16078.499        -999.25         28.997        110.564
        16079.0      16079.001        -999.25         28.844        110.570
        16079.5      16079.501        -999.25         28.691        110.575
        16080.0      16080.001        -999.25         28.537        110.581
        16080.5      16080.500        -999.25         27.941        110.586
        16081.0      16081.000        -999.25         27.253        110.592
        16081.5      16081.500        -999.25         26.531        110.597
        16082.0      16081.999        -999.25         25.564        110.603
        16082.5      16082.499        -999.25         26.297        110.608
        16083.0      16083.000        -999.25         27.610        110.614
        16083.5      16083.500        -999.25         28.502        110.620
        16084.0      16084.000        -999.25         28.501        110.625
        16084.5      16084.500        -999.25         28.499        110.631
        16085.0      16085.000        -999.25         28.309        110.636
        16085.5      16085.500        -999.25         28.044        110.642
        16086.0      16086.000        -999.25         27.778        110.647
        16086.5      16086.500        -999.25         27.513        110.653
        16087.0      16086.999        -999.25         27.248        110.658
        16087.5      16087.501        -999.25         26.982        110.664
        16088.0      16088.001        -999.25         26.717        110.669
        16088.5      16088.501        -999.25         26.697        110.675
        16089.0      16089.001        -999.25         26.799        110.680
        16089.5      16089.500        -999.25         26.900        110.686
        16090.0      16090.000        -999.25         27.001        110.691
        16090.5      16090.499        -999.25         27.205        110.697
        16091.0      16090.999        -999.25         27.436        110.702
        16091.5      16091.499        -999.25         27.667        110.708
        16092.0      16092.000        -999.25         27.946        110.714
        16092.5      16092.500        -999.25         28.309        110.719
        16093.0      16093.000        -999.25         28.672        110.725
        16093.5      16093.500        -999.25         28.775        110.730
        16094.0      16094.000        -999.25         28.818        110.736
        16094.5      16094.500        -999.25         28.860        110.741
        16095.0      16095.000        -999.25         28.610        110.747
        16095.5      16095.500        -999.25         28.278        110.752
        16096.0      16096.001        -999.25         27.946        110.758
        16096.5      16096.501        -999.25         27.614        110.763
        16097.0      16097.001        -999.25         27.386        110.769
        16097.5      16097.501        -999.25         27.341        110.774
        16098.0      16098.000        -999.25         27.296        110.780
        16098.5      16098.500        -999.25         27.251        110.785
        16099.0      16098.999        -999.25         27.206        110.791
        16099.5      16099.499        -999.25         27.161        110.797
        16100.0      16099.999        -999.25         27.195        110.802
        16100.5      16100.501        -999.25         27.442        110.808
        16101.0      16101.000        -999.25         28.086        110.813
        16101.5      16101.500        -999.25         28.824        110.819
        16102.0      16102.000        -999.25         28.789        110.824
        16102.5      16102.500        -999.25         28.753        110.830
        16103.0      16103.000        -999.25         28.718        110.835
        16103.5      16103.500        -999.25         28.777        110.841
        16104.0      16104.000        -999.25         28.852        110.846
        16104.5      16104.499        -999.25         28.928        110.852
        16105.0      16105.000        -999.25         29.223        110.857
        16105.5      16105.500        -999.25         29.856        110.863
        16106.0      16106.000        -999.25         30.488        110.868
        16106.5      16106.500        -999.25         31.120        110.874
        16107.0      16107.000        -999.25         31.753        110.879
        16107.5      16107.499        -999.25         32.385        110.885
        16108.0      16107.999        -999.25         32.946        110.891
        16108.5      16108.499        -999.25         32.919        110.896
        16109.0      16109.001        -999.25         32.892        110.902
        16109.5      16109.501        -999.25         32.865        110.907
        16110.0      16110.000        -999.25         32.838        110.913
        16110.5      16110.500        -999.25         32.812        110.918
        16111.0      16111.000        -999.25         32.026        110.924
        16111.5      16111.500        -999.25         31.149        110.929
        16112.0      16112.000        -999.25         30.273        110.935
        16112.5      16112.500        -999.25         29.397        110.940
        16113.0      16112.999        -999.25         29.095        110.946
        16113.5      16113.500        -999.25         28.967        110.951
        16114.0      16114.000        -999.25         29.372        110.957
        16114.5      16114.500        -999.25         29.778        110.962
        16115.0      16115.000        -999.25         30.183        110.968
        16115.5      16115.500        -999.25         30.588        110.974
        16116.0      16116.000        -999.25         30.750        110.979
        16116.5      16116.500        -999.25         30.675        110.985
        16117.0      16116.999        -999.25         30.428        110.990
        16117.5      16117.499        -999.25         30.181        110.996
        16118.0      16118.001        -999.25         29.935        111.001
        16118.5      16118.501        -999.25         29.688        111.007
        16119.0      16119.001        -999.25         29.441        111.012
        16119.5      16119.500        -999.25         29.194        111.018
        16120.0      16120.000        -999.25         28.980        111.023
        16120.5      16120.500        -999.25         28.803        111.029
        16121.0      16121.000        -999.25         28.626        111.034
        16121.5      16121.499        -999.25         28.449        111.040
