###############################################
##         ENVERUS                           ##
##         Petrophysical Curves              ##
##         PERMIAN / DELAWARE                ##
##         Jan 21 2022                       ##
##         42-371-36857-00-00                ##
###############################################
## Copyright 2017-2022  ENVERUS.  All Rights Reserved. 
## Confidential - Property of ENVERUS, use governed by terms and 
## conditions found within the existing Information Services Subscription Agreement 
## (as may be amended, the “ISSA”) between Customer and ENVERUS. 
## 
~VERSION INFORMATION
# MNEM.UNIT                               DATA : DESCRIPTION OF MNEMONIC
#-----.-----     ----------------------------- : -----------------------------
VERS.                                     2.00 : CWLS LOG ASCII STANDARD - VERSION 2.00
WRAP.                                       NO : MULTIPLE LINES PER DEPTH STEP
VEND.                                  ENVERUS : VENDOR
TYPE.                     PETROPHYSICAL CURVES : ENVERUS PETROPHYSICAL CURVES - ACCESSIBLE THROUGH ENVERUS CORE(TM)
#___________________________________________________________________________________________________ 
~WELL INFORMATION 
# uyaQ8P8kQDJ9DXFS5hR1PxmExEOYaAUkY5f3/tnOS+scoPAUWgXA1zCIHGRbWCuSuUcwDzaESCjqjWQ81XhadA== 
# MNEM.UNIT                                              DATA : DESCRIPTION OF MNEMONIC 
#-----.-----                    ----------------------------- : ----------------------------- 
CNTY.                                                   PECOS : COUNTY 
STATE.                                                  TEXAS : STATE 
CNTRY.                                                    USA : COUNTRY 
API.                                             42-371-36857 : API (10 Digit) 
API_14.                                    42-371-36857-00-00 : API (14 Digits) 
API_14_std.                                 42-371-36857-0000 : API (14 Digits Standard) 
UWI.                                           42371368570000 : UNIQUE WELL ID
STRT.FT                                                7870.0 : START DEPTH
STOP.FT                                               16592.5 : STOP DEPTH
STEP.FT                                                   0.5 : STEP BETWEEN DEPTHS
NULL.                                                 -999.25 : NULL VALUE
COMP.                                             DIAMONDBACK : COMPANY 
WELL.                                         MOORE-GILMORE 1 : WELL NAME 
FLD.                                               WAHA  WEST : FIELD NAME
#___________________________________________________________________________________________________ 
~CURVE INFORMATION 
#    Zone Description
#          1 = Upper Avalon
#          2 = Middle Avalon
#          3 = Lower Avalon
#          4 = 1st Bone Spring
#          5 = 2nd Bone Spring
#          6 = 2nd Bone Spring Sand
#          7 = 3rd Bone Spring
#          8 = 3rd Bone Spring Sand
#          9 = Wolfcamp XY
#          10 = Wolfcamp A Upper
#          11 = Wolfcamp A Lower
#          12 = Wolfcamp B Upper
#          13 = Wolfcamp B Lower
#          14 = Wolfcamp C
#          15 = Wolfcamp D
#          16 = Pennsylvanian Shale
#          17 = Lower Pennsylvanian Shale
#          18 = Barnett
#          19 = Barnett Lower
#          20 = Mississippian Lime
#          21 = Woodford
#          22 = Base Woodford 
# MNEM.UNIT           : CURVE DESCRIPTION 
#-----.-----          : ----------------------------- 
 DEPT.FT               : MEASURED DEPTH 
 TVD_I.FT              : ENVERUS TRUE VERTICAL DEPTH 
 ZONE_I.               : ENVERUS DEFINED ZONE CODE 
 GR_N_I.API            : ENVERUS NORMALIZED GAMMA RAY LEVERAGED IN GEOLOGICAL MODELLING 
 RESD_I.OHMM           : ENVERUS DEEP RESISTIVITY LEVERAGED IN GEOLOGICAL MODELLING 
 DPHI_I.V/V            : ENVERUS INTERPRETED DENSITY POROSITY USING A 2.71 G/CC MATRIX DENSITY 
 PHIE_I.V/V            : ENVERUS INTERPRETED EFFECTIVE POROSITY 
 SW_I.V/V              : ENVERUS INTERPRETED WATER SATURATION USING MODIFIED SIMANDOUX EQUATION 
 TOC_I.WT%             : ENVERUS INTERPRETED TOTAL ORGANIC CARBON USING MULTI-LINEAR REGRESSION 
 VCLAY_I.V/V           : ENVERUS INTERPRETED CLAY VOLUMES USING MULTI-LINEAR REGRESSION 
 NVCLAY_I.V/V          : ENVERUS INTERPRETED NON CLAY VOLUMES 
 HCPV_I.V/V            : ENVERUS INTERPRETED HYDROCARBON PORE VOLUME 
 OOIP_I.MMBBL/SEC      : ENVERUS INTERPRETED ORIGINAL OIL IN PLACE 
 OGIP_I.BCF/SEC        : ENVERUS INTERPRETED ORIGINAL GAS IN PLACE 
 TEMP_I.DEGF           : ENVERUS INTERPRETED TEMPERATURE DERIVED FROM BOTTOM HOLE TEMPERATURES 
 #___________________________________________________________________________________________________ 
~A         DEPT          TVD_I         ZONE_I         GR_N_I         RESD_I         DPHI_I         PHIE_I           SW_I          TOC_I        VCLAY_I       NVCLAY_I         HCPV_I         OOIP_I         OGIP_I         TEMP_I
# ...
        12820.0      12820.000        -999.25         86.702         3.7780        0.08110        0.06040        0.94750        2.69510        0.25590        0.68370        0.00000        0.00890       77.17790        549.046
        12820.5      12820.500        -999.25         87.054         3.7620        0.08260        0.06120        0.93690        2.74350        0.25950        0.67930        0.00000        0.01080       93.94570        549.065
        12821.0      12821.000        -999.25         87.406         3.8510        0.08470        0.06240        0.90670        2.80600        0.26360        0.67400        0.00010        0.01630      141.76500        549.084
        12821.5      12821.500        -999.25         94.538         3.9400        0.08690        0.06300        0.87400        2.99740        0.27490        0.66200        0.00230        0.02220      193.23230        549.102
        12822.0      12822.000        -999.25         97.802         4.0290        0.08910        0.06400        0.84550        3.11550        0.28170        0.65440        0.00490        0.02770      240.63420        549.121
        12822.5      12822.501        -999.25         98.762         4.1180        0.08760        0.06220        0.83780        3.12690        0.28980        0.64800        0.00450        0.02820      245.62990        549.140
        12823.0      12823.001        -999.25         99.722         4.2740        0.08290        0.05820        0.83820        3.07170        0.29830        0.64360        0.00220        0.02630      229.03620        549.159
        12823.5      12823.500        -999.25        101.845         4.5340        0.07820        0.05590        0.83990        2.96890        0.28520        0.65890        0.00000        0.02500      217.99960        549.178
        12824.0      12824.000        -999.25        104.468         4.7950        0.07580        0.05370        0.81540        2.98180        0.29150        0.65480        0.00000        0.02780      241.51840        549.197
        12824.5      12824.500        -999.25        105.338         5.0550        0.08170        0.05800        0.76030        3.11120        0.28960        0.65240        0.00260        0.03890      338.65990        549.216
        12825.0      12825.000        -999.25        101.338         5.3150        0.08730        0.06250        0.71390        3.14420        0.28400        0.65350        0.00810        0.05000      435.43260        549.235
        12825.5      12825.500        -999.25         97.339         5.5760        0.08780        0.06300        0.69030        3.08550        0.28270        0.65430        0.01080        0.05450      474.69560        549.254
        12826.0      12826.000        -999.25         93.339         5.8360        0.08890        0.06510        0.67400        2.99730        0.26790        0.66700        0.01200        0.05930      516.53850        549.273
        12826.5      12826.499        -999.25         89.340         5.7990        0.08470        0.06300        0.70190        2.81370        0.25700        0.68000        0.00940        0.05250      456.89450        549.292
        12827.0      12827.000        -999.25         85.340         5.5460        0.08060        0.06100        0.75170        2.62520        0.24400        0.69500        0.00630        0.04230      368.55300        549.311
        12827.5      12827.500        -999.25        102.158         5.2920        0.07970        0.05840        0.76300        2.94870        0.26740        0.67420        0.00890        0.03870      337.02270        549.330
        12828.0      12828.000        -999.25        105.966         5.0380        0.08760        0.06340        0.74270        3.20390        0.27640        0.66020        0.01540        0.04560      397.17390        549.349
        12828.5      12828.500        -999.25        109.774         4.7840        0.09090        0.06450        0.74390        3.38190        0.29080        0.64470        0.01770        0.04620      402.19980        549.368
        12829.0      12829.000        -999.25        113.582         4.5310        0.09020        0.06130        0.75730        3.52060        0.32040        0.61830        0.01790        0.04160      362.42030        549.387
        12829.5      12829.500        -999.25        116.830         4.2770        0.09040        0.06080        0.78280        3.59790        0.32680        0.61230        0.01600        0.03700      321.75580        549.406
        12830.0      12830.000        -999.25        113.563         4.0230        0.09260        0.06230        0.80440        3.58940        0.32730        0.61040        0.01490        0.03410      296.61700        549.425
        12830.5      12830.500        -999.25        110.296         4.0710        0.09290        0.06350        0.80170        3.51090        0.31710        0.61940        0.01200        0.03520      306.41700        549.444
        12831.0      12831.001        -999.25        106.918         4.2620        0.09290        0.06440        0.78370        3.42110        0.30660        0.62900        0.01080        0.03900      339.17850        549.463
        12831.5      12831.501        -999.25        103.498         4.4530        0.09260        0.06500        0.76710        3.33360        0.29810        0.63690        0.01000        0.04240      368.77940        549.482
        12832.0      12832.000        -999.25        100.077         4.6440        0.09320        0.06550        0.74430        3.28740        0.29720        0.63730        0.01050        0.04690      407.90980        549.501
        12832.5      12832.500        -999.25         96.656         4.8350        0.09350        0.06580        0.72500        3.23200        0.29540        0.63880        0.01050        0.05060      440.95870        549.520
        12833.0      12832.999        -999.25         95.081         5.0260        0.09290        0.06630        0.71400        3.16650        0.28650        0.64720        0.00910        0.05300      461.56820        549.539
        12833.5      12833.500        -999.25         94.174         5.2170        0.09220        0.06660        0.70470        3.10810        0.27730        0.65610        0.01010        0.05500      479.01500        549.557
        12834.0      12834.000        -999.25         93.267         5.4070        0.09140        0.06690        0.69690        3.04700        0.26770        0.66530        0.01040        0.05680      494.13070        549.576
        12834.5      12834.500        -999.25         90.716         5.5980        0.09110        0.06680        0.68310        2.99930        0.26720        0.66610        0.01160        0.05920      515.37550        549.595
        12835.0      12835.000        -999.25         87.476         5.7150        0.09200        0.06770        0.67170        2.95870        0.26450        0.66790        0.01340        0.06210      541.02560        549.614
        12835.5      12835.500        -999.25         84.236         5.7330        0.08680        0.06420        0.69520        2.79180        0.26070        0.67510        0.01050        0.05470      476.36990        549.633
        12836.0      12836.000        -999.25         84.126         5.7510        0.08050        0.05970        0.72470        2.65280        0.25820        0.68210        0.00710        0.04600      400.26970        549.652
        12836.5      12836.500        -999.25         87.907         5.7690        0.07440        0.05500        0.74910        2.59710        0.26170        0.68330        0.00500        0.03860      335.85230        549.671
        12837.0      12837.000        -999.25         93.645         5.7870        0.07980        0.05800        0.71410        2.82910        0.27240        0.66960        0.00990        0.04640      404.17360        549.690
        12837.5      12837.501        -999.25        107.027         5.8060        0.08630        0.06160        0.67590        3.22270        0.28580        0.65260        0.01450        0.05580      486.32350        549.709
