#--------------------------------------------------#
#-------------------ENVERUS, INC.------------------#
#------------------WWW.ENVERUS.COM-----------------#
#------------------COPYRIGHT 2020------------------#
#--------------------------------------------------#
#THIS FILE MAY BE USED ONLY IN ACCORDANCE WITH A CURRENT SUBSCRIPTION AGREEMENT BETWEEN
#THE USER AND ENVERUS, INC. NO PART OF THIS FILE MAY BE REPRODUCED, USED, COPIED,
#MODIFIED, PROPAGATED, OR DISTRIBUTED EXCEPT IN ACCORDANCE WITH THE SUBSCRIPTION
#AGREEMENT. UNAUTHORIZED USE OR DISTRIBUTION OF ALL OR ANY PART OF THIS FILE MAY VIOLATE
#COPYRIGHT, TRADEMARK, AND/OR OTHER LAWS AND IS SUBJECT TO CIVIL AS WELL AS CRIMINAL
#SANCTIONS.
#--------------------------------------------------#
#THIS FILE IS PROVIDED "AS-IS" AND ALL WARRANTIES ARE EXPRESSLY DISCLAIMED, WHETHER
#EXPRESS, ORAL, IMPLIED, STATUTORY OR OTHERWISE, INCLUDING ANY IMPLIED WARRANTY OF FITNESS
#FOR A PARTICULAR PURPOSE, MERCHANTABILITY, TITLE OR NON-INFRINGEMENT, AND ANY WARRANTIES
#ARISING BY VIRTUE OF CUSTOM OF TRADE OR COURSE OF DEALING.  FURTHER, ENVERUS, INC.
#AND ITS LICENSORS DO NOT REPRESENT OR WARRANT THAT THIS FILE WILL MEET USER'S
#REQUIREMENTS OR ARE SUITABLE FOR USER'S NEEDS OR THAT THE DATA OR RESULTS PROVIDED IN
#CONJUNCTION THEREWITH ARE CORRECT, ACCURATE, TIMELY OR RELIABLE. THESE DISCLAIMERS SHALL
#APPLY REGARDLESS OF ANY FAILURE OF ESSENTIAL PURPOSE OF ANY LIMITED REMEDY.  SOME
#JURISDICTIONS DO NOT ALLOW THE EXCLUSION OF CERTAIN WARRANTIES SO SOME OF THE ABOVE
#EXCLUSIONS MAY NOT APPLY. IN NO EVENT SHALL ENVERUS, INC. OR ANY OF ITS AFFILIATES
#BE LIABLE UNDER ANY LEGAL THEORY, WHETHER IN TORT (INCLUDING WITHOUT LIMITATION
#NEGLIGENCE), CONTRACT, STRICT LIABILITY, STATUTORY OR OTHERWISE, FOR ANY SPECIAL,
#INCIDENTAL, CONSEQUENTIAL, EXEMPLARY, PUNITIVE OR INDIRECT DAMAGE OF ANY KIND, INCLUDING
#WITHOUT LIMITATION LOSS OF REVENUE, PROFITS, GOODWILL, USE, AND/OR DATA OR THE COST OF
#PROCUREMENT OF SUBSTITUTE GOODS OR SERVICES, EVEN IF APPRISED OF THE POSSIBILITY OF SUCH
#DAMAGES IN ADVANCE.
#--------------------------------------------------#

~VERSION INFORMATION
VERS. 2.0 : CWLS LOG ASCII STANDARD - VERSION 2.0
WRAP.  NO : ONE LINE PER DEPTH STEP
~WELL INFORMATION
#MNEMONIC     .UNIT              VALUE :DESCRIPTION
STRT       .FT                429 :START DEPTH
STOP       .FT                6365 :STOP DEPTH
STEP       .FT                   0.500 :STEP
NULL       .                  -999.99 :NULL
UWI        .                42371100750000 :UNIQUE WELL ID
API        .                42371100750000 :API NUMBER
COMP       .         :COMPANY
WELL       .        :WELL
DATE       .                 :LOG DATE
FLD       .                 :FIELD NAME
LOC       .                  UNK :LOCATION
CNTY       .                 UNK :COUNTY
STAT       .                 UNK :STATE
CTRY       .                 UNK :COUNTY
SRVC       .                 UNK :SERVICE COMPANY
~CURVE INFORMATION
#MNEMONIC     .UNIT      API CODE :CURVE DESCRIPTION
DEPTH       .FT                      :MEASURED DEPTH
DT.MSEC/FT        UNKNOWN   :DT
GR.API        UNKNOWN   :GR
~A    DEPTH    DT    GR
# ...
 1223.5     149.92418   27.6464
 1224     147.16929   30.40043
 1224.5     144.41441   32.5651
 1225     141.65952   34.72978
 1225.5     140.35   36.89445
 1226     151.66777   39.05912
 1226.5     150.65929   41.2238
 1227     149.12351   42.72678
 1227.5     147.58772   43.8789
 1228     146.05194   44.053
 1228.5     144.51615   43.68551
 1229     142.98037   43.31802
 1229.5     141.44458   42.95053
 1230     141.21302   42.53372
 1230.5     142.53028   42.04338
 1231     143.84753   41.55304
 1231.5     145.16479   40.85496
 1232     146.48205   39.99337
 1232.5     147.7993   39.13179
 1233     149.11656   38.27021
 1233.5     150.43381   37.40863
 1234     151.75107   37.22275
 1234.5     153.06832   37.12962
 1235     154.38558   37.03648
 1235.5     155.70284   37.17735
 1236     156.0371   37.70211
 1236.5     156.23276   38.22687
 1237     156.42842   38.75163
 1237.5     156.62408   37.34091
 1238     156.81974   35.84111
 1238.5     157.0154   33.12053
 1239     157.21106   28.72156
 1239.5     157.40672   27.15686
 1240     157.56712   25.59216
 1240.5     157.58958   24.02746
 1241     157.61203   22.46275
 1241.5     157.41114   20.89805
 1242     156.84168   22.14209
 1242.5     156.27223   23.2562
 1243     155.70277   24.35102
 1243.5     155.13332   25.44584
 1244     154.56386   26.54066
 1244.5     153.99441   27.63548
 1245     153.42496   26.88603
 1245.5     152.8555   24.75302
 1246     153.93588   22.62001
 1246.5     157.04021   23.56042
 1247     158.51447   24.74315
 1247.5     158.78261   25.92587
 1248     159.05075   25.29589
 1248.5     159.31888   24.49799
 1249     159.58702   23.70009
 1249.5     159.85516   22.90219
 1250     155.50856   24.58024
 1250.5     150.37408   26.35023
 1251     150.1855   28.12021
 1251.5     149.99691   29.8902
 1252     149.80832   31.53015
 1252.5     149.61974   30.38877
 1253     149.43115   29.2474
 1253.5     144.89955   28.10602
 1254     140.60225   27.14774
 1254.5     137.1148   30.29198
 1255     133.62735   33.43622
 1255.5     130.1399   36.23193
 1256     126.65245   37.8097
 1256.5     121.879   39.38748
 1257     116.80395   40.96525
 1257.5     111.72891   42.54303
 1258     106.65386   44.08159
 1258.5     101.57881   45.59417
 1259     100.04504   47.10675
 1259.5     92.78304   48.61933
 1260     83.02949   50.13191
 1260.5     77.45644   49.84905
 1261     71.88339   45.56768
 1261.5     66.67415   41.55219
 1262     68.52131   38.3453
 1262.5     70.36848   35.1384
 1263     72.21565   29.69854
 1263.5     74.06282   23.95736
 1264     82.74669   18.21617
 1264.5     102.88344   16.55529
 1265     111.81836   15.88849
 1265.5     114.00407   15.2217
 1266     110.90074   14.55491
 1266.5     107.79741   28.56061
 1267     104.69408   35.37785
 1267.5     101.59075   39.83768
 1268     100.2983   40.63222
 1268.5     76.40166   40.28241
 1269     69.91068   39.84056
 1269.5     64.76932   38.9287
 1270     63.4816   38.01685
 1270.5     62.70588   33.01363
 1271     62.09066   23.21028
 1271.5     61.60159   19.54743
 1272     61.11252   15.88458
 1272.5     60.62344   12.22173
 1273     61.56831   13.01723
 1273.5     62.67478   14.48089
 1274     62.6497   15.94454
 1274.5     62.4338   16.90614
 1275     62.2179   16.12499
 1275.5     62.00199   14.74536
 1276     61.78609   12.57268
 1276.5     61.88907   10.6786
 1277     62.4563   10.25836
 1277.5     63.02354   9.83812
 1278     63.59077   13.42816
 1278.5     64.15801   17.72353
 1279     64.42558   17.93588
 1279.5     64.34667   18.14823
 1280     64.26776   18.36058
 1280.5     64.18885   18.81082
 1281     64.11415   21.27503
 1281.5     64.34711   25.84082
 1282     64.58008   30.1916
 1282.5     63.94153   34.54238
 1283     62.88481   36.64267
 1283.5     61.82809   38.16182
 1284     60.94917   39.68098
 1284.5     60.49819   41.20013
 1285     60.04721   42.71929
 1285.5     59.59623   44.11127
 1286     59.14525   44.90252
 1286.5     60.42101   45.69376
 1287     61.1918   46.48501
 1287.5     60.70592   47.27625
 1288     60.22003   47.50197
 1288.5     59.73415   46.97688
 1289     59.24827   46.45179
 1289.5     58.76239   45.9267
 1290     58.2765   45.4016
 1290.5     58.05634   45.292
 1291     57.90485   45.68611
 1291.5     57.78585   46.08021
 1292     58.36577   46.47432
 1292.5     58.94569   46.86842
 1293     59.21255   47.26253
 1293.5     59.24102   47.05039
 1294     60.07985   46.80715
 1294.5     62.76403   43.53434
 1295     64.78443   39.68642
 1295.5     65.64404   36.82543
 1296     66.50364   35.3911
 1296.5     67.36325   33.95677
 1297     67.63059   32.52243
 1297.5     67.20655   31.0881
 1298     66.36337   29.90745
 1298.5     64.73812   28.72839
 1299     63.11287   27.54933
 1299.5     61.48762   27.22006
 1300     60.58122   27.22828
 1300.5     59.85347   27.3969
 1301     58.94791   27.9881
 1301.5     58.04236   28.57929
 1302     57.57121   29.17048
 1302.5     58.29082   29.76168
 1303     58.73555   30.35287
 1303.5     58.70311   30.94407
 1304     58.75854   31.53526
 1304.5     59.43234   31.9693
 1305     60.10614   30.64948
 1305.5     60.77994   29.32966
 1306     62.99212   28.35056
 1306.5     65.24156   29.27627
 1307     67.49099   31.09789
 1307.5     67.65726   33.14098
 1308     65.75932   35.18407
 1308.5     64.65693   37.22715
 1309     65.16023   39.27024
 1309.5     65.66353   38.40092
 1310     66.2273   37.32172
 1310.5     66.79881   36.24251
 1311     67.37033   35.16331
 1311.5     67.68697   34.31781
 1312     66.82041   34.32609
 1312.5     65.43084   34.33438
 1313     61.86225   33.58437
 1313.5     59.70324   32.61366
 1314     59.79148   31.61736
 1314.5     59.87972   30.54198
 1315     59.96797   29.4666
 1315.5     60.05621   28.39121
 1316     60.38341   27.66968
 1316.5     60.90183   26.95566
 1317     61.68335   26.24165
 1317.5     61.97119   25.52763
 1318     62.72192   25.16063
 1318.5     64.87213   25.51162
 1319     66.12685   26.0654
 1319.5     65.075   27.19558
 1320     63.86017   28.32576
 1320.5     62.2109   29.31159
 1321     60.56164   30.19287
 1321.5     58.91237   31.07415
 1322     58.7943   31.95543
 1322.5     59.36019   32.8367
 1323     59.92607   33.95247
 1323.5     60.49196   35.29111
 1324     61.05785   36.62976
 1324.5     61.39013   37.9684
 1325     60.19174   39.30704
 1325.5     58.99334   40.14272
 1326     57.79495   38.88024
 1326.5     56.59655   37.61775
 1327     55.39816   36.35526
 1327.5     55.73572   35.09278
 1328     56.21683   33.83029
 1328.5     56.69794   32.60796
 1329     57.17905   31.46142
 1329.5     56.88577   30.31489
 1330     56.18045   29.16835
 1330.5     55.61022   28.02181
 1331     56.06143   26.87527
 1331.5     56.51263   27.33375
 1332     56.96387   29.24152
 1332.5     57.41511   31.1493
 1333     57.86635   33.05707
 1333.5     57.21278   34.96485
 1334     56.00441   36.11321
 1334.5     54.79604   35.5658
 1335     54.84663   35.01838
 1335.5     55.16881   34.47097
 1336     55.49099   33.92356
 1336.5     55.35483   33.37615
 1337     55.14326   33.18897
 1337.5     54.93169   34.01865
 1338     55.19013   34.84833
 1338.5     55.77858   36.38422
 1339     56.36703   38.00514
 1339.5     56.95548   39.62606
 1340     59.22372   41.24698
 1340.5     61.74629   42.79863
 1341     64.26887   44.30662
 1341.5     66.79145   45.81462
 1342     68.9814   47.32261
 1342.5     70.00313   48.8306
 1343     70.68437   48.53981
 1343.5     70.09314   47.31449
 1344     69.50192   46.08917
 1344.5     68.9107   44.86385
 1345     67.68586   44.16373
 1345.5     66.04327   43.75529
 1346     64.40069   42.95722
 1346.5     62.7581   41.79931
 1347     61.11551   40.64139
 1347.5     59.47293   39.48348
 1348     58.25406   37.68778
 1348.5     57.89183   35.8317
 1349     57.52961   37.00413
 1349.5     57.50398   38.56763
 1350     57.6477   40.90214
 1350.5     57.79142   43.23664
 1351     57.93513   43.53423
 1351.5     58.07885   41.30407
 1352     58.22878   38.43279
