###############################################
##         ENVERUS                           ##
##         Petrophysical Curves              ##
##         PERMIAN / DELAWARE                ##
##         Jan 21 2022                       ##
##         42-389-10491-00-00                ##
###############################################
## Copyright 2017-2022  ENVERUS.  All Rights Reserved. 
## Confidential - Property of ENVERUS, use governed by terms and 
## conditions found within the existing Information Services Subscription Agreement 
## (as may be amended, the “ISSA”) between Customer and ENVERUS. 
## 
~VERSION INFORMATION
# MNEM.UNIT                               DATA : DESCRIPTION OF MNEMONIC
#-----.-----     ----------------------------- : -----------------------------
VERS.                                     2.00 : CWLS LOG ASCII STANDARD - VERSION 2.00
WRAP.                                       NO : MULTIPLE LINES PER DEPTH STEP
VEND.                                  ENVERUS : VENDOR
TYPE.                     PETROPHYSICAL CURVES : ENVERUS PETROPHYSICAL CURVES - ACCESSIBLE THROUGH ENVERUS CORE(TM)
#___________________________________________________________________________________________________ 
~WELL INFORMATION 
# uyaQ8P8kQDJ9DXFS5hR1PxmExEOYaAUkY5f3/tnOS+scoPAUWgXA1zCIHGRbWCuSuUcwDzaESCjqjWQ81XhadA== 
# MNEM.UNIT                                              DATA : DESCRIPTION OF MNEMONIC 
#-----.-----                    ----------------------------- : ----------------------------- 
CNTY.                                                  REEVES : COUNTY 
STATE.                                                  TEXAS : STATE 
CNTRY.                                                    USA : COUNTRY 
API.                                             42-389-10491 : API (10 Digit) 
API_14.                                    42-389-10491-00-00 : API (14 Digits) 
API_14_std.                                 42-389-10491-0000 : API (14 Digits Standard) 
UWI.                                           42389104910000 : UNIQUE WELL ID
STRT.FT                                                 102.0 : START DEPTH
STOP.FT                                                9071.0 : STOP DEPTH
STEP.FT                                                   0.5 : STEP BETWEEN DEPTHS
NULL.                                                 -999.25 : NULL VALUE
COMP.                                FLAT CREEK RESOURCES LLC : COMPANY 
WELL.                                         REEVES-AW-FEE 1 : WELL NAME 
FLD.                                                     TORO : FIELD NAME
#___________________________________________________________________________________________________ 
~CURVE INFORMATION 
#    Zone Description
#          1 = Upper Avalon
#          2 = Middle Avalon
#          3 = Lower Avalon
#          4 = 1st Bone Spring
#          5 = 2nd Bone Spring
#          6 = 2nd Bone Spring Sand
#          7 = 3rd Bone Spring
#          8 = 3rd Bone Spring Sand
#          9 = Wolfcamp XY
#          10 = Wolfcamp A Upper
#          11 = Wolfcamp A Lower
#          12 = Wolfcamp B Upper
#          13 = Wolfcamp B Lower
#          14 = Wolfcamp C
#          15 = Wolfcamp D
#          16 = Pennsylvanian Shale
#          17 = Lower Pennsylvanian Shale
#          18 = Barnett
#          19 = Barnett Lower
#          20 = Mississippian Lime
#          21 = Woodford
#          22 = Base Woodford 
# MNEM.UNIT           : CURVE DESCRIPTION 
#-----.-----          : ----------------------------- 
 DEPT.FT               : MEASURED DEPTH 
 TVD_I.FT              : ENVERUS TRUE VERTICAL DEPTH 
 ZONE_I.               : ENVERUS DEFINED ZONE CODE 
 GR_N_I.API            : ENVERUS NORMALIZED GAMMA RAY LEVERAGED IN GEOLOGICAL MODELLING 
 TEMP_I.DEGF           : ENVERUS INTERPRETED TEMPERATURE DERIVED FROM BOTTOM HOLE TEMPERATURES 
 #___________________________________________________________________________________________________ 
~A         DEPT          TVD_I         ZONE_I         GR_N_I         TEMP_I
# ...
         7204.0       7204.001        -999.25        114.744        139.299
         7204.5       7204.501        -999.25         92.672        139.305
         7205.0       7205.000        -999.25         78.350        139.310
         7205.5       7205.500        -999.25         73.338        139.315
         7206.0       7206.001        -999.25         72.086        139.321
         7206.5       7206.500        -999.25         77.482        139.326
         7207.0       7207.000        -999.25         84.986        139.331
         7207.5       7207.500        -999.25         92.491        139.337
         7208.0       7208.000        -999.25         99.996        139.342
         7208.5       7208.501        -999.25        104.443        139.347
         7209.0       7209.000        -999.25        107.233        139.352
         7209.5       7209.500        -999.25        106.718        139.358
         7210.0       7210.000        -999.25        105.497        139.363
         7210.5       7210.501        -999.25        101.079        139.368
         7211.0       7211.000        -999.25         98.925        139.374
         7211.5       7211.500        -999.25        100.430        139.379
         7212.0       7212.000        -999.25        110.319        139.384
         7212.5       7212.500        -999.25        119.566        139.390
         7213.0       7213.000        -999.25        127.340        139.395
         7213.5       7213.500        -999.25        135.113        139.400
         7214.0       7214.000        -999.25        142.886        139.405
         7214.5       7214.500        -999.25        150.659        139.411
         7215.0       7215.001        -999.25        146.808        139.416
         7215.5       7215.500        -999.25        140.711        139.421
         7216.0       7216.000        -999.25        134.614        139.427
         7216.5       7216.500        -999.25        134.078        139.432
         7217.0       7217.001        -999.25        135.451        139.437
         7217.5       7217.500        -999.25        141.648        139.442
         7218.0       7218.000        -999.25        159.052        139.448
         7218.5       7218.500        -999.25        176.457        139.453
         7219.0       7219.001        -999.25        176.212        139.458
         7219.5       7219.501        -999.25        149.325        139.464
         7220.0       7220.000        -999.25        114.697        139.469
         7220.5       7220.500        -999.25         66.732        139.474
         7221.0       7221.000        -999.25         36.016        139.480
         7221.5       7221.500        -999.25         27.556        139.485
         7222.0       7222.000        -999.25         26.385        139.490
         7222.5       7222.500        -999.25         28.213        139.495
         7223.0       7223.000        -999.25         34.607        139.501
         7223.5       7223.501        -999.25         41.003        139.506
         7224.0       7224.001        -999.25         51.597        139.511
         7224.5       7224.500        -999.25         70.411        139.517
         7225.0       7225.000        -999.25         87.082        139.522
         7225.5       7225.501        -999.25         91.152        139.527
         7226.0       7226.000        -999.25         95.225        139.532
         7226.5       7226.500        -999.25        108.126        139.538
         7227.0       7227.000        -999.25        127.022        139.543
         7227.5       7227.500        -999.25        149.056        139.548
         7228.0       7228.001        -999.25        171.091        139.554
         7228.5       7228.500        -999.25        193.805        139.559
         7229.0       7229.000        -999.25        214.586        139.564
         7229.5       7229.500        -999.25        229.714        139.570
         7230.0       7230.001        -999.25        207.112        139.575
         7230.5       7230.500        -999.25        170.188        139.580
         7231.0       7231.000        -999.25        169.018        139.585
         7231.5       7231.500        -999.25        176.299        139.591
         7232.0       7232.001        -999.25        183.579        139.596
         7232.5       7232.500        -999.25        189.131        139.601
         7233.0       7233.000        -999.25        181.754        139.607
         7233.5       7233.500        -999.25        169.715        139.612
         7234.0       7234.000        -999.25        157.675        139.617
         7234.5       7234.501        -999.25        145.634        139.623
         7235.0       7235.000        -999.25        133.595        139.628
         7235.5       7235.500        -999.25        111.207        139.633
         7236.0       7236.000        -999.25        106.036        139.638
         7236.5       7236.501        -999.25        102.968        139.644
         7237.0       7237.000        -999.25        102.015        139.649
         7237.5       7237.500        -999.25         96.545        139.654
         7238.0       7238.000        -999.25         88.642        139.660
         7238.5       7238.501        -999.25         80.737        139.665
         7239.0       7239.001        -999.25         78.909        139.670
         7239.5       7239.500        -999.25         86.881        139.675
         7240.0       7240.000        -999.25         99.379        139.681
         7240.5       7240.500        -999.25        111.877        139.686
         7241.0       7241.000        -999.25        124.374        139.691
         7241.5       7241.500        -999.25        126.800        139.697
         7242.0       7242.000        -999.25        112.732        139.702
         7242.5       7242.500        -999.25         98.320        139.707
         7243.0       7243.001        -999.25         91.100        139.713
         7243.5       7243.501        -999.25         97.655        139.718
         7244.0       7244.000        -999.25        113.414        139.723
         7244.5       7244.500        -999.25        128.553        139.728
         7245.0       7245.000        -999.25        135.137        139.734
         7245.5       7245.500        -999.25        131.330        139.739
         7246.0       7246.000        -999.25        117.423        139.744
         7246.5       7246.500        -999.25        114.792        139.750
         7247.0       7247.000        -999.25        113.311        139.755
         7247.5       7247.501        -999.25        113.534        139.760
         7248.0       7248.000        -999.25        121.148        139.765
         7248.5       7248.500        -999.25        126.095        139.771
         7249.0       7249.000        -999.25        127.085        139.776
         7249.5       7249.501        -999.25        127.706        139.781
         7250.0       7250.000        -999.25        126.749        139.787
         7250.5       7250.500        -999.25        122.301        139.792
         7251.0       7251.000        -999.25        113.724        139.797
         7251.5       7251.500        -999.25        105.147        139.803
         7252.0       7252.000        -999.25         88.187        139.808
         7252.5       7252.500        -999.25         88.930        139.813
         7253.0       7253.000        -999.25         90.281        139.818
         7253.5       7253.500        -999.25         96.164        139.824
         7254.0       7254.001        -999.25        106.738        139.829
         7254.5       7254.500        -999.25        117.312        139.834
         7255.0       7255.000        -999.25        127.538        139.840
         7255.5       7255.500        -999.25        131.095        139.845
         7256.0       7256.001        -999.25        132.050        139.850
         7256.5       7256.500        -999.25        127.839        139.856
