#--------------------------------------------------#
#-------------------ENVERUS, INC.------------------#
#------------------WWW.ENVERUS.COM-----------------#
#------------------COPYRIGHT 2020------------------#
#--------------------------------------------------#
#THIS FILE MAY BE USED ONLY IN ACCORDANCE WITH A CURRENT SUBSCRIPTION AGREEMENT BETWEEN
#THE USER AND ENVERUS, INC. NO PART OF THIS FILE MAY BE REPRODUCED, USED, COPIED,
#MODIFIED, PROPAGATED, OR DISTRIBUTED EXCEPT IN ACCORDANCE WITH THE SUBSCRIPTION
#AGREEMENT. UNAUTHORIZED USE OR DISTRIBUTION OF ALL OR ANY PART OF THIS FILE MAY VIOLATE
#COPYRIGHT, TRADEMARK, AND/OR OTHER LAWS AND IS SUBJECT TO CIVIL AS WELL AS CRIMINAL
#SANCTIONS.
#--------------------------------------------------#
#THIS FILE IS PROVIDED "AS-IS" AND ALL WARRANTIES ARE EXPRESSLY DISCLAIMED, WHETHER
#EXPRESS, ORAL, IMPLIED, STATUTORY OR OTHERWISE, INCLUDING ANY IMPLIED WARRANTY OF FITNESS
#FOR A PARTICULAR PURPOSE, MERCHANTABILITY, TITLE OR NON-INFRINGEMENT, AND ANY WARRANTIES
#ARISING BY VIRTUE OF CUSTOM OF TRADE OR COURSE OF DEALING.  FURTHER, ENVERUS, INC.
#AND ITS LICENSORS DO NOT REPRESENT OR WARRANT THAT THIS FILE WILL MEET USER'S
#REQUIREMENTS OR ARE SUITABLE FOR USER'S NEEDS OR THAT THE DATA OR RESULTS PROVIDED IN
#CONJUNCTION THEREWITH ARE CORRECT, ACCURATE, TIMELY OR RELIABLE. THESE DISCLAIMERS SHALL
#APPLY REGARDLESS OF ANY FAILURE OF ESSENTIAL PURPOSE OF ANY LIMITED REMEDY.  SOME
#JURISDICTIONS DO NOT ALLOW THE EXCLUSION OF CERTAIN WARRANTIES SO SOME OF THE ABOVE
#EXCLUSIONS MAY NOT APPLY. IN NO EVENT SHALL ENVERUS, INC. OR ANY OF ITS AFFILIATES
#BE LIABLE UNDER ANY LEGAL THEORY, WHETHER IN TORT (INCLUDING WITHOUT LIMITATION
#NEGLIGENCE), CONTRACT, STRICT LIABILITY, STATUTORY OR OTHERWISE, FOR ANY SPECIAL,
#INCIDENTAL, CONSEQUENTIAL, EXEMPLARY, PUNITIVE OR INDIRECT DAMAGE OF ANY KIND, INCLUDING
#WITHOUT LIMITATION LOSS OF REVENUE, PROFITS, GOODWILL, USE, AND/OR DATA OR THE COST OF
#PROCUREMENT OF SUBSTITUTE GOODS OR SERVICES, EVEN IF APPRISED OF THE POSSIBILITY OF SUCH
#DAMAGES IN ADVANCE.
#--------------------------------------------------#

~VERSION INFORMATION
VERS. 2.0 : CWLS LOG ASCII STANDARD - VERSION 2.0
WRAP.  NO : ONE LINE PER DEPTH STEP
~WELL INFORMATION
#MNEMONIC     .UNIT              VALUE :DESCRIPTION
STRT       .FT                429 :START DEPTH
STOP       .FT                6365 :STOP DEPTH
STEP       .FT                   0.500 :STEP
NULL       .                  -999.99 :NULL
UWI        .                42371100750000 :UNIQUE WELL ID
API        .                42371100750000 :API NUMBER
COMP       .         :COMPANY
WELL       .        :WELL
DATE       .                 :LOG DATE
FLD       .                 :FIELD NAME
LOC       .                  UNK :LOCATION
CNTY       .                 UNK :COUNTY
STAT       .                 UNK :STATE
CTRY       .                 UNK :COUNTY
SRVC       .                 UNK :SERVICE COMPANY
~CURVE INFORMATION
#MNEMONIC     .UNIT      API CODE :CURVE DESCRIPTION
DEPTH       .FT                      :MEASURED DEPTH
DT.MSEC/FT        UNKNOWN   :DT
GR.API        UNKNOWN   :GR
~A    DEPTH    DT    GR
# ...
 2003     66.71825   13.96322
 2003.5     63.50751   13.53119
 2004     57.70774   13.09916
 2004.5     58.52692   13.54705
 2005     59.3461   14.38715
 2005.5     60.16529   15.22725
 2006     61.77361   16.06735
 2006.5     66.07032   16.29391
 2007     70.36702   16.19896
 2007.5     73.97578   14.99476
 2008     72.52155   13.68569
 2008.5     71.06731   12.37661
 2009     70.10671   11.06754
 2009.5     69.26258   9.75847
 2010     68.41845   10.00333
 2010.5     68.05289   10.63158
 2011     68.73597   11.25983
 2011.5     69.41905   11.88807
 2012     70.40274   12.51632
 2012.5     71.45586   13.14457
 2013     71.95639   13.77282
 2013.5     69.31379   13.86148
 2014     66.67119   13.69934
 2014.5     65.55841   13.15219
 2015     67.65787   12.33506
 2015.5     68.54245   11.51793
 2016     68.88788   10.85488
 2016.5     69.58721   10.45949
 2017     71.02509   10.06411
 2017.5     71.92364   9.66872
 2018     70.40878   9.69425
 2018.5     68.89392   9.79846
 2019     67.37906   9.90267
 2019.5     67.87259   10.00689
 2020     68.43038   10.1111
 2020.5     68.98816   10.21531
 2021     69.54595   10.31953
 2021.5     70.10374   10.6561
 2022     73.5152   11.15882
 2022.5     73.78067   11.66154
 2023     70.8491   12.16425
 2023.5     67.91754   12.66697
 2024     65.52822   13.16969
 2024.5     66.44518   13.6724
 2025     67.36213   14.1206
 2025.5     68.27909   14.02582
 2026     69.19605   13.58062
 2026.5     69.14761   12.48681
 2027     68.43399   11.39299
 2027.5     67.72038   10.91015
 2028     67.87049   11.15907
 2028.5     71.58578   11.408
 2029     70.80243   11.65692
 2029.5     70.01908   11.90585
 2030     69.23573   12.15478
 2030.5     68.65737   12.60289
 2031     68.13047   13.17804
 2031.5     67.60357   13.75319
 2032     67.2515   14.32834
 2032.5     67.89954   13.13851
 2033     68.54759   11.69761
 2033.5     69.19563   10.15259
 2034     69.84368   8.37333
 2034.5     70.49172   8.7557
 2035     69.66131   9.6105
 2035.5     67.67121   10.46531
 2036     65.6811   11.32011
 2036.5     64.01831   12.17492
 2037     66.03421   13.02972
 2037.5     68.05011   13.73469
 2038     70.06601   14.12367
 2038.5     71.18053   14.13015
 2039     72.18417   14.13663
 2039.5     70.46221   14.14311
 2040     68.4842   14.1496
 2040.5     66.5062   14.21319
 2041     66.88076   14.32201
 2041.5     67.62411   14.43083
 2042     68.36745   14.44164
 2042.5     69.11079   13.59452
 2043     69.66869   12.7474
 2043.5     70.00065   11.90028
 2044     70.33261   11.12057
 2044.5     70.66457   10.68782
 2045     70.99653   10.25508
 2045.5     70.63459   10.23072
 2046     70.01225   10.99515
 2046.5     69.38991   11.75958
 2047     68.82863   12.24082
 2047.5     68.30201   12.07812
 2048     67.7754   11.91542
 2048.5     67.24879   11.75272
 2049     66.72217   11.6358
 2049.5     66.19556   11.86265
 2050     66.52802   12.0895
 2050.5     68.28126   12.91232
 2051     70.03451   13.97957
 2051.5     71.78776   15.04682
 2052     73.54101   16.10813
 2052.5     70.46949   17.01912
 2053     67.14172   17.9301
 2053.5     64.64877   17.87082
 2054     62.15581   17.37632
 2054.5     59.53368   16.88182
 2055     55.96997   16.38733
 2055.5     52.40625   15.89283
 2056     51.15712   15.39833
 2056.5     51.99849   14.90383
 2057     52.83986   14.40933
 2057.5     53.68123   13.89446
 2058     54.5226   13.30198
 2058.5     55.45447   12.7095
 2059     56.51811   12.11703
 2059.5     57.07425   11.80082
 2060     56.91241   11.62614
 2060.5     56.75057   11.45147
 2061     56.58873   11.2768
 2061.5     58.18392   11.10212
 2062     57.04754   11.12375
 2062.5     55.91115   11.20309
 2063     56.29096   11.28243
 2063.5     56.01219   11.36176
 2064     55.22368   11.4411
 2064.5     54.57536   12.01969
 2065     55.03819   12.63487
 2065.5     55.50102   14.83718
 2066     55.96385   17.22226
 2066.5     56.42668   20.21994
 2067     56.88952   23.52694
 2067.5     57.35235   26.83394
 2068     57.81518   30.14095
 2068.5     57.33963   33.44795
 2069     56.74278   36.8477
 2069.5     56.7671   40.3809
 2070     56.93218   43.91411
 2070.5     57.09725   43.29017
 2071     56.41911   40.43198
 2071.5     55.68432   37.5738
 2072     54.94953   32.65587
 2072.5     54.21475   27.9111
 2073     54.19342   24.29103
 2073.5     55.43347   20.67095
 2074     56.67351   17.05088
 2074.5     57.91355   14.29652
 2075     69.42628   14.59753
 2075.5     76.76258   14.89855
 2076     77.88727   15.57174
 2076.5     79.01196   16.3272
 2077     79.78838   17.08266
 2077.5     77.07773   17.83812
 2078     74.36707   18.45238
 2078.5     71.65641   17.71381
 2079     69.19055   16.97524
 2079.5     69.16462   16.23667
 2080     69.13869   15.4981
 2080.5     68.60531   14.75953
 2081     67.9356   14.02096
 2081.5     67.2659   13.48067
 2082     66.5962   13.03501
 2082.5     66.52119   12.58935
 2083     69.23928   12.17376
 2083.5     71.95737   11.92704
 2084     74.67546   11.68032
 2084.5     74.54009   11.4336
 2085     71.52958   11.18687
 2085.5     68.51906   10.94015
 2086     66.71104   11.23027
 2086.5     67.07291   11.95659
 2087     67.43479   12.68291
 2087.5     67.79666   12.54048
 2088     68.25501   12.24367
 2088.5     69.07864   11.94686
 2089     69.90227   11.82953
 2089.5     70.7259   12.05605
 2090     70.68119   12.28256
 2090.5     69.2795   12.85537
 2091     67.8778   13.45238
 2091.5     67.13129   14.04939
 2092     71.53621   14.6464
 2092.5     71.69333   15.24341
 2093     69.07661   15.05898
 2093.5     66.45989   14.07799
 2094     65.1601   12.92221
 2094.5     66.52091   11.76644
 2095     67.88172   12.17311
 2095.5     69.24253   12.7656
 2096     70.60334   13.60881
 2096.5     71.76297   15.38841
 2097     72.68054   16.2722
 2097.5     74.38192   16.84735
 2098     76.81853   16.10833
 2098.5     74.5863   15.3693
 2099     71.20062   14.63028
 2099.5     67.81495   14.07828
 2100     64.42927   13.63761
 2100.5     62.94131   13.19693
 2101     67.21497   12.97641
 2101.5     71.48862   13.0189
 2102     73.42374   13.0614
 2102.5     71.78918   13.10389
 2103     70.15462   13.14639
 2103.5     68.52005   13.31094
 2104     68.59992   13.55444
 2104.5     69.26161   13.79795
 2105     69.01629   14.04145
 2105.5     66.2876   14.48377
 2106     63.5589   16.17033
 2106.5     65.04337   17.8569
 2107     72.12115   19.54347
 2107.5     73.51627   21.23004
 2108     73.69333   22.91661
 2108.5     73.87039   24.60317
 2109     73.06117   24.5018
 2109.5     70.56056   23.38736
 2110     68.05994   21.49104
 2110.5     65.55933   19.59472
 2111     63.05871   17.69841
 2111.5     60.5581   15.30028
 2112     66.79343   17.0272
 2112.5     70.87346   18.75412
 2113     74.95348   20.48104
 2113.5     79.03351   22.20796
 2114     81.60224   23.93488
 2114.5     79.47118   22.54011
 2115     77.34011   20.40795
 2115.5     75.20905   18.2758
 2116     72.25721   16.14364
 2116.5     67.78553   14.01148
 2117     63.31385   12.00231
 2117.5     58.84217   10.55504
 2118     54.37048   9.10777
 2118.5     57.42055   11.74157
 2119     61.68037   14.43056
 2119.5     65.94018   17.11956
 2120     70.2   19.80855
 2120.5     74.45981   21.45038
 2121     78.71963   19.72405
 2121.5     82.97944   17.99773
 2122     72.32148   16.27141
 2122.5     67.57333   14.54509
 2123     67.05604   13.71615
 2123.5     67.29046   14.05398
 2124     67.52488   14.3918
 2124.5     67.7593   14.72963
 2125     70.77544   15.06745
 2125.5     74.52361   15.31629
 2126     73.85546   15.5147
 2126.5     73.18731   15.7131
 2127     72.51917   15.29886
 2127.5     71.85102   14.8031
 2128     72.07435   13.98911
 2128.5     73.11588   13.07742
 2129     74.15742   12.31506
 2129.5     70.2968   11.98443
 2130     65.8549   11.65379
 2130.5     66.35919   11.4901
 2131     68.01291   12.83142
 2131.5     69.66664   14.17273
 2132     71.32036   14.7993
 2132.5     72.97409   14.55205
 2133     74.62782   14.3048
