#--------------------------------------------------#
#-------------------ENVERUS, INC.------------------#
#------------------WWW.ENVERUS.COM-----------------#
#------------------COPYRIGHT 2020------------------#
#--------------------------------------------------#
#THIS FILE MAY BE USED ONLY IN ACCORDANCE WITH A CURRENT SUBSCRIPTION AGREEMENT BETWEEN
#THE USER AND ENVERUS, INC. NO PART OF THIS FILE MAY BE REPRODUCED, USED, COPIED,
#MODIFIED, PROPAGATED, OR DISTRIBUTED EXCEPT IN ACCORDANCE WITH THE SUBSCRIPTION
#AGREEMENT. UNAUTHORIZED USE OR DISTRIBUTION OF ALL OR ANY PART OF THIS FILE MAY VIOLATE
#COPYRIGHT, TRADEMARK, AND/OR OTHER LAWS AND IS SUBJECT TO CIVIL AS WELL AS CRIMINAL
#SANCTIONS.
#--------------------------------------------------#
#THIS FILE IS PROVIDED "AS-IS" AND ALL WARRANTIES ARE EXPRESSLY DISCLAIMED, WHETHER
#EXPRESS, ORAL, IMPLIED, STATUTORY OR OTHERWISE, INCLUDING ANY IMPLIED WARRANTY OF FITNESS
#FOR A PARTICULAR PURPOSE, MERCHANTABILITY, TITLE OR NON-INFRINGEMENT, AND ANY WARRANTIES
#ARISING BY VIRTUE OF CUSTOM OF TRADE OR COURSE OF DEALING.  FURTHER, ENVERUS, INC.
#AND ITS LICENSORS DO NOT REPRESENT OR WARRANT THAT THIS FILE WILL MEET USER'S
#REQUIREMENTS OR ARE SUITABLE FOR USER'S NEEDS OR THAT THE DATA OR RESULTS PROVIDED IN
#CONJUNCTION THEREWITH ARE CORRECT, ACCURATE, TIMELY OR RELIABLE. THESE DISCLAIMERS SHALL
#APPLY REGARDLESS OF ANY FAILURE OF ESSENTIAL PURPOSE OF ANY LIMITED REMEDY.  SOME
#JURISDICTIONS DO NOT ALLOW THE EXCLUSION OF CERTAIN WARRANTIES SO SOME OF THE ABOVE
#EXCLUSIONS MAY NOT APPLY. IN NO EVENT SHALL ENVERUS, INC. OR ANY OF ITS AFFILIATES
#BE LIABLE UNDER ANY LEGAL THEORY, WHETHER IN TORT (INCLUDING WITHOUT LIMITATION
#NEGLIGENCE), CONTRACT, STRICT LIABILITY, STATUTORY OR OTHERWISE, FOR ANY SPECIAL,
#INCIDENTAL, CONSEQUENTIAL, EXEMPLARY, PUNITIVE OR INDIRECT DAMAGE OF ANY KIND, INCLUDING
#WITHOUT LIMITATION LOSS OF REVENUE, PROFITS, GOODWILL, USE, AND/OR DATA OR THE COST OF
#PROCUREMENT OF SUBSTITUTE GOODS OR SERVICES, EVEN IF APPRISED OF THE POSSIBILITY OF SUCH
#DAMAGES IN ADVANCE.
#--------------------------------------------------#

~VERSION INFORMATION
VERS. 2.0 : CWLS LOG ASCII STANDARD - VERSION 2.0
WRAP.  NO : ONE LINE PER DEPTH STEP
~WELL INFORMATION
#MNEMONIC     .UNIT              VALUE :DESCRIPTION
STRT       .FT                101 :START DEPTH
STOP       .FT                5382 :STOP DEPTH
STEP       .FT                   0.500 :STEP
NULL       .                  -999.990 :NULL
UWI        .              42389007790000 :UNIQUE WELL ID
API        .              42389007790000 :API NUMBER
COMP       .         :COMPANY
WELL       .         1, :WELL
DATE       .                            :LOG DATE
~CURVE INFORMATION
#MNEMONIC     .UNIT      API CODE :CURVE DESCRIPTION
DEPTH       .FT                      :MEASURED DEPTH
DT.US/FT        UNKNOWN   :DT
GR.API        UNKNOWN   :GR
~A    DEPTH    DT    GR
# ...
 2792.5     69.629   3.603
 2793     69.292   3.88
 2793.5     68.955   4.158
 2794     68.618   4.435
 2794.5     68.281   4.713
 2795     67.944   4.991
 2795.5     67.607   5.268
 2796     67.27   5.546
 2796.5     66.933   5.824
 2797     66.596   6.101
 2797.5     66.294   6.379
 2798     66.677   6.579
 2798.5     67.059   6.306
 2799     67.441   6.034
 2799.5     67.824   5.761
 2800     68.206   5.488
 2800.5     68.589   5.216
 2801     68.396   4.943
 2801.5     68.195   4.67
 2802     67.994   4.398
 2802.5     67.794   4.125
 2803     67.765   3.856
 2803.5     67.966   3.744
 2804     68.168   3.632
 2804.5     68.369   3.519
 2805     68.57   3.407
 2805.5     67.898   3.294
 2806     67.105   3.182
 2806.5     66.677   3.07
 2807     66.959   2.957
 2807.5     67.241   2.845
 2808     67.522   2.732
 2808.5     67.804   2.62
 2809     68.086   2.508
 2809.5     68.227   2.395
 2810     68   2.725
 2810.5     67.772   3.849
 2811     67.545   4.973
 2811.5     67.317   6.098
 2812     67.466   6.772
 2812.5     67.762   6.276
 2813     68.058   5.78
 2813.5     68.355   5.284
 2814     68.651   4.788
 2814.5     68.87   4.292
 2815     68.68   4.444
 2815.5     68.489   4.845
 2816     68.298   5.246
 2816.5     68.107   5.647
 2817     67.917   5.973
 2817.5     67.771   5.871
 2818     68.134   5.77
 2818.5     68.496   5.669
 2819     68.858   5.568
 2819.5     69.298   5.467
 2820     69.803   5.411
 2820.5     70.308   5.92
 2821     70.813   6.429
 2821.5     71.319   6.938
 2822     71.824   7.447
 2822.5     68.335   7.956
 2823     64.804   8.465
 2823.5     61.274   11.071
 2824     58.73   16.049
 2824.5     56.278   19.929
 2825     53.827   22.015
 2825.5     54.216   24.102
 2826     55.092   26.188
 2826.5     54.607   26.338
 2827     53.852   21.359
 2827.5     53.097   16.379
 2828     52.343   11.4
 2828.5     51.588   8.353
 2829     51.046   5.694
 2829.5     51.118   3.035
 2830     51.191   3.045
 2830.5     50.811   3.561
 2831     50.263   4.076
 2831.5     49.714   4.383
 2832     49.165   4.163
 2832.5     48.761   3.943
 2833     49.067   3.722
 2833.5     49.373   3.502
 2834     49.68   3.282
 2834.5     49.986   3.529
 2835     50.293   3.958
 2835.5     50.599   4.388
 2836     50.382   4.818
 2836.5     49.81   5.248
 2837     49.613   5.678
 2837.5     49.699   6.107
 2838     49.785   6.23
 2838.5     49.871   6.154
 2839     49.957   6.079
 2839.5     50.044   6.003
 2840     50.13   5.927
 2840.5     51.693   5.851
 2841     54.815   5.775
 2841.5     60.784   5.699
 2842     60.395   5.841
 2842.5     59.075   6.195
 2843     57.754   6.549
 2843.5     56.434   6.903
 2844     55.716   7.257
 2844.5     55.045   7.611
 2845     54.375   7.965
 2845.5     55.463   8.319
 2846     59.455   8.674
 2846.5     63.446   8.492
 2847     66.134   8.232
 2847.5     66.711   7.973
 2848     67.289   7.713
 2848.5     67.866   7.453
 2849     68.443   7.194
 2849.5     67.844   6.934
 2850     67.016   6.592
 2850.5     66.188   6.229
 2851     65.36   5.865
 2851.5     64.943   5.502
 2852     65.641   5.138
 2852.5     66.34   4.775
 2853     67.038   4.411
 2853.5     67.736   4.157
 2854     66.99   4.315
 2854.5     65.7   4.474
 2855     65.849   4.632
 2855.5     66.635   4.791
 2856     67.421   4.949
 2856.5     68.206   5.108
 2857     68.35   5.267
 2857.5     68.157   5.425
 2858     67.964   5.584
 2858.5     67.771   6.271
 2859     67.579   7.35
 2859.5     67.851   8.381
 2860     68.442   7.338
 2860.5     69.032   6.295
 2861     69.623   5.253
 2861.5     70.136   4.852
 2862     69.16   5.093
 2862.5     68.184   5.334
 2863     67.208   5.575
 2863.5     66.232   5.816
 2864     66.965   5.696
 2864.5     67.721   5.089
 2865     67.302   4.482
 2865.5     66.844   3.876
 2866     68.528   3.269
 2866.5     70.669   3.014
 2867     69.828   3.335
 2867.5     68.987   3.656
 2868     68.146   3.978
 2868.5     70.24   4.299
 2869     70.542   4.62
 2869.5     70.843   4.941
 2870     71.145   5.263
 2870.5     71.447   4.735
 2871     69.392   3.946
 2871.5     62.603   3.156
 2872     60.815   2.367
 2872.5     60.454   1.578
 2873     60.093   1.855
 2873.5     58.553   2.542
 2874     54.604   3.229
 2874.5     56.585   3.916
 2875     58.566   4.603
 2875.5     60.209   5.29
 2876     60.36   5.977
 2876.5     60.584   7
 2877     61.188   8.249
 2877.5     61.792   9.497
 2878     63.576   10.746
 2878.5     66.032   11.994
 2879     68.349   13.243
 2879.5     69.733   13.044
 2880     71.118   11.211
 2880.5     72.502   9.377
 2881     66.809   7.543
 2881.5     67.465   6.622
 2882     68.121   6.761
 2882.5     68.287   6.901
 2883     68.053   7.04
 2883.5     67.82   7.179
 2884     67.587   7.318
 2884.5     67.353   7.457
 2885     67.12   8.371
 2885.5     66.887   9.4
 2886     66.653   10.428
 2886.5     66.817   11.73
 2887     67.469   13.669
 2887.5     68.122   15.609
 2888     68.774   17.548
 2888.5     69.426   18.869
 2889     69.592   17.651
 2889.5     69.027   16.433
 2890     68.461   15.214
 2890.5     67.896   13.996
 2891     67.33   12.447
 2891.5     67.069   10.736
 2892     67.424   9.34
 2892.5     67.779   9.521
 2893     68.135   9.702
 2893.5     68.49   9.882
 2894     68.845   10.063
 2894.5     69.2   10.143
 2895     69.556   9.231
 2895.5     69.911   8.319
 2896     70.084   7.607
 2896.5     69.654   9.506
 2897     69.224   11.404
 2897.5     68.794   13.303
 2898     69.177   15.202
 2898.5     69.932   17.1
 2899     70.03   17.849
 2899.5     69.8   17.06
 2900     69.57   16.27
 2900.5     69.34   15.48
 2901     69.11   14.69
 2901.5     68.981   14.439
 2902     69.786   15.041
 2902.5     70.592   15.643
 2903     71.316   16.245
 2903.5     70.928   16.846
 2904     70.54   17.448
 2904.5     70.152   18.05
 2905     69.764   18.286
 2905.5     69.942   17.508
 2906     70.667   16.73
 2906.5     71.392   15.952
 2907     72.117   15.174
 2907.5     72.842   14.396
 2908     71.985   13.618
 2908.5     71.071   12.84
 2909     70.797   13.064
 2909.5     71.377   14.04
 2910     71.956   15.016
 2910.5     71.439   15.992
 2911     70.803   16.619
 2911.5     70.167   16.712
 2912     69.891   16.805
 2912.5     70.273   16.898
 2913     70.655   16.991
 2913.5     70.743   17.084
 2914     70.207   17.177
 2914.5     69.671   17.549
 2915     69.135   18.076
 2915.5     68.599   18.603
 2916     68.062   19.13
 2916.5     68.286   19.405
 2917     68.768   19.407
 2917.5     69.251   19.409
 2918     69.734   19.41
 2918.5     69.563   17.308
 2919     69.116   12.097
 2919.5     68.669   12.184
 2920     68.382   12.642
 2920.5     68.959   13.099
 2921     69.535   13.557
 2921.5     70.112   14.015
 2922     70.689   14.473
 2922.5     70.483   14.931
 2923     69.776   15.389
 2923.5     69.069   15.847
 2924     68.363   16.305
 2924.5     68.288   16.763
 2925     68.722   17.221
 2925.5     69.141   17.128
 2926     68.99   15.169
 2926.5     68.84   13.21
 2927     68.689   11.598
 2927.5     68.538   10.116
 2928     68.388   8.634
 2928.5     68.237   7.152
 2929     68.56   5.669
 2929.5     68.907   4.187
 2930     69.253   2.705
 2930.5     69.6   3.313
 2931     69.344   4.809
 2931.5     69.027   6.304
 2932     68.709   7.8
 2932.5     68.391   9.296
 2933     68.074   9.565
 2933.5     67.935   8.958
 2934     68.148   10.696
 2934.5     68.36   12.173
 2935     68.573   11.8
 2935.5     68.786   11.427
 2936     68.999   11.054
 2936.5     69.211   10.682
 2937     69.424   10.309
 2937.5     69.637   9.936
 2938     68.686   10.623
 2938.5     67.762   11.358
 2939     68.426   12.094
 2939.5     69.09   12.829
 2940     69.754   14.611
 2940.5     70.248   18.152
 2941     69.94   20.256
 2941.5     69.632   18.96
 2942     69.325   17.665
 2942.5     69.017   16.369
 2943     69.11   15.697
 2943.5     69.451   16.641
 2944     69.793   17.585
 2944.5     69.62   18.529
 2945     69.078   18.114
 2945.5     68.536   17.141
