#--------------------------------------------------#
#-------------------ENVERUS, INC.------------------#
#------------------WWW.ENVERUS.COM-----------------#
#------------------COPYRIGHT 2020------------------#
#--------------------------------------------------#
#THIS FILE MAY BE USED ONLY IN ACCORDANCE WITH A CURRENT SUBSCRIPTION AGREEMENT BETWEEN
#THE USER AND ENVERUS, INC. NO PART OF THIS FILE MAY BE REPRODUCED, USED, COPIED,
#MODIFIED, PROPAGATED, OR DISTRIBUTED EXCEPT IN ACCORDANCE WITH THE SUBSCRIPTION
#AGREEMENT. UNAUTHORIZED USE OR DISTRIBUTION OF ALL OR ANY PART OF THIS FILE MAY VIOLATE
#COPYRIGHT, TRADEMARK, AND/OR OTHER LAWS AND IS SUBJECT TO CIVIL AS WELL AS CRIMINAL
#SANCTIONS.
#--------------------------------------------------#
#THIS FILE IS PROVIDED "AS-IS" AND ALL WARRANTIES ARE EXPRESSLY DISCLAIMED, WHETHER
#EXPRESS, ORAL, IMPLIED, STATUTORY OR OTHERWISE, INCLUDING ANY IMPLIED WARRANTY OF FITNESS
#FOR A PARTICULAR PURPOSE, MERCHANTABILITY, TITLE OR NON-INFRINGEMENT, AND ANY WARRANTIES
#ARISING BY VIRTUE OF CUSTOM OF TRADE OR COURSE OF DEALING.  FURTHER, ENVERUS, INC.
#AND ITS LICENSORS DO NOT REPRESENT OR WARRANT THAT THIS FILE WILL MEET USER'S
#REQUIREMENTS OR ARE SUITABLE FOR USER'S NEEDS OR THAT THE DATA OR RESULTS PROVIDED IN
#CONJUNCTION THEREWITH ARE CORRECT, ACCURATE, TIMELY OR RELIABLE. THESE DISCLAIMERS SHALL
#APPLY REGARDLESS OF ANY FAILURE OF ESSENTIAL PURPOSE OF ANY LIMITED REMEDY.  SOME
#JURISDICTIONS DO NOT ALLOW THE EXCLUSION OF CERTAIN WARRANTIES SO SOME OF THE ABOVE
#EXCLUSIONS MAY NOT APPLY. IN NO EVENT SHALL ENVERUS, INC. OR ANY OF ITS AFFILIATES
#BE LIABLE UNDER ANY LEGAL THEORY, WHETHER IN TORT (INCLUDING WITHOUT LIMITATION
#NEGLIGENCE), CONTRACT, STRICT LIABILITY, STATUTORY OR OTHERWISE, FOR ANY SPECIAL,
#INCIDENTAL, CONSEQUENTIAL, EXEMPLARY, PUNITIVE OR INDIRECT DAMAGE OF ANY KIND, INCLUDING
#WITHOUT LIMITATION LOSS OF REVENUE, PROFITS, GOODWILL, USE, AND/OR DATA OR THE COST OF
#PROCUREMENT OF SUBSTITUTE GOODS OR SERVICES, EVEN IF APPRISED OF THE POSSIBILITY OF SUCH
#DAMAGES IN ADVANCE.
#--------------------------------------------------#

~VERSION INFORMATION
VERS. 2.0 : CWLS LOG ASCII STANDARD - VERSION 2.0
WRAP.  NO : ONE LINE PER DEPTH STEP
~WELL INFORMATION
#MNEMONIC     .UNIT              VALUE :DESCRIPTION
STRT       .FT                -3 :START DEPTH
STOP       .FT                21524 :STOP DEPTH
STEP       .FT                   0.500 :STEP
NULL       .                  -999.99 :NULL
UWI        .                42389105080000 :UNIQUE WELL ID
API        .                42389105080000 :API NUMBER
COMP       .         :COMPANY
WELL       .        :WELL
DATE       .                 :LOG DATE
FLD       .                 :FIELD NAME
LOC       .                  UNK :LOCATION
CNTY       .                 UNK :COUNTY
STAT       .                 UNK :STATE
CTRY       .                 UNK :COUNTY
SRVC       .                 UNK :SERVICE COMPANY
~CURVE INFORMATION
#MNEMONIC     .UNIT      API CODE :CURVE DESCRIPTION
DEPTH       .FT                      :MEASURED DEPTH
CAL.IN        UNKNOWN   :CAL
DT.MSEC/FT        UNKNOWN   :DT
GR.API        UNKNOWN   :GR
~A    DEPTH    CAL    DT    GR
# ...
 16825     10.65606   97.58613   58.36515
 16825.5     10.74712   98.89534   59.3316
 16826     10.83819   100.20455   60.29804
 16826.5     10.63733   100.87902   61.26449
 16827     10.39052   100.20983   64.88943
 16827.5     10.14371   99.54063   68.99701
 16828     10.11795   92.03195   72.51728
 16828.5     10.1214   89.16496   72.9844
 16829     10.12484   86.29797   71.47945
 16829.5     10.12829   83.43098   69.88236
 16830     10.13173   81.19255   68.2437
 16830.5     10.13518   81.51073   66.60503
 16831     10.13863   81.82891   66.88836
 16831.5     10.14207   82.1471   69.20759
 16832     10.14552   83.00879   71.52683
 16832.5     10.14897   84.55475   73.84606
 16833     10.15241   86.10071   71.51785
 16833.5     10.15586   86.61664   70.72862
 16834     10.1593   86.67795   69.9394
 16834.5     10.16275   86.73926   69.15018
 16835     10.1662   86.80057   68.36096
 16835.5     10.16964   86.86188   66.71733
 16836     10.17309   86.09495   64.91482
 16836.5     10.17654   85.09446   63.11232
 16837     10.17998   84.09397   61.30982
 16837.5     10.18343   83.62994   59.6295
 16838     10.18687   84.13908   60.97905
 16838.5     10.19032   85.68049   62.32861
 16839     10.19377   86.44916   63.67816
 16839.5     10.19721   87.21782   64.9247
 16840     10.20066   87.98649   66.15129
 16840.5     10.20411   87.97688   67.37788
 16841     10.20755   87.18655   71.54568
 16841.5     10.20663   86.39621   82.06889
 16842     10.20238   85.60588   92.59211
 16842.5     10.19814   87.82647   93.7697
 16843     10.19389   93.76455   91.84517
 16843.5     10.18965   97.56802   89.92063
 16844     10.1854   96.70594   87.9961
 16844.5     10.18116   94.8676   82.9069
 16845     10.17691   92.34161   75.63697
 16845.5     10.17266   89.81562   68.36703
 16846     10.16842   87.28963   61.0971
 16846.5     10.16417   84.76364   59.05574
 16847     10.15993   86.52097   64.0569
 16847.5     10.15568   88.61801   65.40005
 16848     10.15144   90.56382   65.98342
 16848.5     10.14719   89.43394   66.55376
 16849     10.14295   88.30406   67.11493
 16849.5     10.1387   87.17418   67.6761
 16850     10.13446   86.0443   68.23727
 16850.5     10.13021   84.91441   68.79844
 16851     10.12596   83.78453   70.27885
 16851.5     10.12172   82.98252   72.81487
 16852     10.11747   83.13379   81.10179
 16852.5     10.11323   83.28505   90.29185
 16853     10.10898   83.43632   96.20484
 16853.5     10.10474   83.58759   101.90593
 16854     10.10217   84.9507   107.60701
 16854.5     10.10289   89.01571   113.3081
 16855     10.1036   93.08072   115.22682
 16855.5     10.10431   93.79   112.22249
 16856     10.10503   93.21965   109.21816
 16856.5     10.10574   92.6493   106.21383
 16857     10.10646   92.18811   103.2095
 16857.5     10.10717   92.16433   98.07378
 16858     10.10789   92.14055   88.54699
 16858.5     10.1086   91.92558   83.51443
 16859     10.10932   90.62615   84.84196
 16859.5     10.11003   90.48833   86.16948
 16860     10.11074   90.35051   87.49701
 16860.5     10.11146   90.21269   85.47233
 16861     10.11217   90.07487   80.90561
 16861.5     10.11289   87.35801   76.53408
 16862     10.1136   87.56861   72.56034
 16862.5     10.11432   87.77922   68.5866
 16863     10.11503   87.98982   64.61286
 16863.5     10.11574   88.20042   60.63912
 16864     10.11646   86.20397   58.13049
 16864.5     10.11717   80.98914   55.89744
 16865     10.11789   76.83612   53.6644
 16865.5     10.1186   78.14505   51.43135
 16866     10.11932   79.45398   51.18591
 16866.5     10.12003   80.76291   51.91173
 16867     10.12074   81.05611   52.63754
 16867.5     10.12146   81.09715   54.55411
 16868     10.12217   81.1382   56.78957
 16868.5     10.12289   81.17924   59.02504
 16869     10.1236   81.22029   61.2605
 16869.5     10.12432   81.51082   64.81506
 16870     10.12503   82.44511   69.14543
 16870.5     10.12575   83.37939   73.4758
 16871     10.12646   84.30222   77.80618
 16871.5     10.12717   83.27481   70.26393
 16872     10.12789   82.24739   65.00288
 16872.5     10.1286   81.21998   65.08286
 16873     10.12932   80.19257   66.85347
 16873.5     10.13003   79.92801   68.80356
 16874     10.13075   80.64648   70.75365
 16874.5     10.13146   81.36494   72.70375
 16875     10.13217   82.08341   76.04861
 16875.5     10.13289   82.80187   79.88128
 16876     10.1336   83.52034   82.37837
 16876.5     10.13432   84.2388   78.6941
 16877     10.13503   83.33562   76.76342
 16877.5     10.13575   82.42977   79.92807
 16878     10.13646   81.52393   83.09271
 16878.5     10.13718   80.61809   86.25735
 16879     10.13789   81.7115   89.422
 16879.5     10.1386   82.87087   91.29786
 16880     10.13932   86.87637   84.06195
 16880.5     10.14003   90.95907   76.82604
 16881     10.14075   90.4929   69.59013
 16881.5     10.14146   83.1659   63.21126
 16882     10.14218   75.83889   63.42567
 16882.5     10.14289   75.37231   73.08287
 16883     10.1436   80.51731   82.74007
 16883.5     10.14432   86.60376   92.39727
 16884     10.14503   93.1318   92.83168
 16884.5     10.14575   96.22578   90.84086
 16885     10.14646   94.78647   82.9819
 16885.5     10.14718   92.48304   70.34709
 16886     10.14789   86.84327   53.3707
 16886.5     10.1486   81.15072   36.18459
 16887     10.14932   70.96128   19.36185
 16887.5     10.15003   60.77183   21.61682
 16888     10.15075   54.89798   24.54463
 16888.5     10.15146   57.28455   33.3284
 16889     10.15218   59.67111   42.19808
 16889.5     10.15289   62.05768   51.14625
 16890     10.15361   72.21446   60.09443
 16890.5     10.15432   83.75031   69.04261
 16891     10.15503   89.24105   71.92043
 16891.5     10.15575   85.91724   64.87342
 16892     10.15646   82.59343   58.8479
 16892.5     10.15718   79.26961   59.70549
 16893     10.15789   75.9458   60.56309
 16893.5     10.15861   77.0422   61.42069
 16894     10.15932   78.51621   68.02898
 16894.5     10.16003   79.99022   75.08929
 16895     10.16075   81.46423   78.76794
 16895.5     10.16146   82.60136   76.60518
 16896     10.16218   82.03248   74.65477
 16896.5     10.16289   81.4636   74.2103
 16897     10.16361   80.89472   73.76582
 16897.5     10.16432   80.32583   73.32135
 16898     10.16504   80.31305   73.05602
 16898.5     10.16575   80.9766   73.25844
 16899     10.16646   81.64014   73.46086
 16899.5     10.16718   82.30369   73.72096
 16900     10.16789   82.96724   74.74147
 16900.5     10.16861   83.63079   75.76198
 16901     10.16932   84.23017   76.78249
 16901.5     10.17004   83.32574   77.803
 16902     10.17075   82.83698   81.79715
 16902.5     10.17146   83.27127   87.91553
 16903     10.17218   83.80011   92.54897
 16903.5     10.17289   84.46004   94.23888
 16904     10.17361   85.71201   95.79391
 16904.5     10.17432   87.56393   95.97405
 16905     10.17504   89.41586   96.15419
 16905.5     10.17575   91.26778   96.04047
 16906     10.17646   93.11971   94.78642
 16906.5     10.17718   93.11497   93.53238
 16907     10.17743   91.78618   92.27834
 16907.5     10.1772   90.45738   91.0243
 16908     10.17697   89.12858   89.60869
 16908.5     10.17675   87.79978   86.28191
 16909     10.17652   87.32826   82.95513
 16909.5     10.17629   87.59786   80.04902
 16910     10.17606   87.86745   77.53639
 16910.5     10.17583   88.13705   76.37986
 16911     10.1756   88.40664   78.82911
 16911.5     10.17537   88.3378   80.09684
 16912     10.17514   87.98883   79.16118
 16912.5     10.17491   87.63987   78.07665
 16913     10.17468   86.89708   75.72658
 16913.5     10.17446   85.84516   71.73749
 16914     10.17423   84.79324   67.3933
 16914.5     10.174   83.74131   63.04911
 16915     10.17377   82.68939   58.70492
 16915.5     10.17354   81.63747   54.09268
 16916     10.17331   80.58555   52.25825
 16916.5     10.17308   79.53362   56.26994
 16917     10.17285   78.4817   58.81705
 16917.5     10.17262   79.21033   60.91069
 16918     10.1724   79.96265   63.00432
 16918.5     10.17217   80.72051   65.09795
