###############################################
##         ENVERUS                           ##
##         ESS - Open Hole                   ##
##         PERMIAN / DELAWARE                ##
##         Nov 04 2023  V4.0                 ##
##         42-389-10116-00-00                ##
###############################################
## Copyright 2017-2023  ENVERUS.  All Rights Reserved. 
## Confidential - Property of ENVERUS, use governed by terms and 
## conditions found within the existing Information Services Subscription Agreement 
## (as may be amended, the “ISSA”) between Customer and ENVERUS. 
## 
~VERSION INFORMATION
# MNEM.UNIT                               DATA : DESCRIPTION OF MNEMONIC
#-----.-----     ----------------------------- : -----------------------------
VERS.                                     2.00 : CWLS LOG ASCII STANDARD - VERSION 2.00
WRAP.                                       NO : MULTIPLE LINES PER DEPTH STEP
VEND.                                  ENVERUS : VENDOR
TYPE.                          ESS - OPEN HOLE : ENVERUS ESSENTIAL CURVES – ACCESSIBLE THROUGH ENVERUS PRISM(TM)
DOC.                                  31818149 : ENVERUS HEADER RAW DOCUMENT ID
#___________________________________________________________________________________________________ 
~WELL INFORMATION 
# kxSJJvG4Ro99GqojvmaAoFb8nmZsGWyMBdB6Op61yYkHZj6VRdx+Ef4kBXz5Syac/VH6awax3Ll89xsC2rvs8g== 
# MNEM.UNIT                                              DATA : DESCRIPTION OF MNEMONIC 
#-----.-----                    ----------------------------- : ----------------------------- 
CNTY.                                                  REEVES : COUNTY 
STATE.                                                  TEXAS : STATE 
CNTRY.                                                    USA : COUNTRY 
API.                                             42-389-10116 : API (10 Digit) 
API_14.                                    42-389-10116-00-00 : API (14 Digits) 
API_14_std.                                 42-389-10116-0000 : API (14 Digits Standard) 
UWI.                                           42389101160000 : UNIQUE WELL ID 
WELL.                                            WOODS -A-  1 : WELL NAME
STRT.FT                                                 107.0 : START DEPTH
STOP.FT                                                5258.0 : STOP DEPTH
STEP.FT                                                   0.5 : STEP BETWEEN DEPTHS
NULL.                                                 -999.25 : NULL VALUE
COMP.                              PHILLIPS PETROLEUM COMPANY : COMPANY
#___________________________________________________________________________________________________ 
~CURVE INFORMATION 
# MNEM.UNIT           : CURVE DESCRIPTION 
#-----.-----          : ----------------------------- 
 DEPT.FT               : MEASURED DEPTH 
 GR.API                : GAMMA RAY (GR) 
 DT.US/FT              : SONIC DELTA TRANSIT TIME (DT) 
 #___________________________________________________________________________________________________ 
~A         DEPT             GR             DT
# ...
         4805.0          6.457         68.657
         4805.5          6.461         67.485
         4806.0          6.667         66.108
         4806.5          6.874         64.730
         4807.0          7.081         64.430
         4807.5          7.288         64.742
         4808.0          7.495         65.053
         4808.5          7.702         65.364
         4809.0          7.908         63.903
         4809.5          8.115         64.359
         4810.0          8.322         65.460
         4810.5          8.529         61.927
         4811.0          8.736         64.076
         4811.5          8.943         66.225
         4812.0          9.149         66.771
         4812.5          7.742         66.949
         4813.0          7.743         67.128
         4813.5          7.745         67.307
         4814.0          7.746         66.850
         4814.5          7.748         66.318
         4815.0          7.749         65.786
         4815.5          7.750         65.254
         4816.0          7.752         65.528
         4816.5          7.753         66.319
         4817.0          7.755         66.953
         4817.5          7.756         66.146
         4818.0          7.757         65.340
         4818.5          7.759         65.014
         4819.0          7.760         65.975
         4819.5          7.762         66.937
         4820.0          7.763         67.426
         4820.5          7.764         66.369
         4821.0          7.766         65.313
         4821.5          7.767         64.256
         4822.0          7.769         65.829
         4822.5          7.770         67.482
         4823.0          7.771         65.413
         4823.5          7.773         63.632
         4824.0          7.774         67.400
         4824.5          8.205         66.858
         4825.0          9.089         59.868
         4825.5          9.973         52.879
         4826.0         10.857         46.088
         4826.5         11.741         46.964
         4827.0         12.625         47.840
         4827.5         13.217         48.617
         4828.0         12.680         49.269
         4828.5         12.143         49.922
         4829.0         11.606         50.574
         4829.5         11.069         50.140
         4830.0         10.532         49.650
         4830.5         10.907         49.161
         4831.0         11.464         48.767
         4831.5         12.022         49.004
         4832.0         12.579         49.242
         4832.5         13.136         49.480
         4833.0         13.694         49.718
         4833.5         14.251         49.956
         4834.0         14.809         50.092
         4834.5         14.738         50.192
         4835.0         14.246         50.291
         4835.5         13.754         50.100
         4836.0         13.261         49.836
         4836.5         12.769         49.573
         4837.0         12.277         49.822
         4837.5         11.785         50.118
         4838.0         11.293         50.415
         4838.5         10.801         50.712
         4839.0         11.060         51.008
         4839.5         11.496         51.283
         4840.0         11.932         49.393
         4840.5         12.369         48.919
         4841.0         12.191         49.209
         4841.5         11.968         49.499
         4842.0         11.744         49.790
         4842.5         11.521         49.922
         4843.0         11.297         49.507
         4843.5         11.445         49.091
         4844.0         11.873         48.676
         4844.5         12.300         48.261
         4845.0         12.727         48.145
         4845.5         13.155         48.417
         4846.0         13.582         48.688
         4846.5         14.010         48.960
         4847.0         13.800         48.807
         4847.5         13.413         48.653
         4848.0         13.026         48.499
         4848.5         12.640         48.345
         4849.0         12.253         48.191
         4849.5         11.866         48.616
         4850.0         11.480         49.153
         4850.5         11.717         48.927
         4851.0         11.985         48.702
         4851.5         12.254         48.477
         4852.0         12.523         48.547
         4852.5         12.791         48.690
         4853.0         13.060         48.833
         4853.5         13.141         48.976
         4854.0         13.118         49.120
         4854.5         13.095         48.900
         4855.0         13.071         48.645
         4855.5         13.048         48.390
         4856.0         13.024         48.135
         4856.5         13.001         47.904
         4857.0         12.978         47.903
         4857.5         12.954         47.903
         4858.0         12.931         47.903
         4858.5         12.907         47.903
         4859.0         12.884         48.117
         4859.5         12.861         48.805
         4860.0         12.837         48.661
         4860.5         12.814         48.518
         4861.0         12.790         48.374
         4861.5         12.767         48.230
         4862.0         12.744         48.086
         4862.5         12.720         47.943
         4863.0         12.698         47.799
         4863.5         12.679         47.853
         4864.0         12.661         48.117
         4864.5         12.642         48.381
         4865.0         12.624         48.645
         4865.5         12.605         48.884
         4866.0         12.587         48.740
         4866.5         12.568         48.597
         4867.0         12.550         48.454
         4867.5         12.532         48.311
         4868.0         12.513         48.168
         4868.5         12.495         48.171
         4869.0         12.473         48.224
         4869.5         12.263         48.277
         4870.0         12.052         48.330
         4870.5         11.842         48.449
         4871.0         12.210         48.686
         4871.5         12.958         48.924
         4872.0         13.707         49.162
         4872.5         14.455         49.400
         4873.0         15.203         49.507
         4873.5         14.887         49.454
         4874.0         14.243         49.400
         4874.5         13.600         49.346
         4875.0         12.956         49.328
         4875.5         12.313         49.722
         4876.0         11.670         49.748
         4876.5         11.340         49.528
         4877.0         11.458         49.307
         4877.5         11.576         49.087
         4878.0         11.694         48.866
         4878.5         11.812         48.797
         4879.0         11.930         49.094
         4879.5         12.048         49.391
         4880.0         12.166         49.688
         4880.5         12.242         49.798
         4881.0         12.078         49.576
         4881.5         11.915         49.353
         4882.0         11.751         49.131
         4882.5         11.588         48.909
         4883.0         11.424         48.686
         4883.5         11.353         48.645
         4884.0         11.496         48.741
         4884.5         11.639         48.837
         4885.0         11.782         48.932
         4885.5         11.925         49.028
         4886.0         12.068         48.974
         4886.5         12.211         48.853
         4887.0         12.354         48.732
         4887.5         12.497         48.611
         4888.0         12.640         48.490
         4888.5         12.751         48.476
         4889.0         12.554         48.648
         4889.5         12.358         48.820
         4890.0         12.161         48.992
         4890.5         11.965         49.164
         4891.0         11.768         49.017
         4891.5         11.572         48.855
