###############################################
##         ENVERUS                           ##
##         Petrophysical Curves              ##
##         PERMIAN / DELAWARE                ##
##         Jan 21 2022                       ##
##         42-371-36857-00-00                ##
###############################################
## Copyright 2017-2022  ENVERUS.  All Rights Reserved. 
## Confidential - Property of ENVERUS, use governed by terms and 
## conditions found within the existing Information Services Subscription Agreement 
## (as may be amended, the “ISSA”) between Customer and ENVERUS. 
## 
~VERSION INFORMATION
# MNEM.UNIT                               DATA : DESCRIPTION OF MNEMONIC
#-----.-----     ----------------------------- : -----------------------------
VERS.                                     2.00 : CWLS LOG ASCII STANDARD - VERSION 2.00
WRAP.                                       NO : MULTIPLE LINES PER DEPTH STEP
VEND.                                  ENVERUS : VENDOR
TYPE.                     PETROPHYSICAL CURVES : ENVERUS PETROPHYSICAL CURVES - ACCESSIBLE THROUGH ENVERUS CORE(TM)
#___________________________________________________________________________________________________ 
~WELL INFORMATION 
# uyaQ8P8kQDJ9DXFS5hR1PxmExEOYaAUkY5f3/tnOS+scoPAUWgXA1zCIHGRbWCuSuUcwDzaESCjqjWQ81XhadA== 
# MNEM.UNIT                                              DATA : DESCRIPTION OF MNEMONIC 
#-----.-----                    ----------------------------- : ----------------------------- 
CNTY.                                                   PECOS : COUNTY 
STATE.                                                  TEXAS : STATE 
CNTRY.                                                    USA : COUNTRY 
API.                                             42-371-36857 : API (10 Digit) 
API_14.                                    42-371-36857-00-00 : API (14 Digits) 
API_14_std.                                 42-371-36857-0000 : API (14 Digits Standard) 
UWI.                                           42371368570000 : UNIQUE WELL ID
STRT.FT                                                7870.0 : START DEPTH
STOP.FT                                               16592.5 : STOP DEPTH
STEP.FT                                                   0.5 : STEP BETWEEN DEPTHS
NULL.                                                 -999.25 : NULL VALUE
COMP.                                             DIAMONDBACK : COMPANY 
WELL.                                         MOORE-GILMORE 1 : WELL NAME 
FLD.                                               WAHA  WEST : FIELD NAME
#___________________________________________________________________________________________________ 
~CURVE INFORMATION 
#    Zone Description
#          1 = Upper Avalon
#          2 = Middle Avalon
#          3 = Lower Avalon
#          4 = 1st Bone Spring
#          5 = 2nd Bone Spring
#          6 = 2nd Bone Spring Sand
#          7 = 3rd Bone Spring
#          8 = 3rd Bone Spring Sand
#          9 = Wolfcamp XY
#          10 = Wolfcamp A Upper
#          11 = Wolfcamp A Lower
#          12 = Wolfcamp B Upper
#          13 = Wolfcamp B Lower
#          14 = Wolfcamp C
#          15 = Wolfcamp D
#          16 = Pennsylvanian Shale
#          17 = Lower Pennsylvanian Shale
#          18 = Barnett
#          19 = Barnett Lower
#          20 = Mississippian Lime
#          21 = Woodford
#          22 = Base Woodford 
# MNEM.UNIT           : CURVE DESCRIPTION 
#-----.-----          : ----------------------------- 
 DEPT.FT               : MEASURED DEPTH 
 TVD_I.FT              : ENVERUS TRUE VERTICAL DEPTH 
 ZONE_I.               : ENVERUS DEFINED ZONE CODE 
 GR_N_I.API            : ENVERUS NORMALIZED GAMMA RAY LEVERAGED IN GEOLOGICAL MODELLING 
 RESD_I.OHMM           : ENVERUS DEEP RESISTIVITY LEVERAGED IN GEOLOGICAL MODELLING 
 DPHI_I.V/V            : ENVERUS INTERPRETED DENSITY POROSITY USING A 2.71 G/CC MATRIX DENSITY 
 PHIE_I.V/V            : ENVERUS INTERPRETED EFFECTIVE POROSITY 
 SW_I.V/V              : ENVERUS INTERPRETED WATER SATURATION USING MODIFIED SIMANDOUX EQUATION 
 TOC_I.WT%             : ENVERUS INTERPRETED TOTAL ORGANIC CARBON USING MULTI-LINEAR REGRESSION 
 VCLAY_I.V/V           : ENVERUS INTERPRETED CLAY VOLUMES USING MULTI-LINEAR REGRESSION 
 NVCLAY_I.V/V          : ENVERUS INTERPRETED NON CLAY VOLUMES 
 HCPV_I.V/V            : ENVERUS INTERPRETED HYDROCARBON PORE VOLUME 
 OOIP_I.MMBBL/SEC      : ENVERUS INTERPRETED ORIGINAL OIL IN PLACE 
 OGIP_I.BCF/SEC        : ENVERUS INTERPRETED ORIGINAL GAS IN PLACE 
 TEMP_I.DEGF           : ENVERUS INTERPRETED TEMPERATURE DERIVED FROM BOTTOM HOLE TEMPERATURES 
 #___________________________________________________________________________________________________ 
~A         DEPT          TVD_I         ZONE_I         GR_N_I         RESD_I         DPHI_I         PHIE_I           SW_I          TOC_I        VCLAY_I       NVCLAY_I         HCPV_I         OOIP_I         OGIP_I         TEMP_I
         7870.0       7870.000        -999.25         70.486      -999.2500        0.07600     -999.25000     -999.25000     -999.25000     -999.25000     -999.25000     -999.25000     -999.25000     -999.25000       -999.250
         7870.5       7870.500        -999.25         69.332      -999.2500        0.07100     -999.25000     -999.25000     -999.25000     -999.25000     -999.25000     -999.25000     -999.25000     -999.25000       -999.250
         7871.0       7871.000        -999.25         74.696      -999.2500        0.06590     -999.25000     -999.25000        2.01570        0.19710     -999.25000     -999.25000     -999.25000     -999.25000        361.414
         7871.5       7871.500        -999.25         81.167      -999.2500        0.06150        0.04790        0.05970        2.10480        0.22080        0.73130        0.02970        0.21310      803.04140        361.433
         7872.0       7872.000        -999.25         87.954      -999.2500        0.06650        0.05050        0.03090        2.37550        0.24020        0.70920        0.03390        0.23150      872.36000        361.452
         7872.5       7872.501        -999.25         86.040      -999.2500        0.07980        0.06040        0.06620        2.62920        0.24260        0.69690        0.04280        0.26690     1005.65880        361.471
         7873.0       7873.000        -999.25         77.677      -999.2500        0.08880        0.06730        0.07190        2.68980        0.24190        0.69080        0.04990        0.29550     1113.65010        361.490
         7873.5       7873.500        -999.25         79.149      -999.2500        0.09150        0.06880        0.05380        2.78660        0.24740        0.68370        0.05330        0.30800     1160.52480        361.509
         7874.0       7874.000        -999.25         87.324      -999.2500        0.09430        0.07090        0.04480        2.97420        0.24880        0.68040        0.05620        0.32010     1206.16930        361.528
         7874.5       7874.501        -999.25         96.295      -999.2500        0.10540        0.08010        0.05820        3.32130        0.23980        0.68010        0.06510        0.35680     1344.45470        361.546
         7875.0       7875.000        -999.25        101.660      -999.2500        0.10790        0.08030        0.03780        3.51850        0.25610        0.66370        0.06730        0.36520     1376.37630        361.565
         7875.5       7875.500        -999.25        103.585      -999.2500        0.10930        0.07770        0.00790        3.68340        0.28910        0.63320        0.06670        0.36450     1373.79600        361.584
         7876.0       7876.000        -999.25        104.697      -999.2500        0.11020        0.07790        0.00650        3.73240        0.29310        0.62910        0.06710        0.36590     1379.23020        361.603
         7876.5       7876.500        -999.25        105.779      -999.2500        0.10650        0.07680        0.01110        3.63010        0.27840        0.64470        0.06570        0.35930     1354.31930        361.622
         7877.0       7877.000        -999.25        104.579      -999.2500        0.09700        0.07140        0.00270        3.36790        0.26400        0.66460        0.06020        0.33660     1268.75330        361.641
         7877.5       7877.500        -999.25        100.408      -999.2500        0.09010        0.06660        0.00000        3.14270        0.26040        0.67300        0.05570        0.31500     1187.28990        361.660
         7878.0       7878.000        -999.25         98.240      -999.2500        0.09530        0.07060        0.00280        3.21300        0.25960        0.66980        0.05910        0.33280     1254.57920        361.679
         7878.5       7878.500        -999.25         97.214      -999.2500        0.09840        0.07240        0.00000        3.27620        0.26400        0.66350        0.06140        0.34250     1291.33960        361.698
         7879.0       7879.001        -999.25         87.773      -999.2500        0.09900        0.07400        0.01680        3.09880        0.25280        0.67320        0.06180        0.34390     1296.70190        361.717
         7879.5       7879.500        -999.25         85.460      -999.2500        0.10540        0.08090        0.05350        3.12270        0.23220        0.68690        0.06620        0.36210     1365.30260        361.736
         7880.0       7880.000        -999.25         87.241      -999.2500        0.10440        0.08200        0.08770        3.07040        0.21510        0.70300        0.06350        0.35370     1333.51430        361.755
         7880.5       7880.500        -999.25         89.065      -999.2500        0.09230        0.07110        0.08450        2.89310        0.22980        0.69910        0.05280        0.30770     1160.19980        361.774
         7881.0       7881.001        -999.25         86.622      -999.2500        0.09030        0.06710        0.07680        2.90190        0.25720        0.67580        0.04950        0.29280     1104.07840        361.793
         7881.5       7881.500        -999.25         82.272      -999.2500        0.10060        0.07210        0.08020        3.13950        0.28340        0.64450        0.05390        0.31360     1182.69900        361.812
         7882.0       7882.000        -999.25         77.054      -999.2500        0.11370        0.08260        0.08960        3.29690        0.27320        0.64420        0.06330        0.35570     1341.38280        361.831
         7882.5       7882.500        -999.25         76.720      -999.2500        0.12670        0.09610        0.10340        3.44830        0.24200        0.66190        0.07610        0.40720     1535.81210        361.850
         7883.0       7883.000        -999.25         78.783      -999.2500        0.13510        0.10410        0.10010        3.61280        0.22970        0.66620        0.08380        0.44300     1670.71700        361.869
         7883.5       7883.501        -999.25         81.082      -999.2500        0.13650        0.10460        0.09300        3.69350        0.23400        0.66140        0.08540        0.44860     1692.04200        361.888
         7884.0       7884.000        -999.25         82.052      -999.2500        0.13780        0.10480        0.09400        3.75250        0.23950        0.65570        0.08560        0.44910     1693.95200        361.907
         7884.5       7884.500        -999.25         82.606      -999.2500        0.13810        0.10560        0.09610        3.75340        0.23520        0.65920        0.08600        0.45160     1703.31560        361.926
         7885.0       7885.000        -999.25         86.409      -999.2500        0.13350        0.10330        0.08490        3.69490        0.22620        0.67050        0.08510        0.44710     1686.41460        361.945
         7885.5       7885.500        -999.25         94.948      -999.2500        0.11960        0.09220        0.06210        3.56640        0.22920        0.67860        0.07720        0.40910     1543.32210        361.964
         7886.0       7886.000        -999.25         98.367      -999.2500        0.10780        0.08140        0.02380        3.43410        0.24510        0.67360        0.06960        0.37560     1416.99840        361.983
         7886.5       7886.500        -999.25         98.409      -999.2500        0.10400        0.07730        0.00050        3.39750        0.25710        0.66560        0.06700        0.36530     1378.10940        362.001
         7887.0       7887.000        -999.25         98.004      -999.2500        0.10420        0.07800        0.00470        3.37700        0.25140        0.67060        0.06750        0.36720     1385.37890        362.020
         7887.5       7887.501        -999.25         98.860      -999.2500        0.10520        0.08010        0.02960        3.36630        0.23850        0.68140        0.06780        0.36760     1386.92710        362.039
