###############################################
##         ENVERUS                           ##
##         Petrophysical Curves              ##
##         PERMIAN / DELAWARE                ##
##         Jan 21 2022                       ##
##         42-389-10508-00-00                ##
###############################################
## Copyright 2017-2022  ENVERUS.  All Rights Reserved. 
## Confidential - Property of ENVERUS, use governed by terms and 
## conditions found within the existing Information Services Subscription Agreement 
## (as may be amended, the “ISSA”) between Customer and ENVERUS. 
## 
~VERSION INFORMATION
# MNEM.UNIT                               DATA : DESCRIPTION OF MNEMONIC
#-----.-----     ----------------------------- : -----------------------------
VERS.                                     2.00 : CWLS LOG ASCII STANDARD - VERSION 2.00
WRAP.                                       NO : MULTIPLE LINES PER DEPTH STEP
VEND.                                  ENVERUS : VENDOR
TYPE.                     PETROPHYSICAL CURVES : ENVERUS PETROPHYSICAL CURVES - ACCESSIBLE THROUGH ENVERUS CORE(TM)
#___________________________________________________________________________________________________ 
~WELL INFORMATION 
# uyaQ8P8kQDJ9DXFS5hR1PxmExEOYaAUkY5f3/tnOS+scoPAUWgXA1zCIHGRbWCuSuUcwDzaESCjqjWQ81XhadA== 
# MNEM.UNIT                                              DATA : DESCRIPTION OF MNEMONIC 
#-----.-----                    ----------------------------- : ----------------------------- 
CNTY.                                                  REEVES : COUNTY 
STATE.                                                  TEXAS : STATE 
CNTRY.                                                    USA : COUNTRY 
API.                                             42-389-10508 : API (10 Digit) 
API_14.                                    42-389-10508-00-00 : API (14 Digits) 
API_14_std.                                 42-389-10508-0000 : API (14 Digits Standard) 
UWI.                                           42389105080000 : UNIQUE WELL ID
STRT.FT                                               11776.0 : START DEPTH
STOP.FT                                               33299.5 : STOP DEPTH
STEP.FT                                                   0.5 : STEP BETWEEN DEPTHS
NULL.                                                 -999.25 : NULL VALUE
COMP.                                                  SABINE : COMPANY 
WELL.                                                       1 : WELL NAME 
FLD.                                         ROJO CABALLOS W. : FIELD NAME
#___________________________________________________________________________________________________ 
~CURVE INFORMATION 
#    Zone Description
#          1 = Upper Avalon
#          2 = Middle Avalon
#          3 = Lower Avalon
#          4 = 1st Bone Spring
#          5 = 2nd Bone Spring
#          6 = 2nd Bone Spring Sand
#          7 = 3rd Bone Spring
#          8 = 3rd Bone Spring Sand
#          9 = Wolfcamp XY
#          10 = Wolfcamp A Upper
#          11 = Wolfcamp A Lower
#          12 = Wolfcamp B Upper
#          13 = Wolfcamp B Lower
#          14 = Wolfcamp C
#          15 = Wolfcamp D
#          16 = Pennsylvanian Shale
#          17 = Lower Pennsylvanian Shale
#          18 = Barnett
#          19 = Barnett Lower
#          20 = Mississippian Lime
#          21 = Woodford
#          22 = Base Woodford 
# MNEM.UNIT           : CURVE DESCRIPTION 
#-----.-----          : ----------------------------- 
 DEPT.FT               : MEASURED DEPTH 
 TVD_I.FT              : ENVERUS TRUE VERTICAL DEPTH 
 ZONE_I.               : ENVERUS DEFINED ZONE CODE 
 GR_N_I.API            : ENVERUS NORMALIZED GAMMA RAY LEVERAGED IN GEOLOGICAL MODELLING 
 TEMP_I.DEGF           : ENVERUS INTERPRETED TEMPERATURE DERIVED FROM BOTTOM HOLE TEMPERATURES 
 #___________________________________________________________________________________________________ 
~A         DEPT          TVD_I         ZONE_I         GR_N_I         TEMP_I
# ...
        13207.0      13207.001          15.00         25.909         78.798
        13207.5      13207.500          15.00         25.396         78.803
        13208.0      13208.000          15.00         24.884         78.809
        13208.5      13208.499          15.00         24.371         78.814
        13209.0      13209.000          15.00         23.859         78.820
        13209.5      13209.500          15.00         23.864         78.825
        13210.0      13210.000          15.00         23.992         78.831
        13210.5      13210.500          15.00         24.119         78.836
        13211.0      13211.000          15.00         23.797         78.842
        13211.5      13211.500          15.00         23.334         78.847
        13212.0      13212.000          15.00         22.872         78.853
        13212.5      13212.500          15.00         22.410         78.858
        13213.0      13213.001          15.00         22.457         78.864
        13213.5      13213.501          15.00         22.648         78.870
        13214.0      13214.000          15.00         22.839         78.875
        13214.5      13214.500          15.00         23.030         78.881
        13215.0      13214.999          15.00         23.220         78.886
        13215.5      13215.500          15.00         23.340         78.892
        13216.0      13216.000          15.00         23.459         78.897
        13216.5      13216.500          15.00         23.578         78.903
        13217.0      13216.999          15.00         23.697         78.908
        13217.5      13217.500          15.00         23.803         78.914
        13218.0      13218.000          15.00         23.902         78.919
        13218.5      13218.500          15.00         24.001         78.925
        13219.0      13219.000          15.00         24.101         78.930
        13219.5      13219.500          15.00         24.350         78.936
        13220.0      13220.000          15.00         24.148         78.941
        13220.5      13220.500          15.00         23.873         78.947
        13221.0      13221.000          15.00         23.599         78.952
        13221.5      13221.500          15.00         23.324         78.958
        13222.0      13222.001          15.00         23.049         78.964
        13222.5      13222.500          15.00         23.324         78.969
        13223.0      13223.000          15.00         23.979         78.975
        13223.5      13223.499          15.00         24.634         78.980
        13224.0      13224.000          15.00         26.066         78.986
        13224.5      13224.500          15.00         25.990         78.991
        13225.0      13225.000          15.00         25.496         78.997
        13225.5      13225.500          15.00         24.475         79.002
        13226.0      13226.000          15.00         23.454         79.008
        13226.5      13226.500          15.00         22.433         79.013
        13227.0      13227.000          15.00         21.412         79.019
        13227.5      13227.500          15.00         20.755         79.024
        13228.0      13228.000          15.00         20.122         79.030
        13228.5      13228.501          15.00         19.489         79.035
        13229.0      13229.000          15.00         19.131         79.041
        13229.5      13229.500          15.00         18.831         79.047
        13230.0      13230.000          15.00         18.889         79.052
        13230.5      13230.501          15.00         20.542         79.058
        13231.0      13231.000          15.00         22.196         79.063
        13231.5      13231.500          15.00         23.850         79.069
        13232.0      13231.999          15.00         24.306         79.074
        13232.5      13232.500          15.00         24.557         79.080
        13233.0      13233.000          15.00         24.623         79.085
        13233.5      13233.500          15.00         24.140         79.091
        13234.0      13234.000          15.00         23.657         79.096
        13234.5      13234.500          15.00         23.173         79.102
        13235.0      13235.000          15.00         23.033         79.107
        13235.5      13235.500          15.00         23.031         79.113
        13236.0      13236.000          15.00         23.030         79.118
        13236.5      13236.500          15.00         23.029         79.124
        13237.0      13237.001          15.00         23.132         79.129
        13237.5      13237.501          15.00         23.265         79.135
        13238.0      13238.000          15.00         23.397         79.141
        13238.5      13238.500          15.00         23.530         79.146
        13239.0      13239.000          15.00         23.942         79.152
        13239.5      13239.500          15.00         24.398         79.157
        13240.0      13240.000          15.00         24.753         79.163
        13240.5      13240.500          15.00         24.852         79.168
        13241.0      13240.999          15.00         24.951         79.174
        13241.5      13241.500          15.00         25.050         79.179
        13242.0      13242.000          15.00         24.758         79.185
        13242.5      13242.500          15.00         23.783         79.190
        13243.0      13243.000          15.00         22.808         79.196
        13243.5      13243.501          15.00         22.370         79.201
        13244.0      13244.000          15.00         22.198         79.207
        13244.5      13244.500          15.00         22.026         79.212
        13245.0      13245.000          15.00         22.102         79.218
        13245.5      13245.500          15.00         22.349         79.224
        13246.0      13246.000          15.00         22.595         79.229
        13246.5      13246.500          15.00         22.841         79.235
        13247.0      13246.999          15.00         23.087         79.240
        13247.5      13247.499          15.00         23.005         79.246
        13248.0      13248.000          15.00         22.854         79.251
        13248.5      13248.500          15.00         22.703         79.257
        13249.0      13249.000          15.00         22.684         79.262
        13249.5      13249.500          15.00         22.948         79.268
        13250.0      13250.000          15.00         23.212         79.273
        13250.5      13250.500          15.00         23.475         79.279
        13251.0      13251.000          15.00         23.728         79.284
        13251.5      13251.500          15.00         23.979         79.290
        13252.0      13252.001          15.00         24.048         79.295
        13252.5      13252.501          15.00         23.580         79.301
        13253.0      13253.000          15.00         23.113         79.306
        13253.5      13253.500          15.00         22.690         79.312
        13254.0      13253.999          15.00         22.509         79.318
        13254.5      13254.500          15.00         22.328         79.323
        13255.0      13255.000          15.00         22.147         79.329
        13255.5      13255.500          15.00         21.966         79.334
        13256.0      13255.999          15.00         21.923         79.340
        13256.5      13256.500          15.00         21.922         79.345
        13257.0      13257.000          15.00         21.920         79.351
        13257.5      13257.500          15.00         21.919         79.356
        13258.0      13258.000          15.00         21.917         79.362
        13258.5      13258.500          15.00         22.047         79.367
        13259.0      13259.000          15.00         22.245         79.373
        13259.5      13259.500          15.00         23.294         79.378
