###############################################
##         ENVERUS                           ##
##         Petrophysical Curves              ##
##         PERMIAN / DELAWARE                ##
##         Jan 21 2022                       ##
##         42-389-10491-00-00                ##
###############################################
## Copyright 2017-2022  ENVERUS.  All Rights Reserved. 
## Confidential - Property of ENVERUS, use governed by terms and 
## conditions found within the existing Information Services Subscription Agreement 
## (as may be amended, the “ISSA”) between Customer and ENVERUS. 
## 
~VERSION INFORMATION
# MNEM.UNIT                               DATA : DESCRIPTION OF MNEMONIC
#-----.-----     ----------------------------- : -----------------------------
VERS.                                     2.00 : CWLS LOG ASCII STANDARD - VERSION 2.00
WRAP.                                       NO : MULTIPLE LINES PER DEPTH STEP
VEND.                                  ENVERUS : VENDOR
TYPE.                     PETROPHYSICAL CURVES : ENVERUS PETROPHYSICAL CURVES - ACCESSIBLE THROUGH ENVERUS CORE(TM)
#___________________________________________________________________________________________________ 
~WELL INFORMATION 
# uyaQ8P8kQDJ9DXFS5hR1PxmExEOYaAUkY5f3/tnOS+scoPAUWgXA1zCIHGRbWCuSuUcwDzaESCjqjWQ81XhadA== 
# MNEM.UNIT                                              DATA : DESCRIPTION OF MNEMONIC 
#-----.-----                    ----------------------------- : ----------------------------- 
CNTY.                                                  REEVES : COUNTY 
STATE.                                                  TEXAS : STATE 
CNTRY.                                                    USA : COUNTRY 
API.                                             42-389-10491 : API (10 Digit) 
API_14.                                    42-389-10491-00-00 : API (14 Digits) 
API_14_std.                                 42-389-10491-0000 : API (14 Digits Standard) 
UWI.                                           42389104910000 : UNIQUE WELL ID
STRT.FT                                                 102.0 : START DEPTH
STOP.FT                                                9071.0 : STOP DEPTH
STEP.FT                                                   0.5 : STEP BETWEEN DEPTHS
NULL.                                                 -999.25 : NULL VALUE
COMP.                                FLAT CREEK RESOURCES LLC : COMPANY 
WELL.                                         REEVES-AW-FEE 1 : WELL NAME 
FLD.                                                     TORO : FIELD NAME
#___________________________________________________________________________________________________ 
~CURVE INFORMATION 
#    Zone Description
#          1 = Upper Avalon
#          2 = Middle Avalon
#          3 = Lower Avalon
#          4 = 1st Bone Spring
#          5 = 2nd Bone Spring
#          6 = 2nd Bone Spring Sand
#          7 = 3rd Bone Spring
#          8 = 3rd Bone Spring Sand
#          9 = Wolfcamp XY
#          10 = Wolfcamp A Upper
#          11 = Wolfcamp A Lower
#          12 = Wolfcamp B Upper
#          13 = Wolfcamp B Lower
#          14 = Wolfcamp C
#          15 = Wolfcamp D
#          16 = Pennsylvanian Shale
#          17 = Lower Pennsylvanian Shale
#          18 = Barnett
#          19 = Barnett Lower
#          20 = Mississippian Lime
#          21 = Woodford
#          22 = Base Woodford 
# MNEM.UNIT           : CURVE DESCRIPTION 
#-----.-----          : ----------------------------- 
 DEPT.FT               : MEASURED DEPTH 
 TVD_I.FT              : ENVERUS TRUE VERTICAL DEPTH 
 ZONE_I.               : ENVERUS DEFINED ZONE CODE 
 GR_N_I.API            : ENVERUS NORMALIZED GAMMA RAY LEVERAGED IN GEOLOGICAL MODELLING 
 TEMP_I.DEGF           : ENVERUS INTERPRETED TEMPERATURE DERIVED FROM BOTTOM HOLE TEMPERATURES 
 #___________________________________________________________________________________________________ 
~A         DEPT          TVD_I         ZONE_I         GR_N_I         TEMP_I
# ...
         4236.0       4236.000        -999.25          9.825        107.865
         4236.5       4236.500        -999.25         10.083        107.870
         4237.0       4237.000        -999.25         10.339        107.875
         4237.5       4237.500        -999.25         10.358        107.881
         4238.0       4238.000        -999.25          9.966        107.886
         4238.5       4238.500        -999.25          9.577        107.891
         4239.0       4239.000        -999.25          9.185        107.896
         4239.5       4239.500        -999.25          8.794        107.902
         4240.0       4240.000        -999.25          8.404        107.907
         4240.5       4240.500        -999.25          8.013        107.912
         4241.0       4241.000        -999.25          7.622        107.918
         4241.5       4241.500        -999.25          7.232        107.923
         4242.0       4242.000        -999.25          6.841        107.928
         4242.5       4242.500        -999.25          6.737        107.933
         4243.0       4243.000        -999.25          7.147        107.939
         4243.5       4243.501        -999.25          7.556        107.944
         4244.0       4244.000        -999.25          7.967        107.949
         4244.5       4244.500        -999.25          8.376        107.955
         4245.0       4245.000        -999.25          8.002        107.960
         4245.5       4245.500        -999.25          7.551        107.965
         4246.0       4246.000        -999.25          7.101        107.971
         4246.5       4246.500        -999.25          7.244        107.976
         4247.0       4247.000        -999.25          7.827        107.981
         4247.5       4247.500        -999.25          8.413        107.986
         4248.0       4248.000        -999.25          8.996        107.992
         4248.5       4248.500        -999.25          9.582        107.997
         4249.0       4249.000        -999.25         10.165        108.002
         4249.5       4249.500        -999.25         10.750        108.008
         4250.0       4250.000        -999.25         11.334        108.013
         4250.5       4250.500        -999.25         10.358        108.018
         4251.0       4251.000        -999.25          8.962        108.023
         4251.5       4251.500        -999.25          7.568        108.029
         4252.0       4252.000        -999.25          6.172        108.034
         4252.5       4252.500        -999.25          6.219        108.039
         4253.0       4253.000        -999.25          6.440        108.045
         4253.5       4253.500        -999.25          6.658        108.050
         4254.0       4254.000        -999.25          6.879        108.055
         4254.5       4254.500        -999.25          7.097        108.061
         4255.0       4255.000        -999.25          7.316        108.066
         4255.5       4255.500        -999.25          7.536        108.071
         4256.0       4256.000        -999.25          7.755        108.076
         4256.5       4256.500        -999.25          7.974        108.082
         4257.0       4257.000        -999.25          8.194        108.087
         4257.5       4257.500        -999.25          8.413        108.092
         4258.0       4258.000        -999.25          8.431        108.098
         4258.5       4258.500        -999.25          8.390        108.103
         4259.0       4259.000        -999.25          8.349        108.108
         4259.5       4259.500        -999.25          8.307        108.114
         4260.0       4260.000        -999.25          8.266        108.119
         4260.5       4260.500        -999.25          8.224        108.124
         4261.0       4261.000        -999.25          8.182        108.129
         4261.5       4261.500        -999.25          8.141        108.135
         4262.0       4262.000        -999.25          8.100        108.140
         4262.5       4262.500        -999.25          8.059        108.145
         4263.0       4263.001        -999.25          8.016        108.151
         4263.5       4263.500        -999.25          7.975        108.156
         4264.0       4264.001        -999.25          7.934        108.161
         4264.5       4264.500        -999.25          7.893        108.166
         4265.0       4265.000        -999.25          8.515        108.172
         4265.5       4265.500        -999.25          9.241        108.177
         4266.0       4266.000        -999.25          9.968        108.182
         4266.5       4266.500        -999.25         10.695        108.188
         4267.0       4267.000        -999.25         11.421        108.193
         4267.5       4267.500        -999.25         10.517        108.198
         4268.0       4268.000        -999.25          9.342        108.204
         4268.5       4268.500        -999.25          8.168        108.209
         4269.0       4269.000        -999.25          7.819        108.214
         4269.5       4269.500        -999.25          8.238        108.219
         4270.0       4270.000        -999.25          8.659        108.225
         4270.5       4270.500        -999.25          9.080        108.230
         4271.0       4271.000        -999.25          9.499        108.235
         4271.5       4271.500        -999.25          9.920        108.241
         4272.0       4272.000        -999.25         10.341        108.246
         4272.5       4272.500        -999.25         10.586        108.251
         4273.0       4273.000        -999.25         10.397        108.257
         4273.5       4273.500        -999.25         10.210        108.262
         4274.0       4274.000        -999.25         10.021        108.267
         4274.5       4274.500        -999.25          9.833        108.272
         4275.0       4275.001        -999.25          9.644        108.278
         4275.5       4275.500        -999.25          9.457        108.283
         4276.0       4276.000        -999.25          9.268        108.288
         4276.5       4276.500        -999.25          9.080        108.294
         4277.0       4277.000        -999.25          8.893        108.299
         4277.5       4277.500        -999.25          8.704        108.304
         4278.0       4278.001        -999.25          8.503        108.309
         4278.5       4278.500        -999.25          8.233        108.315
         4279.0       4279.000        -999.25          7.964        108.320
         4279.5       4279.500        -999.25          7.696        108.325
         4280.0       4280.000        -999.25          7.426        108.331
         4280.5       4280.500        -999.25          7.157        108.336
         4281.0       4281.000        -999.25          7.216        108.341
         4281.5       4281.500        -999.25          7.503        108.347
         4282.0       4282.000        -999.25          7.790        108.352
         4282.5       4282.501        -999.25          8.076        108.357
         4283.0       4283.000        -999.25          8.363        108.362
         4283.5       4283.501        -999.25          8.649        108.368
         4284.0       4284.000        -999.25          8.937        108.373
         4284.5       4284.500        -999.25          9.223        108.378
         4285.0       4285.000        -999.25          9.511        108.384
         4285.5       4285.500        -999.25          9.797        108.389
         4286.0       4286.000        -999.25         10.083        108.394
         4286.5       4286.500        -999.25         10.371        108.399
         4287.0       4287.000        -999.25          9.600        108.405
         4287.5       4287.500        -999.25          8.720        108.410
         4288.0       4288.000        -999.25          7.840        108.415
         4288.5       4288.500        -999.25          6.959        108.421
