#--------------------------------------------------#
#-------------------ENVERUS, INC.------------------#
#------------------WWW.ENVERUS.COM-----------------#
#------------------COPYRIGHT 2020------------------#
#--------------------------------------------------#
#THIS FILE MAY BE USED ONLY IN ACCORDANCE WITH A CURRENT SUBSCRIPTION AGREEMENT BETWEEN
#THE USER AND ENVERUS, INC. NO PART OF THIS FILE MAY BE REPRODUCED, USED, COPIED,
#MODIFIED, PROPAGATED, OR DISTRIBUTED EXCEPT IN ACCORDANCE WITH THE SUBSCRIPTION
#AGREEMENT. UNAUTHORIZED USE OR DISTRIBUTION OF ALL OR ANY PART OF THIS FILE MAY VIOLATE
#COPYRIGHT, TRADEMARK, AND/OR OTHER LAWS AND IS SUBJECT TO CIVIL AS WELL AS CRIMINAL
#SANCTIONS.
#--------------------------------------------------#
#THIS FILE IS PROVIDED "AS-IS" AND ALL WARRANTIES ARE EXPRESSLY DISCLAIMED, WHETHER
#EXPRESS, ORAL, IMPLIED, STATUTORY OR OTHERWISE, INCLUDING ANY IMPLIED WARRANTY OF FITNESS
#FOR A PARTICULAR PURPOSE, MERCHANTABILITY, TITLE OR NON-INFRINGEMENT, AND ANY WARRANTIES
#ARISING BY VIRTUE OF CUSTOM OF TRADE OR COURSE OF DEALING.  FURTHER, ENVERUS, INC.
#AND ITS LICENSORS DO NOT REPRESENT OR WARRANT THAT THIS FILE WILL MEET USER'S
#REQUIREMENTS OR ARE SUITABLE FOR USER'S NEEDS OR THAT THE DATA OR RESULTS PROVIDED IN
#CONJUNCTION THEREWITH ARE CORRECT, ACCURATE, TIMELY OR RELIABLE. THESE DISCLAIMERS SHALL
#APPLY REGARDLESS OF ANY FAILURE OF ESSENTIAL PURPOSE OF ANY LIMITED REMEDY.  SOME
#JURISDICTIONS DO NOT ALLOW THE EXCLUSION OF CERTAIN WARRANTIES SO SOME OF THE ABOVE
#EXCLUSIONS MAY NOT APPLY. IN NO EVENT SHALL ENVERUS, INC. OR ANY OF ITS AFFILIATES
#BE LIABLE UNDER ANY LEGAL THEORY, WHETHER IN TORT (INCLUDING WITHOUT LIMITATION
#NEGLIGENCE), CONTRACT, STRICT LIABILITY, STATUTORY OR OTHERWISE, FOR ANY SPECIAL,
#INCIDENTAL, CONSEQUENTIAL, EXEMPLARY, PUNITIVE OR INDIRECT DAMAGE OF ANY KIND, INCLUDING
#WITHOUT LIMITATION LOSS OF REVENUE, PROFITS, GOODWILL, USE, AND/OR DATA OR THE COST OF
#PROCUREMENT OF SUBSTITUTE GOODS OR SERVICES, EVEN IF APPRISED OF THE POSSIBILITY OF SUCH
#DAMAGES IN ADVANCE.
#--------------------------------------------------#

~VERSION INFORMATION
VERS. 2.0 : CWLS LOG ASCII STANDARD - VERSION 2.0
WRAP.  NO : ONE LINE PER DEPTH STEP
~WELL INFORMATION
#MNEMONIC     .UNIT              VALUE :DESCRIPTION
STRT       .FT                -3 :START DEPTH
STOP       .FT                21524 :STOP DEPTH
STEP       .FT                   0.500 :STEP
NULL       .                  -999.99 :NULL
UWI        .                42389105080000 :UNIQUE WELL ID
API        .                42389105080000 :API NUMBER
COMP       .         :COMPANY
WELL       .        :WELL
DATE       .                 :LOG DATE
FLD       .                 :FIELD NAME
LOC       .                  UNK :LOCATION
CNTY       .                 UNK :COUNTY
STAT       .                 UNK :STATE
CTRY       .                 UNK :COUNTY
SRVC       .                 UNK :SERVICE COMPANY
~CURVE INFORMATION
#MNEMONIC     .UNIT      API CODE :CURVE DESCRIPTION
DEPTH       .FT                      :MEASURED DEPTH
CAL.IN        UNKNOWN   :CAL
DT.MSEC/FT        UNKNOWN   :DT
GR.API        UNKNOWN   :GR
~A    DEPTH    CAL    DT    GR
# ...
 18839.5     7.46163   49.12876   12.71354
 18840     7.46116   49.10974   12.75775
 18840.5     7.46069   49.1893   12.80197
 18841     7.46022   49.26885   12.84619
 18841.5     7.45974   49.34841   12.29087
 18842     7.45927   49.42796   11.66973
 18842.5     7.4588   49.50752   11.04859
 18843     7.45833   49.5846   10.72531
 18843.5     7.45786   49.45861   10.80743
 18844     7.44822   49.33263   10.88954
 18844.5     7.37012   49.20664   10.97166
 18845     7.29202   49.22136   11.05377
 18845.5     7.21392   49.34005   11.13589
 18846     7.13582   49.45874   11.218
 18846.5     7.05773   49.57744   11.30012
 18847     6.97963   49.69613   11.38223
 18847.5     6.90153   49.81482   11.46435
 18848     6.84664   49.93351   11.48536
 18848.5     6.83087   50.05221   11.41138
 18849     6.8151   50.1709   11.3374
 18849.5     6.79933   50.14413   11.26342
 18850     6.79121   50.10071   11.18944
 18850.5     6.85207   50.05729   11.11546
 18851     6.91293   50.01387   11.04148
 18851.5     6.97379   49.97044   10.96749
 18852     7.03464   49.92702   10.89351
 18852.5     7.0955   49.8836   10.81953
 18853     7.15636   49.84018   10.74555
 18853.5     7.21722   49.79675   10.67157
 18854     7.27807   49.75333   10.59759
 18854.5     7.31497   49.70991   10.52361
 18855     7.31424   49.66649   10.44962
 18855.5     7.31351   49.62307   10.37564
 18856     7.31279   49.57964   10.35568
 18856.5     7.31206   49.53622   10.54761
 18857     7.31133   49.4928   10.73954
 18857.5     7.3106   49.63582   10.93148
 18858     7.30987   49.81823   11.12341
 18858.5     7.30915   50.00063   11.31534
 18859     7.30842   50.18303   11.50727
 18859.5     7.30769   50.36544   11.6992
 18860     7.30696   50.54784   11.89113
 18860.5     7.30624   50.67374   12.08306
 18861     7.30551   50.60761   12.27499
 18861.5     7.30589   50.54148   12.49749
 18862     7.31798   50.47536   12.74324
 18862.5     7.33006   50.40923   12.989
 18863     7.34215   50.34311   13.08959
 18863.5     7.35424   50.27698   12.75749
 18864     7.36633   50.21086   12.42539
 18864.5     7.37842   50.14473   12.09329
 18865     7.39051   50.0786   11.76119
 18865.5     7.4026   50.01248   11.42909
 18866     7.41469   49.94635   11.09699
 18866.5     7.42678   49.94932   11.56267
 18867     7.43887   50.05355   12.28612
 18867.5     7.45096   50.15778   13.00958
 18868     7.46305   50.26201   13.61962
 18868.5     7.47514   50.36624   13.77323
 18869     7.48723   50.47047   13.92684
 18869.5     7.49932   50.5747   13.807
 18870     7.51141   50.67893   13.45066
 18870.5     7.5235   50.78316   13.09432
 18871     7.53559   50.88739   12.73798
 18871.5     7.54554   50.99162   12.38164
 18872     7.53664   51.09585   12.02531
 18872.5     7.52774   50.81563   11.66897
 18873     7.51883   50.48067   11.41674
 18873.5     7.50993   50.14571   11.36305
 18874     7.50103   49.81074   11.30936
 18874.5     7.49213   49.47578   11.25567
 18875     7.48322   49.14082   11.20199
 18875.5     7.47432   49.32515   11.1483
 18876     7.46542   49.53898   11.09461
 18876.5     7.45652   49.75281   11.04092
 18877     7.44761   49.96664   11.52854
 18877.5     7.43871   50.06902   12.05277
 18878     7.42981   50.06857   12.57699
 18878.5     7.42091   50.06812   13.10122
 18879     7.412   50.06766   13.62545
 18879.5     7.40407   50.06721   14.14967
 18880     7.40172   50.06675   14.44997
 18880.5     7.39937   50.08514   14.66819
 18881     7.39702   50.19104   14.8864
 18881.5     7.39468   50.29693   15.10462
 18882     7.39233   50.40283   15.32283
 18882.5     7.38998   50.50873   15.07995
 18883     7.38764   50.61462   14.68654
 18883.5     7.38529   50.72052   14.29313
 18884     7.38294   50.52184   13.89971
 18884.5     7.3806   50.18677   13.5063
 18885     7.37825   49.85171   13.11289
 18885.5     7.3759   49.51664   13.15585
 18886     7.37356   49.18158   13.51619
 18886.5     7.37121   48.84651   13.87653
 18887     7.36359   48.87892   14.23687
 18887.5     7.3442   49.02449   14.59721
 18888     7.32481   49.17005   14.83869
 18888.5     7.30541   49.31562   14.81523
 18889     7.28602   49.46119   14.79177
 18889.5     7.26663   49.60676   14.76831
 18890     7.24724   49.75232   14.74485
 18890.5     7.22785   49.89789   14.72139
 18891     7.20846   50.04346   14.69793
 18891.5     7.18907   50.13518   14.67447
 18892     7.16968   50.11015   14.65101
 18892.5     7.15029   50.08511   14.62755
 18893     7.1309   50.06008   14.60409
 18893.5     7.11151   50.03505   14.70685
 18894     7.09212   50.01001   15.2669
 18894.5     7.07273   49.98498   15.82695
 18895     7.05334   49.95995   16.38701
 18895.5     7.03395   49.93491   16.94706
 18896     7.01455   49.90988   17.50711
 18896.5     7.01216   49.88485   18.06717
 18897     7.02135   49.87956   18.62722
 18897.5     7.03054   49.87915   18.34171
 18898     7.03973   49.87874   17.72584
 18898.5     7.04892   49.87834   17.10996
 18899     7.05811   49.87793   16.49408
 18899.5     7.0673   49.87752   16.40907
 18900     7.07649   49.87711   16.75494
 18900.5     7.08568   49.88631   17.10082
 18901     7.09487   50.06277   17.44669
 18901.5     7.10262   50.23924   17.79257
 18902     7.08941   50.4157   18.13844
 18902.5     7.07619   50.59217   18.48432
 18903     7.06298   50.76863   18.83019
 18903.5     7.04977   50.9451   19.17607
 18904     7.03656   51.12156   19.52194
 18904.5     7.02335   51.18343   19.86782
 18905     7.01013   51.20521   20.2137
 18905.5     6.99692   51.22699   20.55957
 18906     6.98371   51.24878   20.90545
 18906.5     6.9705   51.27056   21.21693
 18907     6.95729   51.29234   20.87596
 18907.5     6.94408   51.31412   20.53499
 18908     6.93086   51.3359   20.19402
 18908.5     6.91765   50.92156   19.85305
 18909     6.90444   50.48727   19.51208
 18909.5     6.89123   50.435   19.17111
 18910     6.87802   51.02532   18.83014
 18910.5     6.8648   51.61564   19.21763
 18911     6.85159   52.10135   20.25062
 18911.5     6.84046   52.04195   21.2836
 18912     6.83306   51.98254   22.31659
 18912.5     6.82565   51.92314   23.21771
 18913     6.81825   51.86374   22.51566
 18913.5     6.81085   51.80433   21.81361
 18914     6.80345   51.74493   21.11156
 18914.5     6.79604   51.68553   20.40951
 18915     6.78864   51.62612   19.70746
 18915.5     6.78124   51.56672   20.02663
 18916     6.77384   51.50731   21.38606
 18916.5     6.76643   51.44791   22.03472
 18917     6.75903   51.38851   21.06687
 18917.5     6.75163   51.3291   20.09902
 18918     6.74423   51.2697   19.13117
 18918.5     6.73682   51.20872   18.16332
 18919     6.72942   51.14646   17.19547
 18919.5     6.72202   51.0842   17.76526
 18920     6.71461   51.53214   18.33649
 18920.5     6.70721   52.13266   20.22488
 18921     6.69981   52.73319   24.15464
 18921.5     6.69241   53.33371   28.0844
 18922     6.68676   53.18456   32.01417
 18922.5     6.69366   52.78655   35.94393
 18923     6.70057   52.38855   35.75302
 18923.5     6.70748   51.99055   35.35943
 18924     6.71439   51.59254   34.96584
 18924.5     6.72129   51.19454   30.79545
 18925     6.80586   50.87844   26.04391
 18925.5     6.90388   50.81601   21.29237
 18926     7.0019   50.75359   16.54083
 18926.5     7.09993   50.72948   15.796
 18927     7.19795   50.74949   15.89304
 18927.5     7.21346   50.7695   15.99009
 18928     7.21092   50.78952   16.08713
 18928.5     7.20838   50.8693   16.18417
 18929     7.20585   51.15692   16.28121
 18929.5     7.20331   51.44454   16.37826
 18930     7.20078   51.73216   18.8976
 18930.5     7.19824   52.01978   21.96066
 18931     7.1957   51.90861   25.02371
 18931.5     7.19317   51.6502   25.80143
 18932     7.19063   51.39179   23.54142
 18932.5     7.18809   51.13337   20.14058
 18933     7.18556   50.90617   16.73975
 18933.5     7.18302   51.2478   15.56646
 18934     7.18049   51.58943   15.17213
 18934.5     7.17795   51.50142   15.46579
 18935     7.17541   51.29344   16.07417
