#--------------------------------------------------#
#-------------------ENVERUS, INC.------------------#
#------------------WWW.ENVERUS.COM-----------------#
#------------------COPYRIGHT 2020------------------#
#--------------------------------------------------#
#THIS FILE MAY BE USED ONLY IN ACCORDANCE WITH A CURRENT SUBSCRIPTION AGREEMENT BETWEEN
#THE USER AND ENVERUS, INC. NO PART OF THIS FILE MAY BE REPRODUCED, USED, COPIED,
#MODIFIED, PROPAGATED, OR DISTRIBUTED EXCEPT IN ACCORDANCE WITH THE SUBSCRIPTION
#AGREEMENT. UNAUTHORIZED USE OR DISTRIBUTION OF ALL OR ANY PART OF THIS FILE MAY VIOLATE
#COPYRIGHT, TRADEMARK, AND/OR OTHER LAWS AND IS SUBJECT TO CIVIL AS WELL AS CRIMINAL
#SANCTIONS.
#--------------------------------------------------#
#THIS FILE IS PROVIDED "AS-IS" AND ALL WARRANTIES ARE EXPRESSLY DISCLAIMED, WHETHER
#EXPRESS, ORAL, IMPLIED, STATUTORY OR OTHERWISE, INCLUDING ANY IMPLIED WARRANTY OF FITNESS
#FOR A PARTICULAR PURPOSE, MERCHANTABILITY, TITLE OR NON-INFRINGEMENT, AND ANY WARRANTIES
#ARISING BY VIRTUE OF CUSTOM OF TRADE OR COURSE OF DEALING.  FURTHER, ENVERUS, INC.
#AND ITS LICENSORS DO NOT REPRESENT OR WARRANT THAT THIS FILE WILL MEET USER'S
#REQUIREMENTS OR ARE SUITABLE FOR USER'S NEEDS OR THAT THE DATA OR RESULTS PROVIDED IN
#CONJUNCTION THEREWITH ARE CORRECT, ACCURATE, TIMELY OR RELIABLE. THESE DISCLAIMERS SHALL
#APPLY REGARDLESS OF ANY FAILURE OF ESSENTIAL PURPOSE OF ANY LIMITED REMEDY.  SOME
#JURISDICTIONS DO NOT ALLOW THE EXCLUSION OF CERTAIN WARRANTIES SO SOME OF THE ABOVE
#EXCLUSIONS MAY NOT APPLY. IN NO EVENT SHALL ENVERUS, INC. OR ANY OF ITS AFFILIATES
#BE LIABLE UNDER ANY LEGAL THEORY, WHETHER IN TORT (INCLUDING WITHOUT LIMITATION
#NEGLIGENCE), CONTRACT, STRICT LIABILITY, STATUTORY OR OTHERWISE, FOR ANY SPECIAL,
#INCIDENTAL, CONSEQUENTIAL, EXEMPLARY, PUNITIVE OR INDIRECT DAMAGE OF ANY KIND, INCLUDING
#WITHOUT LIMITATION LOSS OF REVENUE, PROFITS, GOODWILL, USE, AND/OR DATA OR THE COST OF
#PROCUREMENT OF SUBSTITUTE GOODS OR SERVICES, EVEN IF APPRISED OF THE POSSIBILITY OF SUCH
#DAMAGES IN ADVANCE.
#--------------------------------------------------#

~VERSION INFORMATION
VERS. 2.0 : CWLS LOG ASCII STANDARD - VERSION 2.0
WRAP.  NO : ONE LINE PER DEPTH STEP
~WELL INFORMATION
#MNEMONIC     .UNIT              VALUE :DESCRIPTION
STRT       .FT                429 :START DEPTH
STOP       .FT                6365 :STOP DEPTH
STEP       .FT                   0.500 :STEP
NULL       .                  -999.99 :NULL
UWI        .                42371100750000 :UNIQUE WELL ID
API        .                42371100750000 :API NUMBER
COMP       .         :COMPANY
WELL       .        :WELL
DATE       .                 :LOG DATE
FLD       .                 :FIELD NAME
LOC       .                  UNK :LOCATION
CNTY       .                 UNK :COUNTY
STAT       .                 UNK :STATE
CTRY       .                 UNK :COUNTY
SRVC       .                 UNK :SERVICE COMPANY
~CURVE INFORMATION
#MNEMONIC     .UNIT      API CODE :CURVE DESCRIPTION
DEPTH       .FT                      :MEASURED DEPTH
DT.MSEC/FT        UNKNOWN   :DT
GR.API        UNKNOWN   :GR
~A    DEPTH    DT    GR
# ...
 3177     51.61825   27.04711
 3177.5     51.73017   25.6309
 3178     51.75118   24.2147
 3178.5     51.59269   22.79849
 3179     51.4342   22.35053
 3179.5     51.27571   22.27457
 3180     51.16808   23.74404
 3180.5     51.12716   25.21351
 3181     51.08623   26.68298
 3181.5     51.07842   28.15245
 3182     51.53832   27.79708
 3182.5     51.99822   26.53918
 3183     52.45813   25.28129
 3183.5     52.91756   23.75741
 3184     53.36489   22.18867
 3184.5     53.81222   20.60459
 3185     54.25955   18.60591
 3185.5     54.70688   17.45436
 3186     54.78125   18.65639
 3186.5     54.37037   19.85842
 3187     53.95948   21.06045
 3187.5     53.54859   21.85173
 3188     53.1377   20.09803
 3188.5     52.72682   18.34433
 3189     52.31593   16.59063
 3189.5     51.90504   14.83693
 3190     51.49415   14.37206
 3190.5     51.26697   14.04953
 3191     53.34208   13.727
 3191.5     55.41718   13.42545
 3192     57.49228   13.42604
 3192.5     62.67211   13.59427
 3193     68.08229   14.10655
 3193.5     73.49247   14.61883
 3194     78.90265   15.13111
 3194.5     84.31283   15.41056
 3195     77.48823   14.58949
 3195.5     71.42207   13.76842
 3196     65.82187   13.0649
 3196.5     60.22167   12.55854
 3197     54.62147   13.11363
 3197.5     52.19632   13.69459
 3198     49.85602   14.27555
 3198.5     47.51573   14.85651
 3199     45.17544   15.43747
 3199.5     61.42549   15.45938
 3200     69.9241   15.33274
 3200.5     81.75127   15.20611
 3201     81.61376   15.07947
 3201.5     80.51616   14.95283
 3202     79.41856   14.96076
 3202.5     69.02764   15.44084
 3203     62.58254   15.92093
 3203.5     62.16678   16.40101
 3204     61.75103   16.88109
 3204.5     61.28304   17.36117
 3205     56.09501   17.46683
 3205.5     57.49327   17.39961
 3206     62.07451   17.33239
 3206.5     66.65575   17.26516
 3207     70.04722   17.19794
 3207.5     71.63029   16.90016
 3208     73.85317   16.33766
 3208.5     76.07604   15.77516
 3209     78.29891   15.17193
 3209.5     74.25331   14.48255
 3210     64.01597   13.79318
 3210.5     65.01109   13.10381
 3211     66.0062   12.91054
 3211.5     67.00132   13.27181
 3212     67.80988   13.63308
 3212.5     65.99813   13.99435
 3213     64.18637   14.35562
 3213.5     63.7375   14.71689
 3214     64.71362   14.53038
 3214.5     65.68974   13.95203
 3215     66.66586   13.37367
 3215.5     67.64198   12.79531
 3216     68.6181   12.21696
 3216.5     65.98959   12.12575
 3217     65.39569   12.25379
 3217.5     66.90218   12.38184
 3218     68.40868   12.50989
 3218.5     69.15824   12.63793
 3219     58.30329   12.7489
 3219.5     55.04761   12.74944
 3220     51.79194   12.74997
 3220.5     48.53627   12.74901
 3221     45.69885   12.47597
 3221.5     47.63404   12.20292
 3222     49.56923   11.92987
 3222.5     51.50441   11.65683
 3223     53.4396   11.33303
 3223.5     53.55444   11.03959
 3224     52.95019   11.75762
 3224.5     52.34594   12.47564
 3225     64.48115   13.19367
 3225.5     69.74445   13.85728
 3226     71.68641   14.4882
 3226.5     73.62837   15.11913
 3227     76.10668   15.75006
 3227.5     76.34603   16.27452
 3228     76.06707   16.09355
 3228.5     69.05999   15.91258
 3229     64.06176   15.7316
 3229.5     59.06352   15.55063
 3230     54.45542   15.54665
 3230.5     51.66811   16.05881
 3231     48.8808   16.57098
 3231.5     46.09349   17.08315
 3232     43.30619   17.59532
 3232.5     44.27173   18.10749
 3233     46.54193   17.25792
 3233.5     48.81213   15.87519
 3234     51.08233   14.49246
 3234.5     53.35253   14.86228
 3235     53.82993   15.42104
 3235.5     53.38803   15.9798
 3236     52.94613   16.45696
 3236.5     52.50423   16.17534
 3237     52.06234   15.89372
 3237.5     51.62044   15.61211
 3238     51.17854   14.69236
 3238.5     51.76782   13.74627
 3239     51.67821   12.8388
 3239.5     51.4058   12.14345
 3240     51.19033   11.4481
 3240.5     51.36715   11.04551
 3241     51.54398   11.17332
 3241.5     51.7208   11.30113
 3242     51.89763   17.13074
 3242.5     52.07446   26.27038
 3243     52.25128   28.65525
 3243.5     52.42811   31.04013
 3244     52.47167   33.425
 3244.5     52.47155   34.73475
 3245     52.47142   32.44882
 3245.5     52.43289   30.16289
 3246     52.39201   27.87697
 3246.5     52.35113   25.59104
 3247     52.48237   24.6426
 3247.5     52.74066   23.73407
 3248     52.99896   22.82555
 3248.5     53.25725   22.01034
 3249     53.19268   21.30238
 3249.5     52.90348   20.59442
 3250     52.61428   19.88645
 3250.5     52.32509   18.64723
 3251     52.03589   17.3892
 3251.5     51.7467   16.13118
 3252     51.4575   15.12542
 3252.5     51.1683   14.42976
 3253     50.97003   13.7341
 3253.5     51.0105   13.94324
 3254     51.05098   14.63931
 3254.5     51.09145   15.33539
 3255     51.16423   16.03146
 3255.5     51.4388   16.72754
 3256     53.49031   17.57331
 3256.5     53.73164   18.4536
 3257     53.97297   19.28051
 3257.5     54.02933   20.0266
 3258     54.00202   20.77269
 3258.5     53.97471   21.51878
 3259     53.9474   21.12935
 3259.5     53.92009   19.97734
 3260     53.99821   18.82205
 3260.5     54.13674   17.64667
 3261     54.27526   16.5019
 3261.5     54.41379   16.2993
 3262     54.17378   16.52742
 3262.5     53.7496   17.81567
 3263     53.32543   19.34313
 3263.5     53.01657   20.89315
 3264     52.69142   22.73495
 3264.5     52.55036   25.98517
 3265     52.47359   29.23539
 3265.5     52.39682   32.48561
 3266     52.32004   32.15917
 3266.5     52.26674   30.80515
 3267     52.29479   29.29858
 3267.5     52.32284   27.79201
 3268     52.3509   26.28544
 3268.5     52.37895   24.77887
 3269     52.407   22.70736
 3269.5     52.43505   20.49802
 3270     52.4631   18.44316
 3270.5     52.20785   16.7167
 3271     51.92288   14.99024
 3271.5     51.63791   13.57913
 3272     51.35294   14.0912
 3272.5     51.06797   14.60327
 3273     50.9118   15.32652
 3273.5     50.98474   16.40725
 3274     51.05769   17.48798
 3274.5     51.15669   18.5687
 3275     51.41444   19.10172
 3275.5     51.57186   19.59319
 3276     51.72534   20.08466
 3276.5     51.91502   20.57613
 3277     52.03634   21.06759
 3277.5     51.97613   21.55906
 3278     51.88834   22.05053
 3278.5     51.80055   22.542
 3279     51.71276   22.79464
 3279.5     51.8999   22.41437
 3280     52.10138   22.03409
 3280.5     52.30286   20.1695
 3281     52.50435   16.71866
 3281.5     52.70583   15.46618
 3282     52.90731   15.2124
 3282.5     53.10879   14.95862
 3283     53.31028   16.56441
 3283.5     53.2672   18.05842
 3284     52.90239   19.27218
 3284.5     52.53758   20.48595
 3285     52.17277   21.69971
 3285.5     51.80796   22.91348
 3286     51.44315   23.01655
 3286.5     51.07834   22.67875
 3287     50.71353   21.78581
 3287.5     50.40066   20.55737
 3288     50.39182   19.32893
 3288.5     50.38297   18.10049
 3289     50.37413   16.87205
 3289.5     50.36528   15.64361
 3290     50.35644   14.41517
 3290.5     50.34759   13.18673
 3291     50.33875   11.95829
 3291.5     50.30796   12.02281
 3292     50.22026   12.34822
 3292.5     50.13256   12.67363
 3293     50.04486   12.98903
 3293.5     49.98372   12.7503
 3294     49.97006   12.51158
 3294.5     49.95639   12.27285
 3295     49.94272   12.03412
 3295.5     49.92906   11.79539
 3296     49.87559   11.65183
 3296.5     49.73013   12.42118
 3297     49.58466   13.54
 3297.5     49.4392   14.79963
 3298     49.29373   16.05926
 3298.5     49.14827   18.63882
 3299     49.09627   22.03079
 3299.5     49.53432   25.42276
 3300     49.97238   28.81472
 3300.5     50.41044   31.50569
 3301     50.50458   31.8892
 3301.5     50.45938   30.46407
 3302     50.41418   28.71083
 3302.5     50.36898   26.96135
 3303     50.32378   25.40537
 3303.5     50.27858   23.84939
 3304     50.23338   22.29342
 3304.5     50.18817   20.73744
 3305     50.14297   19.18146
 3305.5     50.09777   17.62548
 3306     50.05817   16.0695
 3306.5     50.11898   15.86693
