###############################################
##         ENVERUS                           ##
##         ESS - Open Hole                   ##
##         PERMIAN / DELAWARE                ##
##         Nov 04 2023  V4.0                 ##
##         42-389-10116-00-00                ##
###############################################
## Copyright 2017-2023  ENVERUS.  All Rights Reserved. 
## Confidential - Property of ENVERUS, use governed by terms and 
## conditions found within the existing Information Services Subscription Agreement 
## (as may be amended, the “ISSA”) between Customer and ENVERUS. 
## 
~VERSION INFORMATION
# MNEM.UNIT                               DATA : DESCRIPTION OF MNEMONIC
#-----.-----     ----------------------------- : -----------------------------
VERS.                                     2.00 : CWLS LOG ASCII STANDARD - VERSION 2.00
WRAP.                                       NO : MULTIPLE LINES PER DEPTH STEP
VEND.                                  ENVERUS : VENDOR
TYPE.                          ESS - OPEN HOLE : ENVERUS ESSENTIAL CURVES – ACCESSIBLE THROUGH ENVERUS PRISM(TM)
DOC.                                  31818149 : ENVERUS HEADER RAW DOCUMENT ID
#___________________________________________________________________________________________________ 
~WELL INFORMATION 
# kxSJJvG4Ro99GqojvmaAoFb8nmZsGWyMBdB6Op61yYkHZj6VRdx+Ef4kBXz5Syac/VH6awax3Ll89xsC2rvs8g== 
# MNEM.UNIT                                              DATA : DESCRIPTION OF MNEMONIC 
#-----.-----                    ----------------------------- : ----------------------------- 
CNTY.                                                  REEVES : COUNTY 
STATE.                                                  TEXAS : STATE 
CNTRY.                                                    USA : COUNTRY 
API.                                             42-389-10116 : API (10 Digit) 
API_14.                                    42-389-10116-00-00 : API (14 Digits) 
API_14_std.                                 42-389-10116-0000 : API (14 Digits Standard) 
UWI.                                           42389101160000 : UNIQUE WELL ID 
WELL.                                            WOODS -A-  1 : WELL NAME
STRT.FT                                                 107.0 : START DEPTH
STOP.FT                                                5258.0 : STOP DEPTH
STEP.FT                                                   0.5 : STEP BETWEEN DEPTHS
NULL.                                                 -999.25 : NULL VALUE
COMP.                              PHILLIPS PETROLEUM COMPANY : COMPANY
#___________________________________________________________________________________________________ 
~CURVE INFORMATION 
# MNEM.UNIT           : CURVE DESCRIPTION 
#-----.-----          : ----------------------------- 
 DEPT.FT               : MEASURED DEPTH 
 GR.API                : GAMMA RAY (GR) 
 DT.US/FT              : SONIC DELTA TRANSIT TIME (DT) 
 #___________________________________________________________________________________________________ 
~A         DEPT             GR             DT
# ...
         4109.0         11.463         49.798
         4109.5         11.188         49.776
         4110.0         10.914         49.754
         4110.5         10.987         49.733
         4111.0         11.208         49.711
         4111.5         11.428         48.831
         4112.0         11.648         48.939
         4112.5         11.868         49.047
         4113.0         12.089         49.155
         4113.5         12.309         49.263
         4114.0         12.529         49.371
         4114.5         12.749         48.864
         4115.0         12.970         48.066
         4115.5         13.190         47.802
         4116.0         12.805         47.689
         4116.5         11.927         47.576
         4117.0         11.050         47.463
         4117.5         10.173         47.349
         4118.0          9.419         47.236
         4118.5          9.463         47.123
         4119.0          9.507         47.015
         4119.5          9.551         47.106
         4120.0          9.595         47.197
         4120.5          9.639         47.289
         4121.0          9.740         47.380
         4121.5          9.970         47.471
         4122.0         10.200         47.563
         4122.5         10.430         47.538
         4123.0         10.661         47.460
         4123.5         10.891         47.382
         4124.0         10.814         47.304
         4124.5         10.728         47.226
         4125.0         10.643         47.147
         4125.5         10.557         47.069
         4126.0         10.471         46.991
         4126.5         10.386         46.990
         4127.0         10.300         47.090
         4127.5         10.214         47.191
         4128.0         10.503         47.291
         4128.5         10.952         47.392
         4129.0         11.401         47.493
         4129.5         11.850         47.630
         4130.0         11.970         48.152
         4130.5         11.475         48.673
         4131.0         10.981         49.194
         4131.5         10.486         49.220
         4132.0          9.992         48.951
         4132.5         10.028         48.682
         4133.0         10.684         48.413
         4133.5         11.341         48.335
         4134.0         11.998         48.734
         4134.5         12.654         49.132
         4135.0         12.422         49.531
         4135.5         11.681         49.634
         4136.0         10.941         49.179
         4136.5         10.469         48.723
         4137.0         10.116         48.267
         4137.5          9.763         48.114
         4138.0          9.410         48.257
         4138.5          9.057         48.400
         4139.0          8.704         48.542
         4139.5          8.351         48.685
         4140.0          8.779         48.524
         4140.5          9.330         48.177
         4141.0          9.880         47.831
         4141.5         10.431         47.661
         4142.0         10.982         48.016
         4142.5         11.250         48.371
         4143.0         11.287         48.726
         4143.5         11.323         49.080
         4144.0         11.360         49.003
         4144.5         11.397         48.834
         4145.0         11.434         48.665
         4145.5         11.470         48.496
         4146.0         11.507         48.327
         4146.5         11.544         48.558
         4147.0         11.581         48.795
         4147.5         11.618         49.033
         4148.0         11.654         49.270
         4148.5         11.691         49.507
         4149.0         11.728         49.431
         4149.5         11.261         49.141
         4150.0         10.205         48.850
         4150.5          9.150         48.560
         4151.0          8.128         48.269
         4151.5          8.858         48.417
         4152.0          9.587         48.693
         4152.5         10.317         48.969
         4153.0         11.047         48.905
         4153.5         11.001         48.769
         4154.0         10.589         48.633
         4154.5         10.177         48.497
         4155.0          9.764         48.614
         4155.5          9.352         48.744
         4156.0          8.940         48.873
         4156.5          8.528         49.003
         4157.0          8.116         49.133
         4157.5          7.704         49.027
         4158.0          8.425         48.751
         4158.5          9.285         48.474
         4159.0         10.144         48.289
         4159.5         11.004         48.468
         4160.0         11.792         48.646
         4160.5         11.723         48.824
         4161.0         11.654         49.002
         4161.5         11.585         49.101
         4162.0         11.516         49.023
         4162.5         11.447         48.946
         4163.0         11.378         48.868
         4163.5         11.309         48.790
         4164.0         11.240         48.713
         4164.5         11.171         48.635
         4165.0         11.102         48.638
         4165.5         10.477         48.717
         4166.0          9.764         48.796
         4166.5          9.050         48.875
         4167.0          8.337         48.955
         4167.5          8.209         49.034
         4168.0          8.786         49.113
         4168.5          9.362         49.143
         4169.0          9.939         48.974
         4169.5         10.516         48.805
         4170.0         11.092         48.636
         4170.5         11.669         48.467
         4171.0         11.745         48.378
         4171.5         11.597         48.431
         4172.0         11.450         48.485
         4172.5         11.303         48.539
         4173.0         11.155         48.593
         4173.5         10.926         48.647
         4174.0         10.679         48.701
         4174.5         10.433         48.755
         4175.0         10.186         48.808
         4175.5          9.939         48.862
         4176.0          9.692         48.916
         4176.5          9.852         48.739
         4177.0         10.021         48.429
         4177.5         10.190         48.120
         4178.0         10.359         47.810
         4178.5         10.528         47.579
         4179.0         10.679         47.530
         4179.5         10.731         47.482
         4180.0         10.783         48.768
         4180.5         10.835         49.828
         4181.0         10.888         50.065
         4181.5         10.940         50.109
         4182.0         10.992         49.834
         4182.5         11.044         49.560
         4183.0         11.097         49.286
         4183.5         11.149         49.012
         4184.0         11.201         48.737
         4184.5         11.253         48.463
         4185.0         11.305         48.238
         4185.5         11.358         48.307
         4186.0         11.410         48.375
         4186.5         11.079         48.444
         4187.0         10.475         48.513
         4187.5          9.871         48.581
         4188.0          9.267         48.650
         4188.5          8.863         48.719
         4189.0          9.367         48.788
         4189.5          9.871         48.856
         4190.0         10.375         48.785
         4190.5         10.879         48.695
         4191.0         11.384         48.604
         4191.5         11.888         48.514
         4192.0         12.392         48.423
         4192.5         12.896         48.332
         4193.0         11.889         48.242
         4193.5         10.821         48.195
         4194.0          9.772         48.483
         4194.5         10.121         48.770
         4195.0         10.470         49.058
         4195.5         10.819         49.041
