###############################################
##         ENVERUS                           ##
##         ESS - Open Hole                   ##
##         PERMIAN / DELAWARE                ##
##         Nov 04 2023  V4.0                 ##
##         42-389-10116-00-00                ##
###############################################
## Copyright 2017-2023  ENVERUS.  All Rights Reserved. 
## Confidential - Property of ENVERUS, use governed by terms and 
## conditions found within the existing Information Services Subscription Agreement 
## (as may be amended, the “ISSA”) between Customer and ENVERUS. 
## 
~VERSION INFORMATION
# MNEM.UNIT                               DATA : DESCRIPTION OF MNEMONIC
#-----.-----     ----------------------------- : -----------------------------
VERS.                                     2.00 : CWLS LOG ASCII STANDARD - VERSION 2.00
WRAP.                                       NO : MULTIPLE LINES PER DEPTH STEP
VEND.                                  ENVERUS : VENDOR
TYPE.                          ESS - OPEN HOLE : ENVERUS ESSENTIAL CURVES – ACCESSIBLE THROUGH ENVERUS PRISM(TM)
DOC.                                  31818149 : ENVERUS HEADER RAW DOCUMENT ID
#___________________________________________________________________________________________________ 
~WELL INFORMATION 
# kxSJJvG4Ro99GqojvmaAoFb8nmZsGWyMBdB6Op61yYkHZj6VRdx+Ef4kBXz5Syac/VH6awax3Ll89xsC2rvs8g== 
# MNEM.UNIT                                              DATA : DESCRIPTION OF MNEMONIC 
#-----.-----                    ----------------------------- : ----------------------------- 
CNTY.                                                  REEVES : COUNTY 
STATE.                                                  TEXAS : STATE 
CNTRY.                                                    USA : COUNTRY 
API.                                             42-389-10116 : API (10 Digit) 
API_14.                                    42-389-10116-00-00 : API (14 Digits) 
API_14_std.                                 42-389-10116-0000 : API (14 Digits Standard) 
UWI.                                           42389101160000 : UNIQUE WELL ID 
WELL.                                            WOODS -A-  1 : WELL NAME
STRT.FT                                                 107.0 : START DEPTH
STOP.FT                                                5258.0 : STOP DEPTH
STEP.FT                                                   0.5 : STEP BETWEEN DEPTHS
NULL.                                                 -999.25 : NULL VALUE
COMP.                              PHILLIPS PETROLEUM COMPANY : COMPANY
#___________________________________________________________________________________________________ 
~CURVE INFORMATION 
# MNEM.UNIT           : CURVE DESCRIPTION 
#-----.-----          : ----------------------------- 
 DEPT.FT               : MEASURED DEPTH 
 GR.API                : GAMMA RAY (GR) 
 DT.US/FT              : SONIC DELTA TRANSIT TIME (DT) 
 #___________________________________________________________________________________________________ 
~A         DEPT             GR             DT
# ...
         4457.0          9.780         49.662
         4457.5          9.418         49.511
         4458.0          9.920         49.360
         4458.5         10.421         49.209
         4459.0         10.923         49.058
         4459.5         11.425         48.907
         4460.0         11.563         48.756
         4460.5         11.622         48.875
         4461.0         11.681         49.112
         4461.5         11.740         49.350
         4462.0         11.799         49.328
         4462.5         11.858         49.219
         4463.0         11.917         49.111
         4463.5         11.976         49.002
         4464.0         12.035         48.893
         4464.5         12.095         48.959
         4465.0         12.154         49.044
         4465.5         12.213         49.129
         4466.0         12.146         49.214
         4466.5         11.554         49.299
         4467.0         10.962         49.384
         4467.5         10.369         49.452
         4468.0          9.777         49.280
         4468.5          9.519         49.107
         4469.0         10.020         48.935
         4469.5         10.522         49.144
         4470.0         11.024         49.534
         4470.5         11.526         49.923
         4471.0         12.027         50.313
         4471.5         12.529         50.703
         4472.0         12.818         50.550
         4472.5         12.919         50.210
         4473.0         13.020         50.049
         4473.5         13.121         50.235
         4474.0         13.223         50.422
         4474.5         12.754         50.609
         4475.0         12.015         50.295
         4475.5         11.275         49.930
         4476.0         10.536         49.565
         4476.5          9.796         49.201
         4477.0          9.943         48.887
         4477.5         10.337         49.006
         4478.0         10.731         49.125
         4478.5         11.125         49.244
         4479.0         11.519         49.207
         4479.5         11.913         49.097
         4480.0         12.305         48.987
         4480.5         11.198         48.877
         4481.0         10.131         48.768
         4481.5         10.077         48.815
         4482.0         10.024         49.155
         4482.5          9.970         49.495
         4483.0          9.916         49.835
         4483.5          9.863         49.916
         4484.0          9.809         49.620
         4484.5          9.756         49.323
         4485.0          9.702         49.027
         4485.5          9.935         48.779
         4486.0         10.891         49.133
         4486.5         11.846         49.488
         4487.0         12.802         49.750
         4487.5         13.757         49.307
         4488.0         13.808         48.864
         4488.5         12.823         48.420
         4489.0         11.839         47.977
         4489.5         10.854         47.534
         4490.0          9.931         48.274
         4490.5         10.124         49.228
         4491.0         10.317         49.440
         4491.5         10.511         49.500
         4492.0         10.704         49.559
         4492.5         10.897         49.619
         4493.0         11.090         49.678
         4493.5         10.732         49.738
         4494.0         10.184         49.712
         4494.5          9.635         49.684
         4495.0          9.087         49.657
         4495.5          9.325         49.629
         4496.0         11.046         49.602
         4496.5         12.767         49.574
         4497.0         12.650         49.547
         4497.5         12.447         49.519
         4498.0         12.245         49.491
         4498.5         12.042         49.464
         4499.0         11.839         49.426
         4499.5         11.636         49.363
         4500.0         11.433         49.299
         4500.5         11.230         49.236
         4501.0         12.051         49.172
         4501.5         13.362         49.108
         4502.0         14.420         49.045
         4502.5         14.809         48.981
         4503.0         15.199         48.918
         4503.5         15.589         49.036
         4504.0         15.979         50.610
         4504.5         14.738         50.380
         4505.0         13.348         50.150
         4505.5         11.959         49.920
         4506.0         12.090         49.690
         4506.5         12.282         49.460
         4507.0         12.475         49.230
         4507.5         12.667         49.000
         4508.0         12.859         48.770
         4508.5         13.051         48.540
         4509.0         13.243         49.016
         4509.5         13.435         49.621
         4510.0         13.627         50.226
         4510.5         13.819         48.300
         4511.0         14.012         48.496
         4511.5         14.204         48.792
         4512.0         14.396         49.089
         4512.5         14.588         49.352
         4513.0         14.780         48.472
         4513.5         14.972         48.810
         4514.0         14.883         49.148
         4514.5         14.472         49.486
         4515.0         14.061         49.666
         4515.5         13.649         49.755
         4516.0         13.238         49.845
         4516.5         12.827         49.934
         4517.0         12.415         49.752
         4517.5         12.004         49.469
         4518.0         11.593         49.186
         4518.5         11.181         48.903
         4519.0         10.770         48.802
         4519.5         10.359         48.980
         4520.0         10.609         49.158
         4520.5         11.074         49.337
         4521.0         11.540         48.248
         4521.5         12.005         48.095
         4522.0         12.470         49.547
         4522.5         12.936         49.557
         4523.0         13.401         49.566
         4523.5         13.231         49.576
         4524.0         13.046         49.586
         4524.5         12.862         49.595
         4525.0         12.677         44.096
         4525.5         12.493         45.343
         4526.0         12.308         47.903
         4526.5         12.123         49.764
         4527.0         12.114         49.716
         4527.5         12.867         49.668
         4528.0         13.620         48.158
         4528.5         14.373         46.367
         4529.0         15.125         46.443
         4529.5         15.228         48.001
         4530.0         14.174         49.560
         4530.5         13.120         49.739
         4531.0         12.067         49.882
         4531.5         12.576         49.802
         4532.0         13.214         49.523
         4532.5         13.852         49.244
         4533.0         14.491         48.966
         4533.5         15.129         48.687
         4534.0         15.078         48.899
         4534.5         14.585         49.312
         4535.0         14.092         49.725
         4535.5         13.598         49.616
         4536.0         13.105         49.328
         4536.5         12.611         49.039
         4537.0         12.118         48.751
         4537.5         11.624         48.932
         4538.0         12.150         49.170
         4538.5         12.939         49.407
         4539.0         13.728         49.644
         4539.5         14.073         49.498
         4540.0         13.799         49.337
         4540.5         13.525         49.175
         4541.0         13.251         49.014
         4541.5         12.977         48.853
         4542.0         12.703         48.692
         4542.5         12.429         48.531
         4543.0         12.155         48.722
         4543.5         11.881         49.058
