###############################################
##         ENVERUS                           ##
##         Petrophysical Curves              ##
##         PERMIAN / DELAWARE                ##
##         Jan 21 2022                       ##
##         42-389-10508-00-00                ##
###############################################
## Copyright 2017-2022  ENVERUS.  All Rights Reserved. 
## Confidential - Property of ENVERUS, use governed by terms and 
## conditions found within the existing Information Services Subscription Agreement 
## (as may be amended, the “ISSA”) between Customer and ENVERUS. 
## 
~VERSION INFORMATION
# MNEM.UNIT                               DATA : DESCRIPTION OF MNEMONIC
#-----.-----     ----------------------------- : -----------------------------
VERS.                                     2.00 : CWLS LOG ASCII STANDARD - VERSION 2.00
WRAP.                                       NO : MULTIPLE LINES PER DEPTH STEP
VEND.                                  ENVERUS : VENDOR
TYPE.                     PETROPHYSICAL CURVES : ENVERUS PETROPHYSICAL CURVES - ACCESSIBLE THROUGH ENVERUS CORE(TM)
#___________________________________________________________________________________________________ 
~WELL INFORMATION 
# uyaQ8P8kQDJ9DXFS5hR1PxmExEOYaAUkY5f3/tnOS+scoPAUWgXA1zCIHGRbWCuSuUcwDzaESCjqjWQ81XhadA== 
# MNEM.UNIT                                              DATA : DESCRIPTION OF MNEMONIC 
#-----.-----                    ----------------------------- : ----------------------------- 
CNTY.                                                  REEVES : COUNTY 
STATE.                                                  TEXAS : STATE 
CNTRY.                                                    USA : COUNTRY 
API.                                             42-389-10508 : API (10 Digit) 
API_14.                                    42-389-10508-00-00 : API (14 Digits) 
API_14_std.                                 42-389-10508-0000 : API (14 Digits Standard) 
UWI.                                           42389105080000 : UNIQUE WELL ID
STRT.FT                                               11776.0 : START DEPTH
STOP.FT                                               33299.5 : STOP DEPTH
STEP.FT                                                   0.5 : STEP BETWEEN DEPTHS
NULL.                                                 -999.25 : NULL VALUE
COMP.                                                  SABINE : COMPANY 
WELL.                                                       1 : WELL NAME 
FLD.                                         ROJO CABALLOS W. : FIELD NAME
#___________________________________________________________________________________________________ 
~CURVE INFORMATION 
#    Zone Description
#          1 = Upper Avalon
#          2 = Middle Avalon
#          3 = Lower Avalon
#          4 = 1st Bone Spring
#          5 = 2nd Bone Spring
#          6 = 2nd Bone Spring Sand
#          7 = 3rd Bone Spring
#          8 = 3rd Bone Spring Sand
#          9 = Wolfcamp XY
#          10 = Wolfcamp A Upper
#          11 = Wolfcamp A Lower
#          12 = Wolfcamp B Upper
#          13 = Wolfcamp B Lower
#          14 = Wolfcamp C
#          15 = Wolfcamp D
#          16 = Pennsylvanian Shale
#          17 = Lower Pennsylvanian Shale
#          18 = Barnett
#          19 = Barnett Lower
#          20 = Mississippian Lime
#          21 = Woodford
#          22 = Base Woodford 
# MNEM.UNIT           : CURVE DESCRIPTION 
#-----.-----          : ----------------------------- 
 DEPT.FT               : MEASURED DEPTH 
 TVD_I.FT              : ENVERUS TRUE VERTICAL DEPTH 
 ZONE_I.               : ENVERUS DEFINED ZONE CODE 
 GR_N_I.API            : ENVERUS NORMALIZED GAMMA RAY LEVERAGED IN GEOLOGICAL MODELLING 
 TEMP_I.DEGF           : ENVERUS INTERPRETED TEMPERATURE DERIVED FROM BOTTOM HOLE TEMPERATURES 
 #___________________________________________________________________________________________________ 
~A         DEPT          TVD_I         ZONE_I         GR_N_I         TEMP_I
# ...
        20362.0      20362.000          22.00         46.892        157.951
        20362.5      20362.502          22.00         46.992        157.957
        20363.0      20363.002          22.00         48.198        157.962
        20363.5      20363.500          22.00         49.404        157.968
        20364.0      20364.000          22.00         49.322        157.973
        20364.5      20364.500          22.00         48.436        157.979
        20365.0      20365.000          22.00         47.550        157.985
        20365.5      20365.500          22.00         46.664        157.990
        20366.0      20366.000          22.00         45.728        157.996
        20366.5      20366.500          22.00         45.056        158.001
        20367.0      20367.000          22.00         44.577        158.007
        20367.5      20367.500          22.00         44.099        158.012
        20368.0      20368.000          22.00         43.620        158.018
        20368.5      20368.500          22.00         43.587        158.023
        20369.0      20369.000          22.00         44.452        158.029
        20369.5      20369.500          22.00         45.318        158.034
        20370.0      20369.998          22.00         46.183        158.040
        20370.5      20370.498          22.00         44.819        158.045
        20371.0      20370.998          22.00         41.541        158.051
        20371.5      20371.500          22.00         38.697        158.056
        20372.0      20372.000          22.00         38.653        158.062
        20372.5      20372.500          22.00         38.610        158.068
        20373.0      20373.000          22.00         38.657        158.073
        20373.5      20373.500          22.00         39.510        158.079
        20374.0      20374.000          22.00         40.362        158.084
        20374.5      20374.500          22.00         41.214        158.090
        20375.0      20375.000          22.00         42.067        158.095
        20375.5      20375.500          22.00         42.919        158.101
        20376.0      20376.000          22.00         43.771        158.106
        20376.5      20376.500          22.00         44.624        158.112
        20377.0      20377.000          22.00         45.293        158.117
        20377.5      20377.500          22.00         44.095        158.123
        20378.0      20378.000          22.00         42.897        158.128
        20378.5      20378.500          22.00         41.698        158.134
        20379.0      20379.000          22.00         40.500        158.139
        20379.5      20379.500          22.00         41.007        158.145
        20380.0      20380.002          22.00         42.674        158.150
        20380.5      20380.502          22.00         44.341        158.156
        20381.0      20381.002          22.00         46.009        158.162
        20381.5      20381.502          22.00         46.460        158.167
        20382.0      20382.000          22.00         46.642        158.173
        20382.5      20382.500          22.00         46.250        158.178
        20383.0      20383.000          22.00         45.858        158.184
        20383.5      20383.498          22.00         45.466        158.189
        20384.0      20383.998          22.00         45.074        158.195
        20384.5      20384.500          22.00         44.682        158.200
        20385.0      20385.000          22.00         44.443        158.206
        20385.5      20385.500          22.00         44.367        158.211
        20386.0      20386.000          22.00         44.291        158.217
        20386.5      20386.500          22.00         44.220        158.222
        20387.0      20387.000          22.00         44.527        158.228
        20387.5      20387.500          22.00         44.834        158.233
        20388.0      20388.000          22.00         45.140        158.239
        20388.5      20388.500          22.00         45.446        158.245
        20389.0      20389.000          22.00         45.752        158.250
        20389.5      20389.500          22.00         45.858        158.256
        20390.0      20390.000          22.00         45.875        158.261
        20390.5      20390.500          22.00         45.541        158.267
        20391.0      20391.000          22.00         45.207        158.272
        20391.5      20391.500          22.00         44.874        158.278
        20392.0      20392.000          22.00         44.610        158.283
        20392.5      20392.500          22.00         44.610        158.289
        20393.0      20393.002          22.00         44.395        158.294
        20393.5      20393.500          22.00         43.946        158.300
        20394.0      20394.000          22.00         43.497        158.305
        20394.5      20394.500          22.00         43.048        158.311
        20395.0      20395.000          22.00         42.699        158.316
        20395.5      20395.500          22.00         43.376        158.322
        20396.0      20396.000          22.00         44.053        158.327
        20396.5      20396.500          22.00         44.729        158.333
        20397.0      20397.000          22.00         45.406        158.339
        20397.5      20397.502          22.00         45.560        158.344
        20398.0      20398.000          22.00         45.023        158.350
        20398.5      20398.500          22.00         44.624        158.355
        20399.0      20399.000          22.00         44.684        158.361
        20399.5      20399.498          22.00         44.817        158.366
        20400.0      20399.998          22.00         45.894        158.372
        20400.5      20400.498          22.00         46.971        158.377
        20401.0      20400.998          22.00         47.904        158.383
        20401.5      20401.500          22.00         47.980        158.388
        20402.0      20402.000          22.00         47.276        158.394
        20402.5      20402.500          22.00         45.489        158.399
        20403.0      20403.000          22.00         43.701        158.405
        20403.5      20403.500          22.00         41.914        158.410
        20404.0      20404.000          22.00         41.938        158.416
        20404.5      20404.500          22.00         42.584        158.422
        20405.0      20405.000          22.00         43.229        158.427
        20405.5      20405.500          22.00         43.875        158.433
        20406.0      20406.000          22.00         44.520        158.438
        20406.5      20406.500          22.00         44.494        158.444
        20407.0      20407.000          22.00         44.119        158.449
        20407.5      20407.500          22.00         43.121        158.455
        20408.0      20408.000          22.00         42.059        158.460
        20408.5      20408.500          22.00         40.997        158.466
        20409.0      20409.000          22.00         40.227        158.471
        20409.5      20409.500          22.00         40.076        158.477
        20410.0      20410.000          22.00         40.300        158.482
        20410.5      20410.502          22.00         40.793        158.488
        20411.0      20411.002          22.00         41.684        158.493
        20411.5      20411.500          22.00         42.856        158.499
        20412.0      20412.000          22.00         43.267        158.504
        20412.5      20412.500          22.00         43.677        158.510
        20413.0      20413.000          22.00         43.772        158.516
        20413.5      20413.500          22.00         43.696        158.521
        20414.0      20414.000          22.00         42.696        158.527
        20414.5      20414.500          22.00         41.609        158.532
