#--------------------------------------------------#
#-------------------ENVERUS, INC.------------------#
#------------------WWW.ENVERUS.COM-----------------#
#------------------COPYRIGHT 2020------------------#
#--------------------------------------------------#
#THIS FILE MAY BE USED ONLY IN ACCORDANCE WITH A CURRENT SUBSCRIPTION AGREEMENT BETWEEN
#THE USER AND ENVERUS, INC. NO PART OF THIS FILE MAY BE REPRODUCED, USED, COPIED,
#MODIFIED, PROPAGATED, OR DISTRIBUTED EXCEPT IN ACCORDANCE WITH THE SUBSCRIPTION
#AGREEMENT. UNAUTHORIZED USE OR DISTRIBUTION OF ALL OR ANY PART OF THIS FILE MAY VIOLATE
#COPYRIGHT, TRADEMARK, AND/OR OTHER LAWS AND IS SUBJECT TO CIVIL AS WELL AS CRIMINAL
#SANCTIONS.
#--------------------------------------------------#
#THIS FILE IS PROVIDED "AS-IS" AND ALL WARRANTIES ARE EXPRESSLY DISCLAIMED, WHETHER
#EXPRESS, ORAL, IMPLIED, STATUTORY OR OTHERWISE, INCLUDING ANY IMPLIED WARRANTY OF FITNESS
#FOR A PARTICULAR PURPOSE, MERCHANTABILITY, TITLE OR NON-INFRINGEMENT, AND ANY WARRANTIES
#ARISING BY VIRTUE OF CUSTOM OF TRADE OR COURSE OF DEALING.  FURTHER, ENVERUS, INC.
#AND ITS LICENSORS DO NOT REPRESENT OR WARRANT THAT THIS FILE WILL MEET USER'S
#REQUIREMENTS OR ARE SUITABLE FOR USER'S NEEDS OR THAT THE DATA OR RESULTS PROVIDED IN
#CONJUNCTION THEREWITH ARE CORRECT, ACCURATE, TIMELY OR RELIABLE. THESE DISCLAIMERS SHALL
#APPLY REGARDLESS OF ANY FAILURE OF ESSENTIAL PURPOSE OF ANY LIMITED REMEDY.  SOME
#JURISDICTIONS DO NOT ALLOW THE EXCLUSION OF CERTAIN WARRANTIES SO SOME OF THE ABOVE
#EXCLUSIONS MAY NOT APPLY. IN NO EVENT SHALL ENVERUS, INC. OR ANY OF ITS AFFILIATES
#BE LIABLE UNDER ANY LEGAL THEORY, WHETHER IN TORT (INCLUDING WITHOUT LIMITATION
#NEGLIGENCE), CONTRACT, STRICT LIABILITY, STATUTORY OR OTHERWISE, FOR ANY SPECIAL,
#INCIDENTAL, CONSEQUENTIAL, EXEMPLARY, PUNITIVE OR INDIRECT DAMAGE OF ANY KIND, INCLUDING
#WITHOUT LIMITATION LOSS OF REVENUE, PROFITS, GOODWILL, USE, AND/OR DATA OR THE COST OF
#PROCUREMENT OF SUBSTITUTE GOODS OR SERVICES, EVEN IF APPRISED OF THE POSSIBILITY OF SUCH
#DAMAGES IN ADVANCE.
#--------------------------------------------------#

~VERSION INFORMATION
VERS. 2.0 : CWLS LOG ASCII STANDARD - VERSION 2.0
WRAP.  NO : ONE LINE PER DEPTH STEP
~WELL INFORMATION
#MNEMONIC     .UNIT              VALUE :DESCRIPTION
STRT       .FT                102 :START DEPTH
STOP       .FT                9071 :STOP DEPTH
STEP       .FT                   0.500 :STEP
NULL       .                  -999.99 :NULL
UWI        .                42389104910000 :UNIQUE WELL ID
API        .                42389104910000 :API NUMBER
COMP       .         :COMPANY
WELL       .        :WELL
DATE       .                 :LOG DATE
FLD       .                 :FIELD NAME
LOC       .                  UNK :LOCATION
CNTY       .                 UNK :COUNTY
STAT       .                 UNK :STATE
CTRY       .                 UNK :COUNTY
SRVC       .                 UNK :SERVICE COMPANY
~CURVE INFORMATION
#MNEMONIC     .UNIT      API CODE :CURVE DESCRIPTION
DEPTH       .FT                      :MEASURED DEPTH
DT.MSEC/FT        UNKNOWN   :DT
GR.API        UNKNOWN   :GR
~A    DEPTH    DT    GR
# ...
 6622     68.14227   41.32482
 6622.5     67.95572   41.76723
 6623     67.57226   40.983
 6623.5     67.03746   40.19877
 6624     65.99249   40.00589
 6624.5     64.7846   40.00147
 6625     65.40922   38.52296
 6625.5     66.08884   36.94407
 6626     66.23405   36.1889
 6626.5     66.11199   36.58708
 6627     63.9296   36.90192
 6627.5     61.37893   36.71485
 6628     59.42809   36.52778
 6628.5     60.54252   36.34071
 6629     63.79619   36.15364
 6629.5     66.79402   36.3161
 6630     69.38159   38.82382
 6630.5     70.87522   46.11182
 6631     70.87519   55.70496
 6631.5     68.19648   60.28987
 6632     67.15163   64.87479
 6632.5     67.2923   65.87536
 6633     68.74846   65.87095
 6633.5     70.2293   65.86653
 6634     71.11899   67.31118
 6634.5     71.14087   69.07134
 6635     70.48114   70.8315
 6635.5     69.9476   67.55133
 6636     69.80797   63.58764
 6636.5     68.15548   64.11901
 6637     67.82948   65.78188
 6637.5     68.12605   67.44474
 6638     68.22708   69.10761
 6638.5     67.75979   69.18016
 6639     67.29249   68.85487
 6639.5     66.8252   66.41616
 6640     66.3579   59.15472
 6640.5     66.12523   53.3815
 6641     65.90237   53.64489
 6641.5     65.67951   53.66053
 6642     65.45665   49.93408
 6642.5     65.23379   46.20763
 6643     62.80378   43.72397
 6643.5     60.2934   42.30247
 6644     58.058   40.39615
 6644.5     57.8949   39.05505
 6645     59.39749   38.1919
 6645.5     61.44421   37.32874
 6646     63.49094   37.33901
 6646.5     65.10149   39.02045
 6647     64.87399   39.80301
 6647.5     63.95329   39.79861
 6648     63.03258   39.79421
 6648.5     62.11188   39.78981
 6649     61.64091   39.78541
 6649.5     62.40413   37.96605
 6650     63.16734   35.54786
 6650.5     63.93056   33.7616
 6651     64.69378   34.17012
 6651.5     65.457   34.57864
 6652     66.16258   34.98715
 6652.5     66.81096   35.39567
 6653     66.95869   35.80419
 6653.5     65.85876   36.01369
 6654     62.41261   35.78645
 6654.5     58.96646   34.35115
 6655     56.58788   32.53728
 6655.5     57.89497   28.33641
 6656     60.70936   24.13555
 6656.5     63.52375   23.86491
 6657     66.33814   26.56942
 6657.5     67.83914   29.27393
 6658     68.21928   31.97845
 6658.5     68.59941   34.46711
 6659     68.55911   33.69863
 6659.5     68.40689   32.80835
 6660     68.25466   31.77683
 6660.5     68.16076   30.7453
 6661     68.16159   30.53261
 6661.5     68.16242   31.16467
 6662     68.16325   31.79673
 6662.5     68.16407   32.4288
 6663     68.11897   32.90786
 6663.5     68.04277   32.67247
 6664     67.96657   32.43709
 6664.5     67.89037   32.2017
 6665     67.9001   31.96631
 6665.5     67.9417   31.73093
 6666     67.34815   31.49554
 6666.5     66.7633   32.62022
 6667     66.84185   34.77847
 6667.5     66.92039   36.93672
 6668     66.99893   38.86573
 6668.5     67.07748   39.39345
 6669     66.73075   39.55655
 6669.5     65.44747   36.87491
 6670     64.16419   33.79066
 6670.5     62.88091   32.47742
 6671     61.59763   31.62298
 6671.5     61.43397   30.12514
 6672     61.47576   27.27798
 6672.5     61.52689   26.56852
 6673     61.57803   26.72169
 6673.5     61.64986   26.87485
 6674     62.17986   27.02802
 6674.5     63.46328   26.22819
 6675     64.7467   25.25288
 6675.5     66.03011   24.72576
 6676     66.9315   25.10481
 6676.5     67.3117   25.48385
 6677     67.69189   25.8629
 6677.5     68.07208   26.24195
 6678     68.70227   26.62099
 6678.5     69.91825   27.00004
 6679     71.13423   27.17145
 6679.5     72.31003   27.25045
 6680     72.71716   26.83394
 6680.5     73.12429   26.41743
 6681     73.53142   26.01507
 6681.5     73.72065   26.1315
 6682     73.53178   27.47469
 6682.5     72.01347   28.81788
 6683     70.49517   30.33399
 6683.5     69.1675   31.99
 6684     69.16833   33.64601
 6684.5     69.47889   33.58792
 6685     70.27062   32.44323
 6685.5     71.39684   31.67461
 6686     72.52305   30.42272
 6686.5     73.64927   28.48266
 6687     74.77548   26.54261
 6687.5     75.9017   26.72394
 6688     76.65316   27.16709
 6688.5     76.73181   27.43638
 6689     76.81046   26.81452
 6689.5     76.8891   26.19266
 6690     76.96775   25.69298
 6690.5     76.24328   25.68864
 6691     74.90914   25.6843
 6691.5     73.575   25.68483
 6692     72.24087   26.12859
 6692.5     71.43995   26.80468
 6693     71.07535   27.60729
 6693.5     71.62551   28.40989
 6694     73.04912   28.85321
 6694.5     73.24586   28.18009
 6695     71.72776   27.50697
 6695.5     70.20966   27.19025
 6696     69.61372   26.88801
 6696.5     70.80682   25.52179
 6697     72.61139   24.05063
 6697.5     74.41596   23.15891
 6698     74.77923   22.61899
 6698.5     72.79676   22.52716
 6699     69.79273   23.3016
 6699.5     66.78871   24.07605
 6700     65.81662   24.85049
 6700.5     67.48058   25.624
 6701     70.68088   26.36658
 6701.5     73.88119   27.10917
 6702     74.2394   27.85175
 6702.5     74.03131   28.59434
 6703     74.1518   29.66449
 6703.5     74.92078   30.75415
 6704     75.31101   31.84382
 6704.5     73.83046   31.84429
 6705     68.40295   29.48741
 6705.5     65.07991   27.13053
 6706     65.01479   25.62332
 6706.5     67.12694   25.82561
 6707     70.33579   26.0279
 6707.5     73.53505   26.75007
 6708     74.81943   28.33939
 6708.5     75.13872   29.92871
 6709     75.27953   29.81054
 6709.5     75.42033   29.4715
 6710     73.79872   29.13247
 6710.5     71.61555   28.96853
 6711     72.4424   29.35893
 6711.5     73.30429   29.74932
 6712     75.02766   30.13972
 6712.5     76.75102   30.14913
 6713     76.9449   29.5272
 6713.5     76.49283   28.90526
 6714     76.04075   29.16637
 6714.5     75.58868   30.69006
 6715     75.1366   32.21374
 6715.5     74.66818   33.71361
 6716     74.15627   33.70933
 6716.5     73.91118   33.70506
 6717     74.51441   32.66687
 6717.5     74.88257   31.59386
 6718     75.11359   30.52086
 6718.5     75.3446   30.87628
 6719     75.57562   32.44578
 6719.5     75.87799   34.01527
 6720     76.20451   33.18472
 6720.5     76.53034   32.11234
 6721     76.48439   31.95863
 6721.5     76.43843   32.33092
 6722     76.39248   35.17107
 6722.5     76.34652   38.01121
 6723     76.3279   36.75136
 6723.5     76.40414   35.14674
 6724     76.48039   34.55668
 6724.5     76.78847   34.02249
 6725     77.75744   33.46116
 6725.5     78.72642   33.30722
 6726     79.08185   34.65068
 6726.5     78.79504   33.31006
 6727     79.21176   32.33013
 6727.5     84.637   33.46575
 6728     84.42036   34.60136
 6728.5     83.87671   34.82374
 6729     81.97185   34.24616
 6729.5     81.93351   34.17717
 6730     82.22412   33.10363
 6730.5     80.07308   32.0301
 6731     79.68323   32.63958
 6731.5     80.66431   33.83295
 6732     82.35376   34.77598
 6732.5     82.60242   33.93585
 6733     75.38015   33.09573
 6733.5     73.57487   32.2556
 6734     71.59598   31.66312
 6734.5     69.3777   31.49166
 6735     65.91678   31.2893
 6735.5     62.27932   31.06152
 6736     61.35375   30.83373
 6736.5     61.35454   30.60594
 6737     62.73215   30.37815
 6737.5     64.27932   30.2491
 6738     65.82649   31.20683
 6738.5     67.37365   32.35607
 6739     68.18207   33.69964
 6739.5     68.53455   35.0432
 6740     68.44522   36.38677
 6740.5     67.65639   35.77685
 6741     66.86757   34.88124
 6741.5     66.29969   35.34359
 6742     66.37317   35.91286
 6742.5     66.67547   35.82992
 6743     67.8714   35.74699
 6743.5     68.20205   35.66405
 6744     67.91276   36.76277
 6744.5     67.62346   39.9559
 6745     67.33416   43.14902
 6745.5     67.25607   45.45744
 6746     67.25686   44.451
 6746.5     67.25766   43.70044
 6747     67.25846   43.36108
 6747.5     66.44504   42.72742
 6748     64.42489   41.86331
 6748.5     62.40475   40.99919
 6749     62.20705   40.53991
 6749.5     62.99741   40.78001
 6750     65.31846   41.02012
 6750.5     65.18016   40.83764
 6751     64.12876   40.58961
 6751.5     60.313   39.336
 6752     57.69378   36.29851
