###############################################
##         ENVERUS                           ##
##         Petrophysical Curves              ##
##         PERMIAN / DELAWARE                ##
##         Jan 21 2022                       ##
##         42-389-10508-00-00                ##
###############################################
## Copyright 2017-2022  ENVERUS.  All Rights Reserved. 
## Confidential - Property of ENVERUS, use governed by terms and 
## conditions found within the existing Information Services Subscription Agreement 
## (as may be amended, the “ISSA”) between Customer and ENVERUS. 
## 
~VERSION INFORMATION
# MNEM.UNIT                               DATA : DESCRIPTION OF MNEMONIC
#-----.-----     ----------------------------- : -----------------------------
VERS.                                     2.00 : CWLS LOG ASCII STANDARD - VERSION 2.00
WRAP.                                       NO : MULTIPLE LINES PER DEPTH STEP
VEND.                                  ENVERUS : VENDOR
TYPE.                     PETROPHYSICAL CURVES : ENVERUS PETROPHYSICAL CURVES - ACCESSIBLE THROUGH ENVERUS CORE(TM)
#___________________________________________________________________________________________________ 
~WELL INFORMATION 
# uyaQ8P8kQDJ9DXFS5hR1PxmExEOYaAUkY5f3/tnOS+scoPAUWgXA1zCIHGRbWCuSuUcwDzaESCjqjWQ81XhadA== 
# MNEM.UNIT                                              DATA : DESCRIPTION OF MNEMONIC 
#-----.-----                    ----------------------------- : ----------------------------- 
CNTY.                                                  REEVES : COUNTY 
STATE.                                                  TEXAS : STATE 
CNTRY.                                                    USA : COUNTRY 
API.                                             42-389-10508 : API (10 Digit) 
API_14.                                    42-389-10508-00-00 : API (14 Digits) 
API_14_std.                                 42-389-10508-0000 : API (14 Digits Standard) 
UWI.                                           42389105080000 : UNIQUE WELL ID
STRT.FT                                               11776.0 : START DEPTH
STOP.FT                                               33299.5 : STOP DEPTH
STEP.FT                                                   0.5 : STEP BETWEEN DEPTHS
NULL.                                                 -999.25 : NULL VALUE
COMP.                                                  SABINE : COMPANY 
WELL.                                                       1 : WELL NAME 
FLD.                                         ROJO CABALLOS W. : FIELD NAME
#___________________________________________________________________________________________________ 
~CURVE INFORMATION 
#    Zone Description
#          1 = Upper Avalon
#          2 = Middle Avalon
#          3 = Lower Avalon
#          4 = 1st Bone Spring
#          5 = 2nd Bone Spring
#          6 = 2nd Bone Spring Sand
#          7 = 3rd Bone Spring
#          8 = 3rd Bone Spring Sand
#          9 = Wolfcamp XY
#          10 = Wolfcamp A Upper
#          11 = Wolfcamp A Lower
#          12 = Wolfcamp B Upper
#          13 = Wolfcamp B Lower
#          14 = Wolfcamp C
#          15 = Wolfcamp D
#          16 = Pennsylvanian Shale
#          17 = Lower Pennsylvanian Shale
#          18 = Barnett
#          19 = Barnett Lower
#          20 = Mississippian Lime
#          21 = Woodford
#          22 = Base Woodford 
# MNEM.UNIT           : CURVE DESCRIPTION 
#-----.-----          : ----------------------------- 
 DEPT.FT               : MEASURED DEPTH 
 TVD_I.FT              : ENVERUS TRUE VERTICAL DEPTH 
 ZONE_I.               : ENVERUS DEFINED ZONE CODE 
 GR_N_I.API            : ENVERUS NORMALIZED GAMMA RAY LEVERAGED IN GEOLOGICAL MODELLING 
 TEMP_I.DEGF           : ENVERUS INTERPRETED TEMPERATURE DERIVED FROM BOTTOM HOLE TEMPERATURES 
 #___________________________________________________________________________________________________ 
~A         DEPT          TVD_I         ZONE_I         GR_N_I         TEMP_I
# ...
        17500.0      17500.000          21.00         33.005        126.290
        17500.5      17500.500          21.00         34.141        126.295
        17501.0      17501.000          21.00         35.106        126.301
        17501.5      17501.500          21.00         35.041        126.306
        17502.0      17502.000          21.00         34.975        126.312
        17502.5      17502.502          21.00         34.910        126.317
        17503.0      17503.000          21.00         34.694        126.323
        17503.5      17503.500          21.00         34.544        126.329
        17504.0      17504.000          21.00         34.394        126.334
        17504.5      17504.500          21.00         34.245        126.340
        17505.0      17505.000          21.00         34.095        126.345
        17505.5      17505.500          21.00         34.152        126.351
        17506.0      17506.000          21.00         34.238        126.356
        17506.5      17506.500          21.00         34.323        126.362
        17507.0      17507.002          21.00         34.409        126.367
        17507.5      17507.500          21.00         34.186        126.373
        17508.0      17508.000          21.00         33.165        126.378
        17508.5      17508.500          21.00         33.168        126.384
        17509.0      17508.998          21.00         33.170        126.389
        17509.5      17509.498          21.00         33.360        126.395
        17510.0      17509.998          21.00         33.668        126.400
        17510.5      17510.498          21.00         33.607        126.406
        17511.0      17511.000          21.00         33.089        126.412
        17511.5      17511.500          21.00         32.571        126.417
        17512.0      17512.000          21.00         32.307        126.423
        17512.5      17512.500          21.00         32.431        126.428
        17513.0      17513.000          21.00         32.802        126.434
        17513.5      17513.500          21.00         34.031        126.439
        17514.0      17514.000          21.00         34.334        126.445
        17514.5      17514.500          21.00         34.565        126.450
        17515.0      17515.000          21.00         34.796        126.456
        17515.5      17515.500          21.00         33.964        126.461
        17516.0      17516.000          21.00         32.154        126.467
        17516.5      17516.500          21.00         32.207        126.472
        17517.0      17517.000          21.00         32.261        126.478
        17517.5      17517.500          21.00         32.747        126.483
        17518.0      17518.000          21.00         33.616        126.489
        17518.5      17518.500          21.00         34.485        126.495
        17519.0      17519.000          21.00         35.354        126.500
        17519.5      17519.500          21.00         36.223        126.506
        17520.0      17520.002          21.00         37.192        126.511
        17520.5      17520.502          21.00         38.358        126.517
        17521.0      17521.000          21.00         39.384        126.522
        17521.5      17521.500          21.00         39.752        126.528
        17522.0      17522.000          21.00         40.118        126.533
        17522.5      17522.500          21.00         40.018        126.539
        17523.0      17523.000          21.00         39.047        126.544
        17523.5      17523.500          21.00         37.704        126.550
        17524.0      17524.000          21.00         36.362        126.555
        17524.5      17524.500          21.00         35.019        126.561
        17525.0      17525.000          21.00         35.363        126.566
        17525.5      17525.500          21.00         36.221        126.572
        17526.0      17526.000          21.00         36.434        126.577
        17526.5      17526.500          21.00         36.220        126.583
        17527.0      17527.000          21.00         36.005        126.589
        17527.5      17527.498          21.00         35.935        126.594
        17528.0      17527.998          21.00         35.981        126.600
        17528.5      17528.500          21.00         36.027        126.605
        17529.0      17529.000          21.00         35.616        126.611
        17529.5      17529.500          21.00         34.769        126.616
        17530.0      17530.000          21.00         33.922        126.622
        17530.5      17530.500          21.00         33.076        126.627
        17531.0      17531.000          21.00         32.398        126.633
        17531.5      17531.500          21.00         32.675        126.638
        17532.0      17532.000          21.00         32.952        126.644
        17532.5      17532.500          21.00         33.229        126.649
        17533.0      17533.000          21.00         33.505        126.655
        17533.5      17533.500          21.00         33.683        126.660
        17534.0      17534.000          21.00         33.838        126.666
        17534.5      17534.500          21.00         34.117        126.672
        17535.0      17535.000          21.00         34.884        126.677
        17535.5      17535.500          21.00         35.605        126.683
        17536.0      17536.000          21.00         36.274        126.688
        17536.5      17536.500          21.00         36.942        126.694
        17537.0      17537.002          21.00         37.611        126.699
        17537.5      17537.502          21.00         38.280        126.705
        17538.0      17538.002          21.00         38.603        126.710
        17538.5      17538.500          21.00         38.779        126.716
        17539.0      17539.000          21.00         38.956        126.721
        17539.5      17539.498          21.00         37.974        126.727
        17540.0      17539.998          21.00         36.404        126.732
        17540.5      17540.498          21.00         35.969        126.738
        17541.0      17540.998          21.00         36.787        126.743
        17541.5      17541.500          21.00         37.605        126.749
        17542.0      17542.000          21.00         38.075        126.754
        17542.5      17542.500          21.00         38.497        126.760
        17543.0      17543.000          21.00         38.919        126.766
        17543.5      17543.500          21.00         40.106        126.771
        17544.0      17544.000          21.00         42.411        126.777
        17544.5      17544.500          21.00         44.717        126.782
        17545.0      17545.000          21.00         44.078        126.788
        17545.5      17545.500          21.00         42.792        126.793
        17546.0      17546.000          21.00         41.506        126.799
        17546.5      17546.500          21.00         40.561        126.804
        17547.0      17547.000          21.00         40.315        126.810
        17547.5      17547.500          21.00         40.069        126.815
        17548.0      17548.000          21.00         39.823        126.821
        17548.5      17548.500          21.00         39.577        126.826
        17549.0      17549.000          21.00         40.101        126.832
        17549.5      17549.500          21.00         41.284        126.837
        17550.0      17550.002          21.00         42.466        126.843
        17550.5      17550.502          21.00         42.891        126.849
        17551.0      17551.000          21.00         42.589        126.854
        17551.5      17551.500          21.00         42.287        126.860
        17552.0      17552.000          21.00         41.986        126.865
        17552.5      17552.500          21.00         41.725        126.871
