#--------------------------------------------------#
#-------------------ENVERUS, INC.------------------#
#------------------WWW.ENVERUS.COM-----------------#
#------------------COPYRIGHT 2020------------------#
#--------------------------------------------------#
#THIS FILE MAY BE USED ONLY IN ACCORDANCE WITH A CURRENT SUBSCRIPTION AGREEMENT BETWEEN
#THE USER AND ENVERUS, INC. NO PART OF THIS FILE MAY BE REPRODUCED, USED, COPIED,
#MODIFIED, PROPAGATED, OR DISTRIBUTED EXCEPT IN ACCORDANCE WITH THE SUBSCRIPTION
#AGREEMENT. UNAUTHORIZED USE OR DISTRIBUTION OF ALL OR ANY PART OF THIS FILE MAY VIOLATE
#COPYRIGHT, TRADEMARK, AND/OR OTHER LAWS AND IS SUBJECT TO CIVIL AS WELL AS CRIMINAL
#SANCTIONS.
#--------------------------------------------------#
#THIS FILE IS PROVIDED "AS-IS" AND ALL WARRANTIES ARE EXPRESSLY DISCLAIMED, WHETHER
#EXPRESS, ORAL, IMPLIED, STATUTORY OR OTHERWISE, INCLUDING ANY IMPLIED WARRANTY OF FITNESS
#FOR A PARTICULAR PURPOSE, MERCHANTABILITY, TITLE OR NON-INFRINGEMENT, AND ANY WARRANTIES
#ARISING BY VIRTUE OF CUSTOM OF TRADE OR COURSE OF DEALING.  FURTHER, ENVERUS, INC.
#AND ITS LICENSORS DO NOT REPRESENT OR WARRANT THAT THIS FILE WILL MEET USER'S
#REQUIREMENTS OR ARE SUITABLE FOR USER'S NEEDS OR THAT THE DATA OR RESULTS PROVIDED IN
#CONJUNCTION THEREWITH ARE CORRECT, ACCURATE, TIMELY OR RELIABLE. THESE DISCLAIMERS SHALL
#APPLY REGARDLESS OF ANY FAILURE OF ESSENTIAL PURPOSE OF ANY LIMITED REMEDY.  SOME
#JURISDICTIONS DO NOT ALLOW THE EXCLUSION OF CERTAIN WARRANTIES SO SOME OF THE ABOVE
#EXCLUSIONS MAY NOT APPLY. IN NO EVENT SHALL ENVERUS, INC. OR ANY OF ITS AFFILIATES
#BE LIABLE UNDER ANY LEGAL THEORY, WHETHER IN TORT (INCLUDING WITHOUT LIMITATION
#NEGLIGENCE), CONTRACT, STRICT LIABILITY, STATUTORY OR OTHERWISE, FOR ANY SPECIAL,
#INCIDENTAL, CONSEQUENTIAL, EXEMPLARY, PUNITIVE OR INDIRECT DAMAGE OF ANY KIND, INCLUDING
#WITHOUT LIMITATION LOSS OF REVENUE, PROFITS, GOODWILL, USE, AND/OR DATA OR THE COST OF
#PROCUREMENT OF SUBSTITUTE GOODS OR SERVICES, EVEN IF APPRISED OF THE POSSIBILITY OF SUCH
#DAMAGES IN ADVANCE.
#--------------------------------------------------#

~VERSION INFORMATION
VERS. 2.0 : CWLS LOG ASCII STANDARD - VERSION 2.0
WRAP.  NO : ONE LINE PER DEPTH STEP
~WELL INFORMATION
#MNEMONIC     .UNIT              VALUE :DESCRIPTION
STRT       .FT                -3 :START DEPTH
STOP       .FT                21524 :STOP DEPTH
STEP       .FT                   0.500 :STEP
NULL       .                  -999.99 :NULL
UWI        .                42389105080000 :UNIQUE WELL ID
API        .                42389105080000 :API NUMBER
COMP       .         :COMPANY
WELL       .        :WELL
DATE       .                 :LOG DATE
FLD       .                 :FIELD NAME
LOC       .                  UNK :LOCATION
CNTY       .                 UNK :COUNTY
STAT       .                 UNK :STATE
CTRY       .                 UNK :COUNTY
SRVC       .                 UNK :SERVICE COMPANY
~CURVE INFORMATION
#MNEMONIC     .UNIT      API CODE :CURVE DESCRIPTION
DEPTH       .FT                      :MEASURED DEPTH
CAL.IN        UNKNOWN   :CAL
DT.MSEC/FT        UNKNOWN   :DT
GR.API        UNKNOWN   :GR
~A    DEPTH    CAL    DT    GR
# ...
 14939.5     10.18331   77.76953   50.2121
 14940     10.1803   77.45742   50.94805
 14940.5     10.17729   77.14532   51.68401
 14941     10.17427   76.83321   52.41996
 14941.5     10.17126   76.52111   53.15592
 14942     10.16825   76.4927   53.89187
 14942.5     10.16523   76.49391   54.50225
 14943     10.16222   76.49511   54.24929
 14943.5     10.1592   76.49632   53.99632
 14944     10.15619   76.51404   53.74335
 14944.5     10.15318   76.97283   53.49039
 14945     10.15016   77.43161   54.23571
 14945.5     10.14715   77.79391   54.99706
 14946     10.14414   77.31382   55.75841
 14946.5     10.14112   76.83373   56.51977
 14947     10.13811   76.35364   57.28112
 14947.5     10.1351   75.87355   56.63908
 14948     10.13208   75.39346   54.98356
 14948.5     10.12907   74.91337   53.32804
 14949     10.12606   74.64633   51.79184
 14949.5     10.12304   75.81236   52.01388
 14950     10.12003   76.97839   52.23593
 14950.5     10.11702   78.14441   52.6708
 14951     10.114   78.09303   53.96986
 14951.5     10.11099   77.73759   55.26892
 14952     10.10798   77.38215   56.51143
 14952.5     10.10496   77.02671   55.53777
 14953     10.10377   76.67127   54.5641
 14953.5     10.10268   77.13409   53.59044
 14954     10.10159   77.77045   53.00914
 14954.5     10.10051   77.42943   52.50765
 14955     10.09942   77.08841   52.00617
 14955.5     10.09833   76.7474   51.50468
 14956     10.09724   76.40638   51.38733
 14956.5     10.09616   76.09946   51.44639
 14957     10.09507   76.59262   51.50546
 14957.5     10.09398   77.08579   51.56452
 14958     10.0929   77.57896   51.88095
 14958.5     10.09181   78.07212   52.41179
 14959     10.09072   77.6516   52.94263
 14959.5     10.08964   77.18197   53.47347
 14960     10.08855   76.71234   54.00431
 14960.5     10.08746   76.24271   54.53515
 14961     10.08638   75.77308   52.91689
 14961.5     10.08529   75.30346   51.16355
 14962     10.0842   75.133   51.12924
 14962.5     10.08312   75.15164   51.09493
 14963     10.08203   75.17028   51.06061
 14963.5     10.08094   75.18893   51.30728
 14964     10.07986   75.42416   51.98021
 14964.5     10.07877   76.0484   52.65314
 14965     10.07768   76.67264   53.32608
 14965.5     10.07659   77.29687   53.99901
 14966     10.07551   77.0013   54.06938
 14966.5     10.07442   76.58845   53.77726
 14967     10.07333   76.1756   53.20816
 14967.5     10.07225   75.76274   52.21185
 14968     10.07116   75.34989   51.21554
 14968.5     10.07007   74.93704   50.21924
 14969     10.06899   74.52418   50.3564
 14969.5     10.0679   75.462   50.64288
 14970     10.06681   77.61369   50.92936
 14970.5     10.06573   77.27112   51.21584
 14971     10.06464   76.92856   51.792
 14971.5     10.06355   76.58599   52.75706
 14972     10.06247   76.24342   53.72212
 14972.5     10.06138   75.90085   54.68719
 14973     10.06029   76.02037   55.48756
 14973.5     10.05921   76.28995   55.88994
 14974     10.05812   76.55953   56.29233
 14974.5     10.05703   76.82911   56.69471
 14975     10.05595   76.67284   54.7877
 14975.5     10.05486   76.21933   52.59616
 14976     10.05377   75.76583   50.725
 14976.5     10.05268   75.31233   48.85384
 14977     10.0516   74.96957   49.0357
 14977.5     10.05051   75.20798   49.32245
 14978     10.04942   75.4464   49.60919
 14978.5     10.04834   75.68482   49.89594
 14979     10.04725   75.92324   50.13045
 14979.5     10.04616   76.16166   50.31143
 14980     10.04636   76.30863   50.49241
 14980.5     10.04667   76.06955   50.67339
 14981     10.04697   75.83047   50.21026
 14981.5     10.04728   75.62468   49.74023
 14982     10.04759   75.7704   49.2702
 14982.5     10.0479   75.91612   48.80017
 14983     10.04821   76.06184   49.70271
 14983.5     10.04851   76.21759   50.85958
 14984     10.04882   76.38427   52.01645
 14984.5     10.04913   76.55094   53.17331
 14985     10.04944   76.71762   54.32616
 14985.5     10.04974   76.8843   55.47275
 14986     10.05005   77.00735   55.4157
 14986.5     10.05036   76.61389   54.06427
 14987     10.05067   76.22043   52.71283
 14987.5     10.05098   75.82697   52.24843
 14988     10.05128   75.60039   52.35217
 14988.5     10.05159   75.76704   52.45592
 14989     10.0519   75.9337   52.55966
 14989.5     10.05221   76.10035   52.6634
 14990     10.05252   76.267   52.76715
 14990.5     10.05282   76.43366   52.0102
 14991     10.05313   76.60031   50.56334
 14991.5     10.05344   76.76696   49.47753
 14992     10.05375   76.93362   49.15978
 14992.5     10.05405   76.9456   48.84204
 14993     10.05436   76.59037   48.5243
 14993.5     10.05467   76.23514   48.20656
 14994     10.05498   75.87992   47.88881
 14994.5     10.05529   75.95361   48.04723
 14995     10.05559   76.40922   48.55102
 14995.5     10.0559   76.86483   49.1068
 14996     10.05621   77.32043   51.21445
 14996.5     10.05652   77.46547   53.32209
 14997     10.05683   77.19721   55.42973
 14997.5     10.05713   76.92895   55.14966
 14998     10.05744   76.66068   54.45337
 14998.5     10.05775   76.39242   53.72705
 14999     10.05806   76.14369   52.98224
 14999.5     10.05836   75.91934   52.23743
 15000     10.05867   75.69499   51.49262
 15000.5     10.05898   75.47065   51.22758
 15001     10.05929   75.2463   51.08988
 15001.5     10.0596   75.35705   50.95218
 15002     10.0599   75.82976   50.81447
 15002.5     10.06021   76.30248   50.88531
 15003     10.06052   76.7752   50.96338
 15003.5     10.06083   77.24791   51.04145
 15004     10.06113   77.72063   51.11952
 15004.5     10.06144   77.89465   51.19759
 15005     10.06175   77.89559   51.27566
 15005.5     10.06206   77.89653   51.29291
 15006     10.06237   77.89746   51.26766
 15006.5     10.06267   78.01978   51.24241
 15007     10.06298   78.14442   51.21716
 15007.5     10.06329   78.26907   51.19191
 15008     10.0636   78.23988   51.16665
 15008.5     10.06391   78.20593   50.83754
 15009     10.06421   78.17198   50.45547
 15009.5     10.06452   78.13802   50.0734
 15010     10.06483   78.39456   49.69133
 15010.5     10.06514   78.78709   49.30925
 15011     10.06544   79.17961   50.27016
 15011.5     10.06575   79.57214   51.68674
 15012     10.06606   79.96466   53.23077
 15012.5     10.06637   80.35719   55.28531
 15013     10.06668   80.74971   57.33984
 15013.5     10.06698   81.01975   59.39437
 15014     10.06729   81.21996   61.2026
 15014.5     10.0676   81.42018   59.01603
 15015     10.06791   82.13684   58.62898
 15015.5     10.06822   83.13698   60.33673
 15016     10.06852   84.13713   62.04447
 15016.5     10.06883   85.13727   62.73659
 15017     10.06914   85.93357   62.73396
 15017.5     10.0839   85.74177   54.18653
 15018     10.1077   85.54997   53.5904
 15018.5     10.13149   85.47257   52.99427
 15019     10.15529   86.76628   52.39813
 15019.5     10.17909   85.58576   51.802
 15020     10.20289   84.36024   51.44402
 15020.5     10.22669   83.13472   51.78855
 15021     10.25049   81.90919   52.13307
 15021.5     10.27429   80.68367   52.4776
 15022     10.29809   79.45815   52.82213
 15022.5     10.32189   80.09977   54.52479
 15023     10.29919   81.08449   56.58926
 15023.5     10.27475   81.99382   58.65374
 15024     10.25032   81.17541   57.46798
 15024.5     10.22588   80.357   54.16849
 15025     10.20144   79.5386   53.40112
 15025.5     10.177   78.64364   52.63375
 15026     10.15257   77.72538   52.05712
 15026.5     10.19191   76.80712   52.69074
 15027     10.2373   75.88885   53.32436
 15027.5     10.28269   75.28581   53.95798
 15028     10.32808   76.56036   54.5916
 15028.5     10.37347   77.83491   54.79912
 15029     10.41886   79.10947   54.79658
 15029.5     10.46424   80.38402   54.79405
 15030     10.47275   80.3146   54.79151
 15030.5     10.43207   79.80801   54.98554
 15031     10.3914   79.30141   55.94453
 15031.5     10.35072   78.79481   56.90352
 15032     10.35364   79.24139   57.12816
 15032.5     10.36072   79.51705   56.96386
 15033     10.36779   78.76606   56.79955
