###############################################
##         ENVERUS                           ##
##         Petrophysical Curves              ##
##         PERMIAN / DELAWARE                ##
##         Jan 21 2022                       ##
##         42-371-36857-00-00                ##
###############################################
## Copyright 2017-2022  ENVERUS.  All Rights Reserved. 
## Confidential - Property of ENVERUS, use governed by terms and 
## conditions found within the existing Information Services Subscription Agreement 
## (as may be amended, the “ISSA”) between Customer and ENVERUS. 
## 
~VERSION INFORMATION
# MNEM.UNIT                               DATA : DESCRIPTION OF MNEMONIC
#-----.-----     ----------------------------- : -----------------------------
VERS.                                     2.00 : CWLS LOG ASCII STANDARD - VERSION 2.00
WRAP.                                       NO : MULTIPLE LINES PER DEPTH STEP
VEND.                                  ENVERUS : VENDOR
TYPE.                     PETROPHYSICAL CURVES : ENVERUS PETROPHYSICAL CURVES - ACCESSIBLE THROUGH ENVERUS CORE(TM)
#___________________________________________________________________________________________________ 
~WELL INFORMATION 
# uyaQ8P8kQDJ9DXFS5hR1PxmExEOYaAUkY5f3/tnOS+scoPAUWgXA1zCIHGRbWCuSuUcwDzaESCjqjWQ81XhadA== 
# MNEM.UNIT                                              DATA : DESCRIPTION OF MNEMONIC 
#-----.-----                    ----------------------------- : ----------------------------- 
CNTY.                                                   PECOS : COUNTY 
STATE.                                                  TEXAS : STATE 
CNTRY.                                                    USA : COUNTRY 
API.                                             42-371-36857 : API (10 Digit) 
API_14.                                    42-371-36857-00-00 : API (14 Digits) 
API_14_std.                                 42-371-36857-0000 : API (14 Digits Standard) 
UWI.                                           42371368570000 : UNIQUE WELL ID
STRT.FT                                                7870.0 : START DEPTH
STOP.FT                                               16592.5 : STOP DEPTH
STEP.FT                                                   0.5 : STEP BETWEEN DEPTHS
NULL.                                                 -999.25 : NULL VALUE
COMP.                                             DIAMONDBACK : COMPANY 
WELL.                                         MOORE-GILMORE 1 : WELL NAME 
FLD.                                               WAHA  WEST : FIELD NAME
#___________________________________________________________________________________________________ 
~CURVE INFORMATION 
#    Zone Description
#          1 = Upper Avalon
#          2 = Middle Avalon
#          3 = Lower Avalon
#          4 = 1st Bone Spring
#          5 = 2nd Bone Spring
#          6 = 2nd Bone Spring Sand
#          7 = 3rd Bone Spring
#          8 = 3rd Bone Spring Sand
#          9 = Wolfcamp XY
#          10 = Wolfcamp A Upper
#          11 = Wolfcamp A Lower
#          12 = Wolfcamp B Upper
#          13 = Wolfcamp B Lower
#          14 = Wolfcamp C
#          15 = Wolfcamp D
#          16 = Pennsylvanian Shale
#          17 = Lower Pennsylvanian Shale
#          18 = Barnett
#          19 = Barnett Lower
#          20 = Mississippian Lime
#          21 = Woodford
#          22 = Base Woodford 
# MNEM.UNIT           : CURVE DESCRIPTION 
#-----.-----          : ----------------------------- 
 DEPT.FT               : MEASURED DEPTH 
 TVD_I.FT              : ENVERUS TRUE VERTICAL DEPTH 
 ZONE_I.               : ENVERUS DEFINED ZONE CODE 
 GR_N_I.API            : ENVERUS NORMALIZED GAMMA RAY LEVERAGED IN GEOLOGICAL MODELLING 
 RESD_I.OHMM           : ENVERUS DEEP RESISTIVITY LEVERAGED IN GEOLOGICAL MODELLING 
 DPHI_I.V/V            : ENVERUS INTERPRETED DENSITY POROSITY USING A 2.71 G/CC MATRIX DENSITY 
 PHIE_I.V/V            : ENVERUS INTERPRETED EFFECTIVE POROSITY 
 SW_I.V/V              : ENVERUS INTERPRETED WATER SATURATION USING MODIFIED SIMANDOUX EQUATION 
 TOC_I.WT%             : ENVERUS INTERPRETED TOTAL ORGANIC CARBON USING MULTI-LINEAR REGRESSION 
 VCLAY_I.V/V           : ENVERUS INTERPRETED CLAY VOLUMES USING MULTI-LINEAR REGRESSION 
 NVCLAY_I.V/V          : ENVERUS INTERPRETED NON CLAY VOLUMES 
 HCPV_I.V/V            : ENVERUS INTERPRETED HYDROCARBON PORE VOLUME 
 OOIP_I.MMBBL/SEC      : ENVERUS INTERPRETED ORIGINAL OIL IN PLACE 
 OGIP_I.BCF/SEC        : ENVERUS INTERPRETED ORIGINAL GAS IN PLACE 
 TEMP_I.DEGF           : ENVERUS INTERPRETED TEMPERATURE DERIVED FROM BOTTOM HOLE TEMPERATURES 
 #___________________________________________________________________________________________________ 
~A         DEPT          TVD_I         ZONE_I         GR_N_I         RESD_I         DPHI_I         PHIE_I           SW_I          TOC_I        VCLAY_I       NVCLAY_I         HCPV_I         OOIP_I         OGIP_I         TEMP_I
# ...
        11416.0      11416.000          14.00        104.777         3.6460        0.06770        0.04340        0.96670        3.04010        0.35890        0.59760        0.00000        0.00400       32.89310        495.816
        11416.5      11416.501          14.00        106.686         3.6550        0.06380        0.04020        0.95520        3.02510        0.36960        0.59020        0.00000        0.00500       41.03260        495.835
        11417.0      11417.000          14.00        106.801         3.6630        0.05990        0.03730        0.93840        2.97450        0.37710        0.58560        0.00000        0.00640       52.30710        495.854
        11417.5      11417.500          14.00        106.637         3.6720        0.05590        0.03530        0.95030        2.86090        0.36870        0.59600        0.00000        0.00490       39.94100        495.872
        11418.0      11418.000          14.00        106.473         3.6800        0.05190        0.03340        0.96750        2.73660        0.35730        0.60930        0.00000        0.00300       24.66430        495.891
        11418.5      11418.500          14.00        105.318         3.7120        0.04480        0.02920        0.93680        2.53980        0.34730        0.62350        0.00000        0.00520       42.05140        495.910
        11419.0      11419.000          14.00        103.200         3.8130        0.06420        0.04450        1.00000        2.76500        0.30580        0.64970        0.00000        0.00000        0.00000        495.929
        11419.5      11419.500          14.00        101.083         3.9140        0.05450        0.03760        1.00000        2.54910        0.31020        0.65220        0.00000        0.00000        0.00000        495.948
        11420.0      11419.999          14.00         98.966         4.0150        0.06910        0.04810        0.96760        2.79550        0.30380        0.64810        0.00000        0.00440       35.51840        495.967
        11420.5      11420.500          14.00         99.889         4.0620        0.07200        0.04950        0.93330        2.89860        0.31260        0.63790        0.00000        0.00920       75.13000        495.986
        11421.0      11421.000          14.00        101.553         4.0470        0.06960        0.04670        0.92590        2.93050        0.32930        0.62400        0.00000        0.00970       78.73250        496.005
        11421.5      11421.500          14.00        103.217         4.0320        0.06750        0.04490        0.92750        2.93370        0.33570        0.61940        0.00000        0.00910       73.98540        496.024
        11422.0      11422.000          14.00        104.882         4.0180        0.06530        0.04330        0.93430        2.91980        0.33770        0.61900        0.00000        0.00800       64.69010        496.043
        11422.5      11422.500          14.00        104.192         4.0030        0.06240        0.04100        0.93500        2.86810        0.34310        0.61590        0.00000        0.00740       60.60640        496.062
        11423.0      11423.000          14.00        101.595         3.9880        0.06340        0.04130        0.92490        2.87270        0.34900        0.60970        0.00000        0.00870       70.53760        496.081
        11423.5      11423.500          14.00         99.422         3.9730        0.06820        0.04390        0.90570        2.96500        0.35550        0.60050        0.00000        0.01160       94.35280        496.100
        11424.0      11424.000          14.00        101.801         3.9590        0.07390        0.04750        0.88910        3.11530        0.35660        0.59590        0.00000        0.01470      119.94370        496.119
        11424.5      11424.500          14.00        104.180         3.9440        0.07710        0.04990        0.88360        3.20330        0.35320        0.59690        0.00000        0.01620      132.15680        496.138
        11425.0      11425.001          14.00        106.559         3.9290        0.07730        0.05020        0.88750        3.23570        0.35130        0.59860        0.00000        0.01580      128.38500        496.157
        11425.5      11425.501          14.00        108.331         3.9140        0.07670        0.04990        0.89500        3.24340        0.34900        0.60100        0.00000        0.01470      119.42160        496.176
        11426.0      11426.000          14.00        107.394         3.9000        0.07640        0.05030        0.90610        3.20080        0.34220        0.60750        0.00000        0.01320      107.46670        496.195
        11426.5      11426.500          14.00        106.457         3.8850        0.07650        0.05040        0.90900        3.18600        0.34140        0.60820        0.00000        0.01280      104.38540        496.214
        11427.0      11427.000          14.00        105.520         3.9140        0.07680        0.05030        0.89930        3.18800        0.34480        0.60490        0.00000        0.01420      115.34870        496.233
        11427.5      11427.500          14.00        104.583         3.9420        0.07500        0.04870        0.89510        3.15760        0.35060        0.60060        0.00000        0.01430      116.37370        496.252
        11428.0      11428.000          14.00        103.963         3.9710        0.07110        0.04570        0.89420        3.09400        0.35790        0.59650        0.00000        0.01350      110.01640        496.271
        11428.5      11428.500          14.00        104.369         3.9990        0.06660        0.04260        0.89670        3.01640        0.36020        0.59720        0.00000        0.01230      100.24580        496.290
        11429.0      11429.000          14.00        104.776         3.9960        0.06370        0.04080        0.90460        2.95720        0.35870        0.60050        0.00000        0.01090       88.70740        496.309
        11429.5      11429.500          14.00        105.182         3.9780        0.06800        0.04410        0.91180        3.02450        0.35150        0.60450        0.00000        0.01090       88.52950        496.327
        11430.0      11430.000          14.00        104.805         3.9600        0.07440        0.04910        0.90620        3.11530        0.34070        0.61020        0.00000        0.01290      104.81840        496.346
        11430.5      11430.500          14.00        104.088         3.9420        0.08050        0.05350        0.88800        3.20830        0.33470        0.61170        0.00250        0.01680      136.46130        496.365
        11431.0      11431.000          14.00        103.372         3.9240        0.08440        0.05620        0.87290        3.27410        0.33360        0.61020        0.00510        0.02000      162.72830        496.384
        11431.5      11431.501          14.00        102.655         3.9060        0.08530        0.05670        0.87010        3.28690        0.33530        0.60800        0.00510        0.02060      167.63000        496.403
        11432.0      11432.000          14.00        101.939         3.8880        0.08560        0.05670        0.87010        3.28780        0.33710        0.60620        0.00470        0.02060      167.72370        496.422
        11432.5      11432.500          14.00        101.222         3.8700        0.08200        0.05420        0.88800        3.21250        0.33950        0.60630        0.00150        0.01700      138.07910        496.441
        11433.0      11433.000          14.00        102.120         3.8520        0.08050        0.05300        0.89670        3.20030        0.34120        0.60580        0.00020        0.01530      124.72120        496.460
        11433.5      11433.500          14.00        103.738         3.8340        0.07930        0.05150        0.89600        3.23170        0.35040        0.59810        0.00000        0.01500      121.98950        496.479
