###############################################
##         ENVERUS                           ##
##         Petrophysical Curves              ##
##         PERMIAN / DELAWARE                ##
##         Jan 21 2022                       ##
##         42-389-10508-00-00                ##
###############################################
## Copyright 2017-2022  ENVERUS.  All Rights Reserved. 
## Confidential - Property of ENVERUS, use governed by terms and 
## conditions found within the existing Information Services Subscription Agreement 
## (as may be amended, the “ISSA”) between Customer and ENVERUS. 
## 
~VERSION INFORMATION
# MNEM.UNIT                               DATA : DESCRIPTION OF MNEMONIC
#-----.-----     ----------------------------- : -----------------------------
VERS.                                     2.00 : CWLS LOG ASCII STANDARD - VERSION 2.00
WRAP.                                       NO : MULTIPLE LINES PER DEPTH STEP
VEND.                                  ENVERUS : VENDOR
TYPE.                     PETROPHYSICAL CURVES : ENVERUS PETROPHYSICAL CURVES - ACCESSIBLE THROUGH ENVERUS CORE(TM)
#___________________________________________________________________________________________________ 
~WELL INFORMATION 
# uyaQ8P8kQDJ9DXFS5hR1PxmExEOYaAUkY5f3/tnOS+scoPAUWgXA1zCIHGRbWCuSuUcwDzaESCjqjWQ81XhadA== 
# MNEM.UNIT                                              DATA : DESCRIPTION OF MNEMONIC 
#-----.-----                    ----------------------------- : ----------------------------- 
CNTY.                                                  REEVES : COUNTY 
STATE.                                                  TEXAS : STATE 
CNTRY.                                                    USA : COUNTRY 
API.                                             42-389-10508 : API (10 Digit) 
API_14.                                    42-389-10508-00-00 : API (14 Digits) 
API_14_std.                                 42-389-10508-0000 : API (14 Digits Standard) 
UWI.                                           42389105080000 : UNIQUE WELL ID
STRT.FT                                               11776.0 : START DEPTH
STOP.FT                                               33299.5 : STOP DEPTH
STEP.FT                                                   0.5 : STEP BETWEEN DEPTHS
NULL.                                                 -999.25 : NULL VALUE
COMP.                                                  SABINE : COMPANY 
WELL.                                                       1 : WELL NAME 
FLD.                                         ROJO CABALLOS W. : FIELD NAME
#___________________________________________________________________________________________________ 
~CURVE INFORMATION 
#    Zone Description
#          1 = Upper Avalon
#          2 = Middle Avalon
#          3 = Lower Avalon
#          4 = 1st Bone Spring
#          5 = 2nd Bone Spring
#          6 = 2nd Bone Spring Sand
#          7 = 3rd Bone Spring
#          8 = 3rd Bone Spring Sand
#          9 = Wolfcamp XY
#          10 = Wolfcamp A Upper
#          11 = Wolfcamp A Lower
#          12 = Wolfcamp B Upper
#          13 = Wolfcamp B Lower
#          14 = Wolfcamp C
#          15 = Wolfcamp D
#          16 = Pennsylvanian Shale
#          17 = Lower Pennsylvanian Shale
#          18 = Barnett
#          19 = Barnett Lower
#          20 = Mississippian Lime
#          21 = Woodford
#          22 = Base Woodford 
# MNEM.UNIT           : CURVE DESCRIPTION 
#-----.-----          : ----------------------------- 
 DEPT.FT               : MEASURED DEPTH 
 TVD_I.FT              : ENVERUS TRUE VERTICAL DEPTH 
 ZONE_I.               : ENVERUS DEFINED ZONE CODE 
 GR_N_I.API            : ENVERUS NORMALIZED GAMMA RAY LEVERAGED IN GEOLOGICAL MODELLING 
 TEMP_I.DEGF           : ENVERUS INTERPRETED TEMPERATURE DERIVED FROM BOTTOM HOLE TEMPERATURES 
 #___________________________________________________________________________________________________ 
~A         DEPT          TVD_I         ZONE_I         GR_N_I         TEMP_I
# ...
        24655.0      24655.000          22.00         35.969        205.444
        24655.5      24655.500          22.00         35.717        205.449
        24656.0      24656.000          22.00         35.465        205.455
        24656.5      24656.500          22.00         36.142        205.460
        24657.0      24657.000          22.00         36.842        205.466
        24657.5      24657.500          22.00         37.531        205.471
        24658.0      24658.000          22.00         37.930        205.477
        24658.5      24658.500          22.00         38.329        205.482
        24659.0      24659.000          22.00         38.728        205.488
        24659.5      24659.502          22.00         39.128        205.493
        24660.0      24660.002          22.00         39.699        205.499
        24660.5      24660.500          22.00         40.305        205.504
        24661.0      24661.000          22.00         40.911        205.510
        24661.5      24661.500          22.00         41.517        205.516
        24662.0      24662.000          22.00         42.123        205.521
        24662.5      24662.500          22.00         36.971        205.527
        24663.0      24663.000          22.00         35.149        205.532
        24663.5      24663.500          22.00         33.328        205.538
        24664.0      24664.002          22.00         31.491        205.543
        24664.5      24664.500          22.00         29.655        205.549
        24665.0      24665.000          22.00         29.373        205.554
        24665.5      24665.500          22.00         30.190        205.560
        24666.0      24666.000          22.00         31.008        205.565
        24666.5      24666.498          22.00         31.826        205.571
        24667.0      24666.998          22.00         32.710        205.576
        24667.5      24667.498          22.00         33.628        205.582
        24668.0      24668.000          22.00         34.547        205.587
        24668.5      24668.500          22.00         35.466        205.593
        24669.0      24669.000          22.00         36.385        205.598
        24669.5      24669.500          22.00         37.184        205.604
        24670.0      24670.000          22.00         36.369        205.610
        24670.5      24670.500          22.00         35.555        205.615
        24671.0      24671.000          22.00         35.744        205.621
        24671.5      24671.500          22.00         38.240        205.626
        24672.0      24672.000          22.00         38.675        205.632
        24672.5      24672.500          22.00         39.109        205.637
        24673.0      24673.000          22.00         39.544        205.643
        24673.5      24673.500          22.00         39.214        205.648
        24674.0      24674.000          22.00         38.456        205.654
        24674.5      24674.500          22.00         37.697        205.659
        24675.0      24675.000          22.00         36.939        205.665
        24675.5      24675.500          22.00         36.181        205.670
        24676.0      24676.000          22.00         36.840        205.676
        24676.5      24676.500          22.00         37.570        205.681
        24677.0      24677.002          22.00         38.300        205.687
        24677.5      24677.502          22.00         39.030        205.693
        24678.0      24678.002          22.00         39.190        205.698
        24678.5      24678.500          22.00         38.404        205.704
        24679.0      24679.000          22.00         37.618        205.709
        24679.5      24679.500          22.00         36.832        205.715
        24680.0      24679.998          22.00         36.047        205.720
        24680.5      24680.498          22.00         35.518        205.726
        24681.0      24681.000          22.00         35.104        205.731
        24681.5      24681.500          22.00         34.689        205.737
        24682.0      24682.000          22.00         34.275        205.742
        24682.5      24682.500          22.00         33.861        205.748
        24683.0      24683.000          22.00         33.447        205.753
        24683.5      24683.500          22.00         33.033        205.759
        24684.0      24684.000          22.00         32.619        205.764
        24684.5      24684.500          22.00         32.205        205.770
        24685.0      24684.998          22.00         31.764        205.776
        24685.5      24685.500          22.00         31.320        205.781
        24686.0      24686.000          22.00         30.887        205.787
        24686.5      24686.500          22.00         32.172        205.792
        24687.0      24687.000          22.00         33.457        205.798
        24687.5      24687.500          22.00         34.724        205.803
        24688.0      24688.000          22.00         34.848        205.809
        24688.5      24688.500          22.00         34.972        205.814
        24689.0      24689.000          22.00         35.095        205.820
        24689.5      24689.500          22.00         35.219        205.825
        24690.0      24690.002          22.00         35.343        205.831
        24690.5      24690.500          22.00         35.467        205.836
        24691.0      24691.000          22.00         35.962        205.842
        24691.5      24691.500          22.00         36.708        205.847
        24692.0      24692.000          22.00         37.454        205.853
        24692.5      24692.500          22.00         38.200        205.858
        24693.0      24693.000          22.00         38.946        205.864
        24693.5      24693.500          22.00         39.692        205.870
        24694.0      24694.000          22.00         40.340        205.875
        24694.5      24694.502          22.00         39.225        205.881
        24695.0      24695.002          22.00         38.111        205.886
        24695.5      24695.500          22.00         38.578        205.892
        24696.0      24696.000          22.00         39.249        205.897
        24696.5      24696.500          22.00         39.921        205.903
        24697.0      24696.998          22.00         40.593        205.908
        24697.5      24697.498          22.00         41.264        205.914
        24698.0      24697.998          22.00         41.507        205.919
        24698.5      24698.500          22.00         40.902        205.925
        24699.0      24699.000          22.00         40.296        205.930
        24699.5      24699.500          22.00         40.386        205.936
        24700.0      24700.000          22.00         40.624        205.941
        24700.5      24700.500          22.00         40.861        205.947
        24701.0      24701.000          22.00         41.098        205.952
        24701.5      24701.500          22.00         41.336        205.958
        24702.0      24702.000          22.00         41.254        205.964
        24702.5      24702.500          22.00         40.571        205.969
        24703.0      24703.000          22.00         39.888        205.975
        24703.5      24703.500          22.00         39.205        205.980
        24704.0      24704.000          22.00         38.522        205.986
        24704.5      24704.500          22.00         37.904        205.991
        24705.0      24705.000          22.00         37.414        205.997
        24705.5      24705.500          22.00         36.924        206.002
        24706.0      24706.000          22.00         36.433        206.008
        24706.5      24706.500          22.00         35.943        206.013
        24707.0      24707.000          22.00         35.453        206.019
        24707.5      24707.502          22.00         35.318        206.024
