###############################################
##         ENVERUS                           ##
##         Petrophysical Curves              ##
##         PERMIAN / DELAWARE                ##
##         Jan 21 2022                       ##
##         42-371-36857-00-00                ##
###############################################
## Copyright 2017-2022  ENVERUS.  All Rights Reserved. 
## Confidential - Property of ENVERUS, use governed by terms and 
## conditions found within the existing Information Services Subscription Agreement 
## (as may be amended, the “ISSA”) between Customer and ENVERUS. 
## 
~VERSION INFORMATION
# MNEM.UNIT                               DATA : DESCRIPTION OF MNEMONIC
#-----.-----     ----------------------------- : -----------------------------
VERS.                                     2.00 : CWLS LOG ASCII STANDARD - VERSION 2.00
WRAP.                                       NO : MULTIPLE LINES PER DEPTH STEP
VEND.                                  ENVERUS : VENDOR
TYPE.                     PETROPHYSICAL CURVES : ENVERUS PETROPHYSICAL CURVES - ACCESSIBLE THROUGH ENVERUS CORE(TM)
#___________________________________________________________________________________________________ 
~WELL INFORMATION 
# uyaQ8P8kQDJ9DXFS5hR1PxmExEOYaAUkY5f3/tnOS+scoPAUWgXA1zCIHGRbWCuSuUcwDzaESCjqjWQ81XhadA== 
# MNEM.UNIT                                              DATA : DESCRIPTION OF MNEMONIC 
#-----.-----                    ----------------------------- : ----------------------------- 
CNTY.                                                   PECOS : COUNTY 
STATE.                                                  TEXAS : STATE 
CNTRY.                                                    USA : COUNTRY 
API.                                             42-371-36857 : API (10 Digit) 
API_14.                                    42-371-36857-00-00 : API (14 Digits) 
API_14_std.                                 42-371-36857-0000 : API (14 Digits Standard) 
UWI.                                           42371368570000 : UNIQUE WELL ID
STRT.FT                                                7870.0 : START DEPTH
STOP.FT                                               16592.5 : STOP DEPTH
STEP.FT                                                   0.5 : STEP BETWEEN DEPTHS
NULL.                                                 -999.25 : NULL VALUE
COMP.                                             DIAMONDBACK : COMPANY 
WELL.                                         MOORE-GILMORE 1 : WELL NAME 
FLD.                                               WAHA  WEST : FIELD NAME
#___________________________________________________________________________________________________ 
~CURVE INFORMATION 
#    Zone Description
#          1 = Upper Avalon
#          2 = Middle Avalon
#          3 = Lower Avalon
#          4 = 1st Bone Spring
#          5 = 2nd Bone Spring
#          6 = 2nd Bone Spring Sand
#          7 = 3rd Bone Spring
#          8 = 3rd Bone Spring Sand
#          9 = Wolfcamp XY
#          10 = Wolfcamp A Upper
#          11 = Wolfcamp A Lower
#          12 = Wolfcamp B Upper
#          13 = Wolfcamp B Lower
#          14 = Wolfcamp C
#          15 = Wolfcamp D
#          16 = Pennsylvanian Shale
#          17 = Lower Pennsylvanian Shale
#          18 = Barnett
#          19 = Barnett Lower
#          20 = Mississippian Lime
#          21 = Woodford
#          22 = Base Woodford 
# MNEM.UNIT           : CURVE DESCRIPTION 
#-----.-----          : ----------------------------- 
 DEPT.FT               : MEASURED DEPTH 
 TVD_I.FT              : ENVERUS TRUE VERTICAL DEPTH 
 ZONE_I.               : ENVERUS DEFINED ZONE CODE 
 GR_N_I.API            : ENVERUS NORMALIZED GAMMA RAY LEVERAGED IN GEOLOGICAL MODELLING 
 RESD_I.OHMM           : ENVERUS DEEP RESISTIVITY LEVERAGED IN GEOLOGICAL MODELLING 
 DPHI_I.V/V            : ENVERUS INTERPRETED DENSITY POROSITY USING A 2.71 G/CC MATRIX DENSITY 
 PHIE_I.V/V            : ENVERUS INTERPRETED EFFECTIVE POROSITY 
 SW_I.V/V              : ENVERUS INTERPRETED WATER SATURATION USING MODIFIED SIMANDOUX EQUATION 
 TOC_I.WT%             : ENVERUS INTERPRETED TOTAL ORGANIC CARBON USING MULTI-LINEAR REGRESSION 
 VCLAY_I.V/V           : ENVERUS INTERPRETED CLAY VOLUMES USING MULTI-LINEAR REGRESSION 
 NVCLAY_I.V/V          : ENVERUS INTERPRETED NON CLAY VOLUMES 
 HCPV_I.V/V            : ENVERUS INTERPRETED HYDROCARBON PORE VOLUME 
 OOIP_I.MMBBL/SEC      : ENVERUS INTERPRETED ORIGINAL OIL IN PLACE 
 OGIP_I.BCF/SEC        : ENVERUS INTERPRETED ORIGINAL GAS IN PLACE 
 TEMP_I.DEGF           : ENVERUS INTERPRETED TEMPERATURE DERIVED FROM BOTTOM HOLE TEMPERATURES 
 #___________________________________________________________________________________________________ 
~A         DEPT          TVD_I         ZONE_I         GR_N_I         RESD_I         DPHI_I         PHIE_I           SW_I          TOC_I        VCLAY_I       NVCLAY_I         HCPV_I         OOIP_I         OGIP_I         TEMP_I
# ...
         8572.0       8572.000        -999.25         73.429      -999.2500        0.15160        0.12330        0.12150        3.72080        0.18710        0.68970        0.09640        0.51210     2048.30000        387.991
         8572.5       8572.500        -999.25         75.353      -999.2500        0.15880        0.12770        0.11440        3.92970        0.19580        0.67650        0.10220        0.53490     2139.62430        388.010
         8573.0       8573.000        -999.25         77.395      -999.2500        0.16190        0.12720        0.10640        4.09010        0.21470        0.65810        0.10410        0.53730     2149.50660        388.029
         8573.5       8573.500        -999.25         77.677      -999.2500        0.16150        0.12730        0.10450        4.07850        0.21210        0.66060        0.10430        0.53890     2155.81270        388.048
         8574.0       8574.000        -999.25         75.423      -999.2500        0.16230        0.12910        0.10510        4.03250        0.20450        0.66640        0.10560        0.54630     2185.60550        388.067
         8574.5       8574.499        -999.25         72.459      -999.2500        0.16400        0.13200        0.11230        3.98710        0.19530        0.67280        0.10640        0.55390     2216.11870        388.086
         8575.0       8574.999        -999.25         69.476      -999.2500        0.16200        0.13140        0.12720        3.87360        0.18870        0.67980        0.10280        0.54230     2169.89770        388.105
         8575.5       8575.500        -999.25         69.017      -999.2500        0.15930        0.12950        0.14280        3.80350        0.18720        0.68330        0.09820        0.52490     2100.09400        388.124
         8576.0       8576.000        -999.25         71.725      -999.2500        0.15610        0.12570        0.15530        3.80560        0.19480        0.67950        0.09320        0.50220     2009.44930        388.143
         8576.5       8576.500        -999.25         74.775      -999.2500        0.15470        0.12350        0.16130        3.84720        0.20180        0.67470        0.09080        0.48960     1959.32710        388.161
         8577.0       8577.000        -999.25         77.591      -999.2500        0.15850        0.12580        0.15650        3.98490        0.20590        0.66820        0.09390        0.50190     2008.60340        388.180
         8577.5       8577.500        -999.25         77.679      -999.2500        0.16410        0.12860        0.14960        4.13560        0.21610        0.65530        0.09820        0.51730     2070.07130        388.199
         8578.0       8578.000        -999.25         74.578      -999.2500        0.16440        0.12440        0.14060        4.18180        0.24310        0.63250        0.09750        0.50570     2023.64090        388.218
         8578.5       8578.500        -999.25         73.862      -999.2500        0.15740        0.11550        0.13360        4.10760        0.26630        0.61820        0.08980        0.47310     1893.39840        388.237
         8579.0       8579.000        -999.25         76.771      -999.2500        0.14980        0.10960        0.13240        4.00140        0.26790        0.62250        0.08540        0.44980     1800.36890        388.256
         8579.5       8579.500        -999.25         80.073      -999.2500        0.14810        0.10930        0.13430        3.99760        0.26180        0.62880        0.08560        0.44760     1791.66140        388.275
         8580.0       8580.001        -999.25         83.252      -999.2500        0.15520        0.11690        0.13730        4.14410        0.24680        0.63630        0.09140        0.47680     1908.59750        388.294
         8580.5       8580.500        -999.25         84.651      -999.2500        0.16330        0.12610        0.13940        4.27560        0.22820        0.64580        0.09840        0.51300     2053.39890        388.313
         8581.0       8581.000        -999.25         84.009      -999.2500        0.16140        0.12620        0.14230        4.19300        0.21820        0.65560        0.09750        0.51180     2048.65720        388.332
         8581.5       8581.500        -999.25         83.967      -999.2500        0.16020        0.12530        0.14260        4.16710        0.21790        0.65680        0.09660        0.50810     2033.97420        388.351
         8582.0       8582.000        -999.25         82.874      -999.2500        0.16040        0.12410        0.14130        4.17790        0.22620        0.64970        0.09620        0.50380     2016.93810        388.370
         8582.5       8582.500        -999.25         81.070      -999.2500        0.15680        0.12040        0.14200        4.09570        0.23230        0.64720        0.09310        0.48850     1955.72440        388.389
         8583.0       8583.000        -999.25         81.321      -999.2500        0.14960        0.11400        0.15030        3.96710        0.23780        0.64820        0.08650        0.45810     1834.16470        388.408
         8583.5       8583.499        -999.25         83.230      -999.2500        0.14300        0.10820        0.15630        3.87850        0.24310        0.64870        0.08080        0.43180     1728.75660        388.427
         8584.0       8584.000        -999.25         83.299      -999.2500        0.14430        0.10920        0.15590        3.90650        0.24320        0.64760        0.08170        0.43580     1744.88460        388.446
         8584.5       8584.500        -999.25         78.692      -999.2500        0.15130        0.11510        0.13660        3.96570        0.23910        0.64580        0.08950        0.47000     1881.74610        388.465
         8585.0       8585.000        -999.25         71.545      -999.2500        0.15500        0.11830        0.11860        3.92500        0.23650        0.64520        0.09470        0.49310     1974.66280        388.484
         8585.5       8585.500        -999.25         64.403      -999.2500        0.15340        0.11920        0.10640        3.74340        0.22280        0.65800        0.09570        0.50380     2017.24220        388.503
         8586.0       8586.000        -999.25         57.234      -999.2500        0.14560        0.11620        0.09760        3.41450        0.20170        0.68200        0.09480        0.49600     1986.23350        388.522
         8586.5       8586.500        -999.25         51.635      -999.2500        0.13480        0.11000        0.10160        3.05950        0.18430        0.70570        0.08880        0.46720     1870.86930        388.541
         8587.0       8587.000        -999.25         50.490      -999.2500        0.12560        0.10280        0.10000        2.85180        0.18150        0.71570        0.08270        0.43760     1752.45540        388.560
         8587.5       8587.500        -999.25         49.910      -999.2500        0.12950        0.10670        0.09880        2.90120        0.17610        0.71720        0.08620        0.45460     1820.56630        388.579
         8588.0       8588.000        -999.25         47.792      -999.2500        0.13960        0.11670        0.09470        3.03330        0.16430        0.71900        0.09590        0.49960     2001.14280        388.597
         8588.5       8588.501        -999.25         44.525      -999.2500        0.14650        0.12540        0.09200        3.05290        0.14420        0.73040        0.10380        0.53820     2155.83060        388.616
         8589.0       8589.001        -999.25         40.932      -999.2500        0.14340        0.12500        0.09000        2.88530        0.12810        0.74680        0.10370        0.53800     2154.89090        388.635
         8589.5       8589.500        -999.25         37.845      -999.2500        0.14250        0.12680        0.09470        2.75580        0.11020        0.76310        0.10390        0.54260     2173.61940        388.654
