#--------------------------------------------------#
#-------------------ENVERUS, INC.------------------#
#------------------WWW.ENVERUS.COM-----------------#
#------------------COPYRIGHT 2020------------------#
#--------------------------------------------------#
#THIS FILE MAY BE USED ONLY IN ACCORDANCE WITH A CURRENT SUBSCRIPTION AGREEMENT BETWEEN
#THE USER AND ENVERUS, INC. NO PART OF THIS FILE MAY BE REPRODUCED, USED, COPIED,
#MODIFIED, PROPAGATED, OR DISTRIBUTED EXCEPT IN ACCORDANCE WITH THE SUBSCRIPTION
#AGREEMENT. UNAUTHORIZED USE OR DISTRIBUTION OF ALL OR ANY PART OF THIS FILE MAY VIOLATE
#COPYRIGHT, TRADEMARK, AND/OR OTHER LAWS AND IS SUBJECT TO CIVIL AS WELL AS CRIMINAL
#SANCTIONS.
#--------------------------------------------------#
#THIS FILE IS PROVIDED "AS-IS" AND ALL WARRANTIES ARE EXPRESSLY DISCLAIMED, WHETHER
#EXPRESS, ORAL, IMPLIED, STATUTORY OR OTHERWISE, INCLUDING ANY IMPLIED WARRANTY OF FITNESS
#FOR A PARTICULAR PURPOSE, MERCHANTABILITY, TITLE OR NON-INFRINGEMENT, AND ANY WARRANTIES
#ARISING BY VIRTUE OF CUSTOM OF TRADE OR COURSE OF DEALING.  FURTHER, ENVERUS, INC.
#AND ITS LICENSORS DO NOT REPRESENT OR WARRANT THAT THIS FILE WILL MEET USER'S
#REQUIREMENTS OR ARE SUITABLE FOR USER'S NEEDS OR THAT THE DATA OR RESULTS PROVIDED IN
#CONJUNCTION THEREWITH ARE CORRECT, ACCURATE, TIMELY OR RELIABLE. THESE DISCLAIMERS SHALL
#APPLY REGARDLESS OF ANY FAILURE OF ESSENTIAL PURPOSE OF ANY LIMITED REMEDY.  SOME
#JURISDICTIONS DO NOT ALLOW THE EXCLUSION OF CERTAIN WARRANTIES SO SOME OF THE ABOVE
#EXCLUSIONS MAY NOT APPLY. IN NO EVENT SHALL ENVERUS, INC. OR ANY OF ITS AFFILIATES
#BE LIABLE UNDER ANY LEGAL THEORY, WHETHER IN TORT (INCLUDING WITHOUT LIMITATION
#NEGLIGENCE), CONTRACT, STRICT LIABILITY, STATUTORY OR OTHERWISE, FOR ANY SPECIAL,
#INCIDENTAL, CONSEQUENTIAL, EXEMPLARY, PUNITIVE OR INDIRECT DAMAGE OF ANY KIND, INCLUDING
#WITHOUT LIMITATION LOSS OF REVENUE, PROFITS, GOODWILL, USE, AND/OR DATA OR THE COST OF
#PROCUREMENT OF SUBSTITUTE GOODS OR SERVICES, EVEN IF APPRISED OF THE POSSIBILITY OF SUCH
#DAMAGES IN ADVANCE.
#--------------------------------------------------#

~VERSION INFORMATION
VERS. 2.0 : CWLS LOG ASCII STANDARD - VERSION 2.0
WRAP.  NO : ONE LINE PER DEPTH STEP
~WELL INFORMATION
#MNEMONIC     .UNIT              VALUE :DESCRIPTION
STRT       .FT                -3 :START DEPTH
STOP       .FT                21524 :STOP DEPTH
STEP       .FT                   0.500 :STEP
NULL       .                  -999.99 :NULL
UWI        .                42389105080000 :UNIQUE WELL ID
API        .                42389105080000 :API NUMBER
COMP       .         :COMPANY
WELL       .        :WELL
DATE       .                 :LOG DATE
FLD       .                 :FIELD NAME
LOC       .                  UNK :LOCATION
CNTY       .                 UNK :COUNTY
STAT       .                 UNK :STATE
CTRY       .                 UNK :COUNTY
SRVC       .                 UNK :SERVICE COMPANY
~CURVE INFORMATION
#MNEMONIC     .UNIT      API CODE :CURVE DESCRIPTION
DEPTH       .FT                      :MEASURED DEPTH
CAL.IN        UNKNOWN   :CAL
DT.MSEC/FT        UNKNOWN   :DT
GR.API        UNKNOWN   :GR
~A    DEPTH    CAL    DT    GR
# ...
 14280.5     12.48166   85.7298   43.07957
 14281     12.43706   84.73435   43.4212
 14281.5     12.39246   85.07789   41.79994
 14282     12.36983   85.56158   39.87487
 14282.5     12.39802   83.48615   37.9498
 14283     12.42621   83.26528   37.6657
 14283.5     12.4544   83.47016   38.18394
 14284     12.45764   83.67504   38.70219
 14284.5     12.45447   83.87993   39.22043
 14285     12.4513   84.08481   40.28989
 14285.5     12.44813   84.28969   41.4032
 14286     12.44496   84.49458   42.5165
 14286.5     12.41631   83.9678   43.6298
 14287     12.36335   82.89497   44.69171
 14287.5     12.31038   81.82214   43.69516
 14288     12.25742   82.19028   42.87761
 14288.5     12.25968   83.32829   42.13381
 14289     12.2643   84.4663   41.39001
 14289.5     12.26893   85.60432   40.64621
 14290     12.27356   77.89642   40.25106
 14290.5     12.27819   77.32988   40.24634
 14291     12.28281   77.31107   40.24161
 14291.5     12.28744   77.29227   40.23688
 14292     12.29207   77.73271   40.23215
 14292.5     12.2967   79.27863   39.55365
 14293     12.30133   80.82456   38.59422
 14293.5     12.30595   82.37048   37.63478
 14294     12.27329   82.99682   37.78733
 14294.5     12.22479   82.6899   39.44375
 14295     12.17629   83.43306   40.14467
 14295.5     12.12779   84.17622   40.25529
 14296     12.07929   84.82491   40.3659
 14296.5     12.03582   84.70322   40.47652
 14297     12.19041   84.58153   40.58714
 14297.5     12.345   84.43756   40.69776
 14298     12.4163   84.04453   40.80837
 14298.5     12.43627   83.6515   40.91899
 14299     12.45623   83.25848   40.20463
 14299.5     12.44493   83.02696   39.14291
 14300     12.42638   82.96706   38.08119
 14300.5     12.40784   82.93237   37.01947
 14301     12.38929   83.29737   35.95775
 14301.5     12.37075   83.58655   36.79175
 14302     12.3522   83.58823   38.20467
 14302.5     12.39875   83.067   39.61759
 14303     12.52288   82.50493   39.70118
 14303.5     12.64701   81.94286   39.29102
 14304     12.77115   81.38079   38.88086
 14304.5     12.76062   81.98083   38.4707
 14305     12.67967   82.83731   38.06054
 14305.5     12.59871   83.6938   38.35423
 14306     12.51775   84.55028   39.16183
 14306.5     12.43679   85.40677   39.96944
 14307     12.41236   86.26325   40.77704
 14307.5     12.41642   87.11973   40.62122
 14308     12.42048   86.7737   37.4593
 14308.5     12.6561   83.648   34.29738
 14309     13.12489   82.68555   32.35414
 14309.5     13.59369   82.87054   32.05309
 14310     13.56144   83.3573   33.45311
 14310.5     13.45418   84.99828   34.85313
 14311     13.26032   86.63926   36.21987
 14311.5     13.03283   88.28024   37.22235
 14312     12.80533   89.92122   38.22483
 14312.5     12.57784   82.21211   38.31381
 14313     12.35035   81.67791   37.85035
 14313.5     12.36982   81.1437   37.3869
 14314     12.41159   80.6095   36.92344
 14314.5     12.51259   83.49862   36.45998
 14315     12.6136   85.40125   37.10627
 14315.5     12.71461   84.17591   38.05372
 14316     12.75336   82.95057   39.00117
 14316.5     12.70437   82.57109   39.93068
 14317     12.65538   83.17471   40.67303
 14317.5     12.60638   83.77833   41.41538
 14318     12.55739   84.40222   42.15774
 14318.5     12.51848   85.02651   42.90009
 14319     12.57666   85.65081   43.64244
 14319.5     12.63484   85.8968   43.62913
 14320     12.65155   85.06598   42.86726
 14320.5     12.64597   84.23516   42.10538
 14321     12.64039   83.69852   41.31908
 14321.5     12.6348   83.8531   40.51455
 14322     12.62922   84.00768   39.71001
 14322.5     12.62318   84.16226   39.89867
 14323     12.58838   84.31685   40.12652
 14323.5     12.55358   84.83288   40.35437
 14324     12.51879   85.86612   40.58221
 14324.5     12.48399   85.59247   40.81006
 14325     12.52857   84.15008   40.63695
 14325.5     12.68417   83.24621   40.42784
 14326     12.83977   84.50004   39.88509
 14326.5     12.77409   85.75387   38.74925
 14327     12.59494   86.96122   37.61341
 14327.5     12.50407   86.96296   36.47757
 14328     12.50357   86.96469   35.34173
 14328.5     12.50308   86.96643   35.56379
 14329     12.50258   86.90652   36.24515
 14329.5     12.50208   86.84661   36.92651
 14330     12.50304   85.73191   37.62766
 14330.5     12.50934   83.82852   38.36957
 14331     12.51563   81.92512   39.11149
 14331.5     12.52192   81.10292   39.85341
 14332     12.52821   86.30956   40.59532
 14332.5     12.30057   88.07782   41.33724
 14333     12.11853   87.72059   41.11952
 14333.5     12.15901   87.36336   40.56437
 14334     12.19948   87.00613   40.00922
 14334.5     12.23996   86.6489   39.70245
 14335     12.28044   86.29167   40.50466
 14335.5     12.32092   85.55058   41.30687
 14336     12.39757   84.60537   42.10907
 14336.5     12.59798   83.66015   42.25796
 14337     12.61631   82.71494   41.66235
 14337.5     12.46202   81.76972   41.06673
 14338     12.30774   82.03019   40.47111
 14338.5     12.20982   82.47462   39.8755
 14339     12.11215   83.66099   40.2307
 14339.5     12.01448   84.5549   41.19197
 14340     11.91682   85.44881   41.81806
 14340.5     11.89346   86.34272   42.03854
 14341     11.89948   87.23664   42.25903
 14341.5     11.9055   88.13055   42.47951
 14342     11.91152   86.69001   39.05753
 14342.5     11.91754   84.77174   38.71027
 14343     11.92356   82.85346   40.83932
 14343.5     11.92958   81.89085   42.56885
 14344     11.9356   82.57627   42.42769
 14344.5     11.94162   83.2617   42.30074
 14345     11.97953   83.94713   42.21387
 14345.5     12.01999   82.61113   42.127
 14346     12.06045   81.65425   41.96461
 14346.5     12.10092   82.10679   40.88245
 14347     12.14138   82.55933   39.8003
 14347.5     12.13763   83.01187   39.93098
 14348     12.11276   82.30923   40.41177
 14348.5     12.08789   76.99461   41.29048
 14349     12.06302   71.67998   42.21431
 14349.5     12.03815   66.36535   43.13815
 14350     12.01328   81.18575   42.8824
 14350.5     11.98841   85.69635   42.35255
 14351     11.96353   85.68869   41.8227
 14351.5     11.93866   85.68103   40.06071
 14352     11.98205   85.67337   38.14702
 14352.5     12.0375   85.66571   39.15693
 14353     12.09296   85.65805   40.16683
 14353.5     12.14716   85.65038   41.17673
 14354     12.02915   85.64272   42.18663
 14354.5     11.91114   85.30586   43.19653
 14355     11.79313   84.42839   44.11042
 14355.5     11.67512   83.55091   42.54207
 14356     11.56111   82.67343   40.97373
 14356.5     12.15647   81.98554   40.7276
 14357     12.18664   81.98735   41.041
 14357.5     12.2168   81.98917   41.35439
 14358     12.144   81.99098   41.66779
 14358.5     11.99453   81.99279   41.03452
 14359     11.84505   81.9946   39.80415
 14359.5     11.69558   81.10577   38.57379
 14360     11.574   82.06705   38.33804
 14360.5     11.469   83.02834   40.25585
 14361     11.36399   83.23053   41.93374
 14361.5     11.26094   83.05965   42.73689
 14362     11.18828   82.88876   43.54004
 14362.5     11.11562   82.74967   44.34319
 14363     11.04296   82.62827   44.89787
 14363.5     10.9703   82.50687   44.35466
 14364     10.90428   82.38546   43.81146
 14364.5     10.90377   82.26406   43.45814
 14365     10.90326   82.14498   43.60013
 14365.5     10.90275   82.03595   43.74212
 14366     10.90224   81.92692   43.88411
 14366.5     10.90173   81.81789   44.0261
 14367     10.90122   81.70886   44.30223
 14367.5     10.90071   81.59983   44.60197
 14368     11.11037   81.59418   44.90171
 14368.5     11.40852   82.32063   45.20145
 14369     11.70668   83.04708   45.50119
 14369.5     12.00484   83.65   45.80093
 14370     12.30299   84.18635   45.28798
 14370.5     12.26933   84.7227   44.65348
 14371     12.21896   85.12215   44.01898
 14371.5     12.1686   85.42049   43.38449
 14372     12.11823   85.71884   42.74999
 14372.5     12.04591   86.01718   43.40439
 14373     11.93284   86.23157   44.63214
 14373.5     11.81978   86.24285   45.85989
 14374     11.70671   86.25414   45.98879
