###############################################
##         ENVERUS                           ##
##         Petrophysical Curves              ##
##         PERMIAN / DELAWARE                ##
##         Jan 21 2022                       ##
##         42-389-10508-00-00                ##
###############################################
## Copyright 2017-2022  ENVERUS.  All Rights Reserved. 
## Confidential - Property of ENVERUS, use governed by terms and 
## conditions found within the existing Information Services Subscription Agreement 
## (as may be amended, the “ISSA”) between Customer and ENVERUS. 
## 
~VERSION INFORMATION
# MNEM.UNIT                               DATA : DESCRIPTION OF MNEMONIC
#-----.-----     ----------------------------- : -----------------------------
VERS.                                     2.00 : CWLS LOG ASCII STANDARD - VERSION 2.00
WRAP.                                       NO : MULTIPLE LINES PER DEPTH STEP
VEND.                                  ENVERUS : VENDOR
TYPE.                     PETROPHYSICAL CURVES : ENVERUS PETROPHYSICAL CURVES - ACCESSIBLE THROUGH ENVERUS CORE(TM)
#___________________________________________________________________________________________________ 
~WELL INFORMATION 
# uyaQ8P8kQDJ9DXFS5hR1PxmExEOYaAUkY5f3/tnOS+scoPAUWgXA1zCIHGRbWCuSuUcwDzaESCjqjWQ81XhadA== 
# MNEM.UNIT                                              DATA : DESCRIPTION OF MNEMONIC 
#-----.-----                    ----------------------------- : ----------------------------- 
CNTY.                                                  REEVES : COUNTY 
STATE.                                                  TEXAS : STATE 
CNTRY.                                                    USA : COUNTRY 
API.                                             42-389-10508 : API (10 Digit) 
API_14.                                    42-389-10508-00-00 : API (14 Digits) 
API_14_std.                                 42-389-10508-0000 : API (14 Digits Standard) 
UWI.                                           42389105080000 : UNIQUE WELL ID
STRT.FT                                               11776.0 : START DEPTH
STOP.FT                                               33299.5 : STOP DEPTH
STEP.FT                                                   0.5 : STEP BETWEEN DEPTHS
NULL.                                                 -999.25 : NULL VALUE
COMP.                                                  SABINE : COMPANY 
WELL.                                                       1 : WELL NAME 
FLD.                                         ROJO CABALLOS W. : FIELD NAME
#___________________________________________________________________________________________________ 
~CURVE INFORMATION 
#    Zone Description
#          1 = Upper Avalon
#          2 = Middle Avalon
#          3 = Lower Avalon
#          4 = 1st Bone Spring
#          5 = 2nd Bone Spring
#          6 = 2nd Bone Spring Sand
#          7 = 3rd Bone Spring
#          8 = 3rd Bone Spring Sand
#          9 = Wolfcamp XY
#          10 = Wolfcamp A Upper
#          11 = Wolfcamp A Lower
#          12 = Wolfcamp B Upper
#          13 = Wolfcamp B Lower
#          14 = Wolfcamp C
#          15 = Wolfcamp D
#          16 = Pennsylvanian Shale
#          17 = Lower Pennsylvanian Shale
#          18 = Barnett
#          19 = Barnett Lower
#          20 = Mississippian Lime
#          21 = Woodford
#          22 = Base Woodford 
# MNEM.UNIT           : CURVE DESCRIPTION 
#-----.-----          : ----------------------------- 
 DEPT.FT               : MEASURED DEPTH 
 TVD_I.FT              : ENVERUS TRUE VERTICAL DEPTH 
 ZONE_I.               : ENVERUS DEFINED ZONE CODE 
 GR_N_I.API            : ENVERUS NORMALIZED GAMMA RAY LEVERAGED IN GEOLOGICAL MODELLING 
 TEMP_I.DEGF           : ENVERUS INTERPRETED TEMPERATURE DERIVED FROM BOTTOM HOLE TEMPERATURES 
 #___________________________________________________________________________________________________ 
~A         DEPT          TVD_I         ZONE_I         GR_N_I         TEMP_I
# ...
        31810.0      31810.002          22.00         51.266        284.597
        31810.5      31810.502          22.00         48.597        284.603
        31811.0      31811.002          22.00         45.704        284.608
        31811.5      31811.500          22.00         44.988        284.614
        31812.0      31812.000          22.00         48.182        284.619
        31812.5      31812.500          22.00         53.180        284.625
        31813.0      31813.000          22.00         58.178        284.631
        31813.5      31813.500          22.00         63.176        284.636
        31814.0      31814.000          22.00         68.043        284.642
        31814.5      31814.500          22.00         72.167        284.647
        31815.0      31815.000          22.00         76.291        284.653
        31815.5      31815.500          22.00         80.035        284.658
        31816.0      31816.000          22.00         80.539        284.664
        31816.5      31816.500          22.00         81.043        284.669
        31817.0      31817.000          22.00         81.547        284.675
        31817.5      31817.500          22.00         82.052        284.680
        31818.0      31818.000          22.00         84.479        284.686
        31818.5      31818.500          22.00         87.593        284.691
        31819.0      31819.002          22.00         90.708        284.697
        31819.5      31819.502          22.00         93.759        284.702
        31820.0      31820.002          22.00         92.727        284.708
        31820.5      31820.500          22.00         85.166        284.713
        31821.0      31821.000          22.00         74.473        284.719
        31821.5      31821.500          22.00         63.780        284.725
        31822.0      31822.000          22.00         53.086        284.730
        31822.5      31822.500          22.00         45.894        284.736
        31823.0      31823.000          22.00         43.620        284.741
        31823.5      31823.500          22.00         41.347        284.747
        31824.0      31824.000          22.00         38.835        284.752
        31824.5      31824.498          22.00         33.437        284.758
        31825.0      31824.998          22.00         28.517        284.763
        31825.5      31825.498          22.00         29.319        284.769
        31826.0      31825.998          22.00         34.955        284.774
        31826.5      31826.498          22.00         40.591        284.780
        31827.0      31826.998          22.00         46.227        284.785
        31827.5      31827.502          22.00         51.796        284.791
        31828.0      31828.002          22.00         52.137        284.796
        31828.5      31828.502          22.00         52.478        284.802
        31829.0      31829.002          22.00         48.910        284.808
        31829.5      31829.500          22.00         45.329        284.813
        31830.0      31830.000          22.00         43.146        284.819
        31830.5      31830.500          22.00         43.721        284.824
        31831.0      31831.000          22.00         47.671        284.830
        31831.5      31831.500          22.00         53.375        284.835
        31832.0      31832.000          22.00         59.080        284.841
        31832.5      31832.500          22.00         64.784        284.846
        31833.0      31833.000          22.00         70.489        284.852
        31833.5      31833.500          22.00         70.731        284.857
        31834.0      31834.000          22.00         70.318        284.863
        31834.5      31834.500          22.00         38.916        284.868
        31835.0      31835.000          22.00         34.830        284.874
        31835.5      31835.500          22.00         32.854        284.879
        31836.0      31836.002          22.00         30.878        284.885
        31836.5      31836.502          22.00         31.120        284.890
        31837.0      31837.000          22.00         31.461        284.896
        31837.5      31837.500          22.00         34.568        284.902
        31838.0      31838.000          22.00         37.836        284.907
        31838.5      31838.500          22.00         33.840        284.913
        31839.0      31839.000          22.00         29.207        284.918
        31839.5      31839.500          22.00         27.517        284.924
        31840.0      31840.000          22.00         27.824        284.929
        31840.5      31840.500          22.00         28.131        284.935
        31841.0      31841.000          22.00         33.047        284.940
        31841.5      31841.500          22.00         38.409        284.946
        31842.0      31842.000          22.00         43.770        284.951
        31842.5      31842.500          22.00         49.131        284.957
        31843.0      31842.998          22.00         53.696        284.962
        31843.5      31843.498          22.00         53.798        284.968
        31844.0      31843.998          22.00         51.945        284.973
        31844.5      31844.498          22.00         49.631        284.979
        31845.0      31845.002          22.00         47.316        284.984
        31845.5      31845.502          22.00         45.002        284.990
        31846.0      31846.002          22.00         45.394        284.996
        31846.5      31846.502          22.00         47.903        285.001
        31847.0      31847.002          22.00         52.122        285.007
        31847.5      31847.502          22.00         56.340        285.012
        31848.0      31848.000          22.00         60.559        285.018
        31848.5      31848.500          22.00         64.777        285.023
        31849.0      31849.000          22.00         68.995        285.029
        31849.5      31849.500          22.00         73.214        285.034
        31850.0      31850.000          22.00         77.432        285.040
        31850.5      31850.500          22.00         79.385        285.045
        31851.0      31851.000          22.00         78.587        285.051
        31851.5      31851.498          22.00         77.789        285.056
        31852.0      31851.998          22.00         76.992        285.062
        31852.5      31852.498          22.00         76.194        285.068
        31853.0      31852.998          22.00         69.810        285.073
        31853.5      31853.500          22.00         59.819        285.079
        31854.0      31854.000          22.00         49.827        285.084
        31854.5      31854.500          22.00         43.982        285.090
        31855.0      31855.000          22.00         45.500        285.095
        31855.5      31855.500          22.00         47.753        285.101
        31856.0      31856.000          22.00         50.006        285.106
        31856.5      31856.500          22.00         52.259        285.112
        31857.0      31857.000          22.00         54.512        285.117
        31857.5      31857.500          22.00         56.765        285.123
        31858.0      31858.000          22.00         59.018        285.128
        31858.5      31858.500          22.00         59.084        285.134
        31859.0      31859.000          22.00         59.001        285.139
        31859.5      31859.500          22.00         58.917        285.145
        31860.0      31860.000          22.00         37.618        285.150
        31860.5      31860.500          22.00         43.220        285.156
        31861.0      31860.998          22.00         48.857        285.162
        31861.5      31861.498          22.00         50.481        285.167
        31862.0      31862.002          22.00         51.833        285.173
        31862.5      31862.502          22.00         53.185        285.178
