#--------------------------------------------------#
#-------------------ENVERUS, INC.------------------#
#------------------WWW.ENVERUS.COM-----------------#
#------------------COPYRIGHT 2020------------------#
#--------------------------------------------------#
#THIS FILE MAY BE USED ONLY IN ACCORDANCE WITH A CURRENT SUBSCRIPTION AGREEMENT BETWEEN
#THE USER AND ENVERUS, INC. NO PART OF THIS FILE MAY BE REPRODUCED, USED, COPIED,
#MODIFIED, PROPAGATED, OR DISTRIBUTED EXCEPT IN ACCORDANCE WITH THE SUBSCRIPTION
#AGREEMENT. UNAUTHORIZED USE OR DISTRIBUTION OF ALL OR ANY PART OF THIS FILE MAY VIOLATE
#COPYRIGHT, TRADEMARK, AND/OR OTHER LAWS AND IS SUBJECT TO CIVIL AS WELL AS CRIMINAL
#SANCTIONS.
#--------------------------------------------------#
#THIS FILE IS PROVIDED "AS-IS" AND ALL WARRANTIES ARE EXPRESSLY DISCLAIMED, WHETHER
#EXPRESS, ORAL, IMPLIED, STATUTORY OR OTHERWISE, INCLUDING ANY IMPLIED WARRANTY OF FITNESS
#FOR A PARTICULAR PURPOSE, MERCHANTABILITY, TITLE OR NON-INFRINGEMENT, AND ANY WARRANTIES
#ARISING BY VIRTUE OF CUSTOM OF TRADE OR COURSE OF DEALING.  FURTHER, ENVERUS, INC.
#AND ITS LICENSORS DO NOT REPRESENT OR WARRANT THAT THIS FILE WILL MEET USER'S
#REQUIREMENTS OR ARE SUITABLE FOR USER'S NEEDS OR THAT THE DATA OR RESULTS PROVIDED IN
#CONJUNCTION THEREWITH ARE CORRECT, ACCURATE, TIMELY OR RELIABLE. THESE DISCLAIMERS SHALL
#APPLY REGARDLESS OF ANY FAILURE OF ESSENTIAL PURPOSE OF ANY LIMITED REMEDY.  SOME
#JURISDICTIONS DO NOT ALLOW THE EXCLUSION OF CERTAIN WARRANTIES SO SOME OF THE ABOVE
#EXCLUSIONS MAY NOT APPLY. IN NO EVENT SHALL ENVERUS, INC. OR ANY OF ITS AFFILIATES
#BE LIABLE UNDER ANY LEGAL THEORY, WHETHER IN TORT (INCLUDING WITHOUT LIMITATION
#NEGLIGENCE), CONTRACT, STRICT LIABILITY, STATUTORY OR OTHERWISE, FOR ANY SPECIAL,
#INCIDENTAL, CONSEQUENTIAL, EXEMPLARY, PUNITIVE OR INDIRECT DAMAGE OF ANY KIND, INCLUDING
#WITHOUT LIMITATION LOSS OF REVENUE, PROFITS, GOODWILL, USE, AND/OR DATA OR THE COST OF
#PROCUREMENT OF SUBSTITUTE GOODS OR SERVICES, EVEN IF APPRISED OF THE POSSIBILITY OF SUCH
#DAMAGES IN ADVANCE.
#--------------------------------------------------#

~VERSION INFORMATION
VERS. 2.0 : CWLS LOG ASCII STANDARD - VERSION 2.0
WRAP.  NO : ONE LINE PER DEPTH STEP
~WELL INFORMATION
#MNEMONIC     .UNIT              VALUE :DESCRIPTION
STRT       .FT                101 :START DEPTH
STOP       .FT                5382 :STOP DEPTH
STEP       .FT                   0.500 :STEP
NULL       .                  -999.990 :NULL
UWI        .              42389007790000 :UNIQUE WELL ID
API        .              42389007790000 :API NUMBER
COMP       .         :COMPANY
WELL       .         1, :WELL
DATE       .                            :LOG DATE
~CURVE INFORMATION
#MNEMONIC     .UNIT      API CODE :CURVE DESCRIPTION
DEPTH       .FT                      :MEASURED DEPTH
DT.US/FT        UNKNOWN   :DT
GR.API        UNKNOWN   :GR
~A    DEPTH    DT    GR
# ...
 2177.5     68.962   5.52
 2178     69.177   4.918
 2178.5     69.018   4.382
 2179     68.636   5.166
 2179.5     68.254   5.949
 2180     68.139   6.733
 2180.5     68.209   7.516
 2181     68.28   8.3
 2181.5     68.351   9.083
 2182     68.421   8.988
 2182.5     68.492   7.885
 2183     68.213   6.781
 2183.5     67.61   6.286
 2184     67.007   6.584
 2184.5     66.66   6.883
 2185     66.588   7.182
 2185.5     66.515   7.481
 2186     64.163   7.78
 2186.5     64.041   8.079
 2187     64.075   8.377
 2187.5     64.11   8.676
 2188     64.604   9.557
 2188.5     65.799   11.653
 2189     66.994   13.748
 2189.5     68.189   15.844
 2190     69.384   17.221
 2190.5     69.67   16.619
 2191     69.791   16.016
 2191.5     69.912   15.414
 2192     69.515   14.812
 2192.5     68.996   14.716
 2193     68.477   16.513
 2193.5     67.959   18.309
 2194     67.44   20.106
 2194.5     68.11   21.903
 2195     69.177   23.7
 2195.5     70.245   25.496
 2196     71.312   27.293
 2196.5     72.38   29.09
 2197     73.447   28.13
 2197.5     73.209   25.266
 2198     72.365   22.402
 2198.5     71.838   19.539
 2199     71.476   16.675
 2199.5     71.394   13.811
 2200     71.475   10.948
 2200.5     71.556   8.084
 2201     71.637   6.718
 2201.5     71.681   6.716
 2202     71.307   6.715
 2202.5     70.932   6.714
 2203     70.558   6.712
 2203.5     70.183   8.648
 2204     69.809   9.615
 2204.5     69.434   9.313
 2205     69.06   9.011
 2205.5     68.685   8.709
 2206     68.311   8.408
 2206.5     68.446   8.106
 2207     69.171   7.804
 2207.5     69.896   7.803
 2208     70.62   8.32
 2208.5     71.345   8.837
 2209     71.53   9.354
 2209.5     70.927   9.871
 2210     70.325   10.389
 2210.5     69.722   10.906
 2211     69.119   11.423
 2211.5     68.847   11.94
 2212     68.634   12.458
 2212.5     68.421   12.975
 2213     68.207   13.457
 2213.5     67.994   13.823
 2214     67.781   14.189
 2214.5     67.785   14.554
 2215     68.374   14.92
 2215.5     68.963   15.285
 2216     69.552   15.651
 2216.5     69.945   16.017
 2217     69.666   16.382
 2217.5     69.388   16.643
 2218     69.109   16.1
 2218.5     68.83   15.558
 2219     68.551   15.016
 2219.5     68.272   14.473
 2220     67.994   13.931
 2220.5     67.79   13.389
 2221     68.099   12.846
 2221.5     68.408   12.304
 2222     68.716   11.762
 2222.5     69.025   11.225
 2223     69.261   12.369
 2223.5     69.442   13.513
 2224     69.623   14.657
 2224.5     69.805   15.8
 2225     69.986   16.944
 2225.5     70.167   17.133
 2226     70.349   16.048
 2226.5     70.53   14.964
 2227     70.711   15.128
 2227.5     70.892   15.427
 2228     70.135   15.726
 2228.5     68.268   16.025
 2229     66.401   16.324
 2229.5     64.592   16.623
 2230     62.865   16.922
 2230.5     64.265   17.221
 2231     66.025   17.52
 2231.5     67.785   16.453
 2232     69.545   15.022
 2232.5     70.527   13.591
 2233     70.069   12.16
 2233.5     69.61   13.06
 2234     69.152   14.737
 2234.5     68.694   16.414
 2235     67.784   18.091
 2235.5     65.756   19.768
 2236     63.729   19.518
 2236.5     62.079   18.353
 2237     61.581   17.188
 2237.5     61.084   16.023
 2238     60.586   14.858
 2238.5     60.731   13.694
 2239     63.499   12.529
 2239.5     66.266   11.492
 2240     69.034   11.6
 2240.5     69.67   11.708
 2241     69.236   11.816
 2241.5     68.915   11.924
 2242     69.323   12.032
 2242.5     69.731   10.279
 2243     70.138   6.896
 2243.5     70.421   3.589
 2244     69.427   5.064
 2244.5     68.433   6.538
 2245     67.438   8.013
 2245.5     66.377   9.488
 2246     63.542   10.962
 2246.5     60.707   12.437
 2247     57.871   12.975
 2247.5     56.231   12.239
 2248     55.869   11.502
 2248.5     55.507   10.766
 2249     55.146   10.029
 2249.5     55.343   11.158
 2250     56.269   12.555
 2250.5     57.196   13.953
 2251     58.122   15.351
 2251.5     59.049   16.528
 2252     58.302   17.212
 2252.5     57.338   17.897
 2253     56.374   18.582
 2253.5     56.445   17.779
 2254     58.535   16.516
 2254.5     60.625   15.254
 2255     62.715   13.991
 2255.5     64.805   12.728
 2256     66.895   11.465
 2256.5     69.581   10.202
 2257     69.573   8.939
 2257.5     68.753   7.677
 2258     68.192   6.414
 2258.5     68.42   5.466
 2259     68.648   6.199
 2259.5     68.877   6.931
 2260     69.105   7.663
 2260.5     68.293   8.395
 2261     67.021   7.908
 2261.5     65.749   6.602
 2262     64.478   5.295
 2262.5     63.204   5.597
 2263     61.919   7.117
 2263.5     60.634   8.638
 2264     59.349   10.158
 2264.5     58.064   11.678
 2265     57.184   13.198
 2265.5     56.608   14.718
 2266     56.032   13.292
 2266.5     55.456   11.784
 2267     54.924   10.277
 2267.5     57.102   8.769
 2268     59.279   7.262
 2268.5     61.457   5.754
 2269     65.518   7.373
 2269.5     68.095   9.278
 2270     69.021   11.182
 2270.5     69.948   13.087
 2271     69.808   14.992
 2271.5     68.339   12.207
 2272     66.869   8.454
 2272.5     65.5   6.117
 2273     64.141   6.716
 2273.5     62.782   7.315
 2274     58.969   7.914
 2274.5     53.272   8.513
 2275     52.277   9.112
 2275.5     51.977   9.711
 2276     53.185   9.352
 2276.5     54.394   8.657
 2277     55.602   7.961
 2277.5     55.751   7.265
 2278     55.596   6.57
 2278.5     55.441   5.874
 2279     55.139   5.22
 2279.5     54.355   4.767
 2280     53.571   4.589
 2280.5     52.859   6.011
 2281     52.437   7.433
 2281.5     52.015   8.856
 2282     51.706   10.158
 2282.5     51.988   10.197
 2283     52.27   10.235
 2283.5     52.49   10.274
 2284     52.275   10.313
 2284.5     52.061   10.352
 2285     51.847   10.39
 2285.5     51.633   10.429
 2286     51.752   10.911
 2286.5     52.124   11.843
 2287     52.496   12.775
 2287.5     52.868   13.706
 2288     53.239   14.638
 2288.5     53.611   13.764
 2289     53.983   12.759
 2289.5     54.49   11.755
 2290     54.997   12.909
 2290.5     57.419   14.015
 2291     62.035   15.121
 2291.5     66.651   16.227
 2292     65.363   17.333
 2292.5     63.781   18.439
 2293     62.199   17.365
 2293.5     59.54   15.796
 2294     55.279   14.227
 2294.5     53.987   12.658
 2295     56.457   11.09
 2295.5     56.529   10.457
 2296     56.602   10.105
 2296.5     56.013   9.753
 2297     55.29   9.4
 2297.5     54.567   9.048
 2298     53.954   8.696
 2298.5     53.614   9.221
 2299     53.274   10.119
 2299.5     52.935   11.018
 2300     52.595   11.917
 2300.5     52.255   12.816
 2301     54.707   9.247
 2301.5     54.631   9.661
 2302     54.554   10.076
 2302.5     54.478   10.49
 2303     54.401   10.905
 2303.5     54.325   11.32
 2304     55.043   11.734
 2304.5     56.191   11.615
 2305     57.34   11.054
 2305.5     60.385   10.494
 2306     64.605   9.934
 2306.5     67.209   9.374
 2307     68.765   8.814
 2307.5     70.32   8.254
 2308     71.502   8.221
 2308.5     67.861   8.783
 2309     64.219   9.344
 2309.5     60.641   9.906
 2310     60.139   10.467
 2310.5     59.637   11.029
 2311     59.135   11.591
 2311.5     50.547   12.152
 2312     51.237   12.154
 2312.5     52.245   11.174
 2313     53.252   10.193
 2313.5     54.259   9.213
 2314     54.836   8.772
 2314.5     54.797   9.463
 2315     54.757   10.155
 2315.5     54.717   10.846
 2316     54.677   11.538
 2316.5     54.273   12.229
 2317     53.808   12.921
 2317.5     53.343   11.332
 2318     53.05   8.913
 2318.5     53.136   6.494
 2319     53.221   4.719
 2319.5     53.306   5.385
 2320     53.392   6.05
 2320.5     53.477   6.716
 2321     53.563   7.382
 2321.5     53.648   6.183
 2322     53.734   4.314
 2322.5     51.774   4.65
 2323     51.923   4.987
 2323.5     52.072   5.324
 2324     52.22   5.66
 2324.5     52.369   5.997
 2325     52.518   6.334
 2325.5     52.667   6.67
 2326     52.816   6.996
 2326.5     52.964   6.995
 2327     53.113   6.993
 2327.5     53.262   6.992
 2328     53.411   6.991
 2328.5     53.56   7.903
 2329     53.711   9.817
