#--------------------------------------------------#
#-------------------ENVERUS, INC.------------------#
#------------------WWW.ENVERUS.COM-----------------#
#------------------COPYRIGHT 2020------------------#
#--------------------------------------------------#
#THIS FILE MAY BE USED ONLY IN ACCORDANCE WITH A CURRENT SUBSCRIPTION AGREEMENT BETWEEN
#THE USER AND ENVERUS, INC. NO PART OF THIS FILE MAY BE REPRODUCED, USED, COPIED,
#MODIFIED, PROPAGATED, OR DISTRIBUTED EXCEPT IN ACCORDANCE WITH THE SUBSCRIPTION
#AGREEMENT. UNAUTHORIZED USE OR DISTRIBUTION OF ALL OR ANY PART OF THIS FILE MAY VIOLATE
#COPYRIGHT, TRADEMARK, AND/OR OTHER LAWS AND IS SUBJECT TO CIVIL AS WELL AS CRIMINAL
#SANCTIONS.
#--------------------------------------------------#
#THIS FILE IS PROVIDED "AS-IS" AND ALL WARRANTIES ARE EXPRESSLY DISCLAIMED, WHETHER
#EXPRESS, ORAL, IMPLIED, STATUTORY OR OTHERWISE, INCLUDING ANY IMPLIED WARRANTY OF FITNESS
#FOR A PARTICULAR PURPOSE, MERCHANTABILITY, TITLE OR NON-INFRINGEMENT, AND ANY WARRANTIES
#ARISING BY VIRTUE OF CUSTOM OF TRADE OR COURSE OF DEALING.  FURTHER, ENVERUS, INC.
#AND ITS LICENSORS DO NOT REPRESENT OR WARRANT THAT THIS FILE WILL MEET USER'S
#REQUIREMENTS OR ARE SUITABLE FOR USER'S NEEDS OR THAT THE DATA OR RESULTS PROVIDED IN
#CONJUNCTION THEREWITH ARE CORRECT, ACCURATE, TIMELY OR RELIABLE. THESE DISCLAIMERS SHALL
#APPLY REGARDLESS OF ANY FAILURE OF ESSENTIAL PURPOSE OF ANY LIMITED REMEDY.  SOME
#JURISDICTIONS DO NOT ALLOW THE EXCLUSION OF CERTAIN WARRANTIES SO SOME OF THE ABOVE
#EXCLUSIONS MAY NOT APPLY. IN NO EVENT SHALL ENVERUS, INC. OR ANY OF ITS AFFILIATES
#BE LIABLE UNDER ANY LEGAL THEORY, WHETHER IN TORT (INCLUDING WITHOUT LIMITATION
#NEGLIGENCE), CONTRACT, STRICT LIABILITY, STATUTORY OR OTHERWISE, FOR ANY SPECIAL,
#INCIDENTAL, CONSEQUENTIAL, EXEMPLARY, PUNITIVE OR INDIRECT DAMAGE OF ANY KIND, INCLUDING
#WITHOUT LIMITATION LOSS OF REVENUE, PROFITS, GOODWILL, USE, AND/OR DATA OR THE COST OF
#PROCUREMENT OF SUBSTITUTE GOODS OR SERVICES, EVEN IF APPRISED OF THE POSSIBILITY OF SUCH
#DAMAGES IN ADVANCE.
#--------------------------------------------------#

~VERSION INFORMATION
VERS. 2.0 : CWLS LOG ASCII STANDARD - VERSION 2.0
WRAP.  NO : ONE LINE PER DEPTH STEP
~WELL INFORMATION
#MNEMONIC     .UNIT              VALUE :DESCRIPTION
STRT       .FT                429 :START DEPTH
STOP       .FT                6365 :STOP DEPTH
STEP       .FT                   0.500 :STEP
NULL       .                  -999.99 :NULL
UWI        .                42371100750000 :UNIQUE WELL ID
API        .                42371100750000 :API NUMBER
COMP       .         :COMPANY
WELL       .        :WELL
DATE       .                 :LOG DATE
FLD       .                 :FIELD NAME
LOC       .                  UNK :LOCATION
CNTY       .                 UNK :COUNTY
STAT       .                 UNK :STATE
CTRY       .                 UNK :COUNTY
SRVC       .                 UNK :SERVICE COMPANY
~CURVE INFORMATION
#MNEMONIC     .UNIT      API CODE :CURVE DESCRIPTION
DEPTH       .FT                      :MEASURED DEPTH
DT.MSEC/FT        UNKNOWN   :DT
GR.API        UNKNOWN   :GR
~A    DEPTH    DT    GR
 429     -999.99   65.6144
 429.5     -999.99   74.31051
 430     -999.99   76.54975
 430.5     -999.99   76.41416
 431     -999.99   75.11702
 431.5     -999.99   73.81988
 432     -999.99   72.52274
 432.5     -999.99   71.2256
 433     -999.99   73.95092
 433.5     -999.99   77.07212
 434     -999.99   77.91292
 434.5     -999.99   76.14824
 435     -999.99   72.74241
 435.5     -999.99   69.33659
 436     -999.99   65.93077
 436.5     -999.99   62.52494
 437     -999.99   60.82959
 437.5     -999.99   59.84053
 438     -999.99   58.85146
 438.5     -999.99   57.8624
 439     -999.99   57.61761
 439.5     -999.99   57.51992
 440     -999.99   58.71307
 440.5     -999.99   60.40966
 441     -999.99   62.10625
 441.5     -999.99   65.56876
 442     -999.99   71.25476
 442.5     -999.99   76.18068
 443     -999.99   76.84856
 443.5     -999.99   77.51645
 444     -999.99   78.18433
 444.5     -999.99   78.85222
 445     -999.99   77.47868
 445.5     -999.99   76.06051
 446     -999.99   74.64234
 446.5     -999.99   73.31562
 447     -999.99   73.13542
 447.5     -999.99   72.95522
 448     -999.99   72.77502
 448.5     -999.99   72.59482
 449     -999.99   73.16271
 449.5     -999.99   74.79262
 450     -999.99   76.42254
 450.5     -999.99   77.94512
 451     -999.99   78.76911
 451.5     -999.99   79.45304
 452     -999.99   77.66482
 452.5     -999.99   75.97931
 453     -999.99   74.3293
 453.5     -999.99   72.67928
 454     -999.99   71.02927
 454.5     -999.99   69.37925
 455     -999.99   67.72924
 455.5     -999.99   66.07923
 456     -999.99   65.0219
 456.5     -999.99   64.14136
 457     -999.99   63.26082
 457.5     -999.99   62.38028
 458     -999.99   62.4305
 458.5     -999.99   62.57836
 459     -999.99   62.72621
 459.5     -999.99   63.43547
 460     -999.99   64.17025
 460.5     -999.99   64.8218
 461     -999.99   63.47096
 461.5     -999.99   61.71161
 462     -999.99   59.02634
 462.5     -999.99   56.52211
 463     -999.99   56.02478
 463.5     -999.99   55.52745
 464     -999.99   55.03011
 464.5     -999.99   56.55525
 465     -999.99   59.0724
 465.5     -999.99   61.58956
 466     -999.99   62.98895
 466.5     -999.99   62.99199
 467     -999.99   62.99503
 467.5     -999.99   62.04004
 468     -999.99   60.99004
 468.5     -999.99   59.94003
 469     -999.99   61.40524
 469.5     -999.99   66.19047
 470     -999.99   71.16567
 470.5     -999.99   76.14088
 471     -999.99   78.78356
 471.5     -999.99   79.81744
 472     -999.99   79.14866
 472.5     -999.99   76.91241
 473     -999.99   74.67616
 473.5     -999.99   72.43991
 474     -999.99   69.43366
 474.5     -999.99   66.42265
 475     -999.99   63.41164
 475.5     -999.99   60.40063
 476     -999.99   57.54166
 476.5     -999.99   54.82109
 477     -999.99   52.10052
 477.5     -999.99   50.55191
 478     -999.99   50.77233
 478.5     -999.99   50.99274
 479     -999.99   50.8125
 479.5     -999.99   50.15015
 480     -999.99   49.48781
 480.5     -999.99   50.23829
 481     -999.99   51.16663
 481.5     -999.99   52.09497
 482     -999.99   53.02332
 482.5     -999.99   52.87423
 483     -999.99   52.3384
 483.5     -999.99   51.80257
 484     -999.99   51.26675
 484.5     -999.99   50.73092
 485     -999.99   50.42144
 485.5     -999.99   51.08232
 486     -999.99   51.7432
 486.5     -999.99   52.79221
 487     -999.99   54.89665
 487.5     -999.99   58.56201
 488     -999.99   62.72536
 488.5     -999.99   63.06716
 489     -999.99   63.40896
 489.5     -999.99   61.83103
 490     -999.99   58.79784
 490.5     -999.99   55.76465
 491     -999.99   52.73146
 491.5     -999.99   51.47176
 492     -999.99   50.24166
 492.5     -999.99   50.16411
 493     -999.99   52.16188
 493.5     -999.99   55.47834
 494     -999.99   58.7948
 494.5     -999.99   62.11126
 495     126.94574   65.42772
 495.5     127.15843   68.10578
 496     127.37111   69.80429
 496.5     126.67306   69.46654
 497     125.9673   68.44836
 497.5     125.26155   66.62257
 498     124.55579   64.79677
 498.5     117.24494   62.97098
 499     117.92661   61.14518
 499.5     119.16594   59.31939
 500     120.40526   59.38415
 500.5     121.64458   59.97108
 501     122.88391   60.55801
 501.5     124.12323   60.35544
 502     124.48751   60.02406
 502.5     124.39922   60.04458
 503     124.31093   60.85386
 503.5     124.22264   61.66314
 504     124.22542   61.92734
 504.5     124.35503   61.36388
 505     124.48463   60.80042
 505.5     124.61423   60.23696
 506     124.74384   59.6735
 506.5     124.87344   59.11004
 507     125.00304   58.54658
 507.5     124.95866   58.608
 508     124.79932   58.67417
 508.5     124.63998   58.74035
 509     124.48065   60.85497
 509.5     124.24074   64.2428
 510     123.87529   67.63064
 510.5     123.50983   66.96253
 511     123.14438   65.53229
 511.5     122.77892   64.10204
 512     122.41347   62.6718
 512.5     122.456   61.24155
 513     122.91746   62.38495
 513.5     123.37891   65.0453
 514     123.84037   67.70564
 514.5     122.40788   70.33583
 515     119.93537   69.84841
 515.5     117.46286   68.82527
 516     116.68563   67.80214
 516.5     116.6135   66.779
 517     116.54136   65.75587
 517.5     116.46922   65.04028
 518     116.39709   64.48123
 518.5     116.32495   63.92218
 519     116.25282   63.82969
 519.5     116.19147   63.83274
 520     116.14487   64.97558
 520.5     116.09827   66.54092
 521     116.05167   68.10625
 521.5     116.00507   69.65568
 522     116.43198   71.17311
 522.5     117.23906   72.69055
 523     118.04613   74.20799
 523.5     117.42891   74.06687
 524     116.64297   72.7895
 524.5     119.08099   71.30093
 525     123.43065   69.75856
 525.5     127.78031   68.2162
 526     132.92776   66.67383
 526.5     139.62917   65.33788
 527     146.33057   65.79984
 527.5     153.03198   66.2618
 528     157.48461   66.72376
 528.5     151.75121   67.88531
 529     132.3596   69.45206
 529.5     111.92967   71.01881
 530     111.28374   82.51214
 530.5     111.80856   83.37812
 531     112.45103   83.63522
 531.5     113.09351   83.89232
 532     113.73598   85.10799
 532.5     113.30156   86.23852
 533     112.85752   87.04073
 533.5     112.41348   87.84294
 534     111.23071   88.40356
 534.5     109.24144   87.70872
 535     107.25217   87.01389
 535.5     105.2629   86.31905
 536     104.11264   85.3462
 536.5     103.05662   84.19672
 537     102.0006   82.39883
 537.5     100.94458   79.84573
 538     99.88856   77.90112
 538.5     99.19001   77.8125
 539     99.15863   77.72389
 539.5     99.12725   77.63528
 540     97.80225   77.58246
 540.5     96.3538   77.58553
 541     94.90535   77.5886
 541.5     93.45689   75.96162
 542     92.00844   74.23006
 542.5     92.0555   72.4985
 543     93.39745   69.1956
 543.5     94.73941   65.94325
 544     96.08137   67.24256
 544.5     103.06577   68.54187
 545     102.37489   81.84037
 545.5     101.68402   84.66123
 546     100.95039   87.48209
 546.5     99.28702   90.30294
 547     97.62366   90.18735
 547.5     95.9603   88.59253
 548     96.78604   86.99771
 548.5     98.42281   85.40289
 549     97.59587   83.80807
 549.5     94.99646   83.43668
 550     92.39706   86.96277
 550.5     89.79765   90.48886
 551     87.19825   94.01495
 551.5     87.2602   93.00917
 552     88.60392   91.88356
 552.5     88.94889   90.75795
 553     88.57101   89.63233
 553.5     88.19313   88.50672
 554     87.93078   87.38111
 554.5     90.41588   86.2555
 555     92.90099   87.16644
 555.5     95.38609   90.57213
 556     97.8712   94.01688
 556.5     109.16537   97.66453
 557     107.82005   101.31217
 557.5     106.47474   104.95982
 558     105.12942   109.31343
 558.5     105.65033   113.7383
 559     106.97611   118.16317
 559.5     108.3019   121.91181
 560     109.25338   123.46921
 560.5     108.48194   123.30405
 561     107.71049   122.82537
 561.5     106.93905   121.57043
 562     106.1676   120.3155
 562.5     105.39616   118.99592
 563     104.68089   116.52342
