#--------------------------------------------------#
#-------------------ENVERUS, INC.------------------#
#------------------WWW.ENVERUS.COM-----------------#
#------------------COPYRIGHT 2020------------------#
#--------------------------------------------------#
#THIS FILE MAY BE USED ONLY IN ACCORDANCE WITH A CURRENT SUBSCRIPTION AGREEMENT BETWEEN
#THE USER AND ENVERUS, INC. NO PART OF THIS FILE MAY BE REPRODUCED, USED, COPIED,
#MODIFIED, PROPAGATED, OR DISTRIBUTED EXCEPT IN ACCORDANCE WITH THE SUBSCRIPTION
#AGREEMENT. UNAUTHORIZED USE OR DISTRIBUTION OF ALL OR ANY PART OF THIS FILE MAY VIOLATE
#COPYRIGHT, TRADEMARK, AND/OR OTHER LAWS AND IS SUBJECT TO CIVIL AS WELL AS CRIMINAL
#SANCTIONS.
#--------------------------------------------------#
#THIS FILE IS PROVIDED "AS-IS" AND ALL WARRANTIES ARE EXPRESSLY DISCLAIMED, WHETHER
#EXPRESS, ORAL, IMPLIED, STATUTORY OR OTHERWISE, INCLUDING ANY IMPLIED WARRANTY OF FITNESS
#FOR A PARTICULAR PURPOSE, MERCHANTABILITY, TITLE OR NON-INFRINGEMENT, AND ANY WARRANTIES
#ARISING BY VIRTUE OF CUSTOM OF TRADE OR COURSE OF DEALING.  FURTHER, ENVERUS, INC.
#AND ITS LICENSORS DO NOT REPRESENT OR WARRANT THAT THIS FILE WILL MEET USER'S
#REQUIREMENTS OR ARE SUITABLE FOR USER'S NEEDS OR THAT THE DATA OR RESULTS PROVIDED IN
#CONJUNCTION THEREWITH ARE CORRECT, ACCURATE, TIMELY OR RELIABLE. THESE DISCLAIMERS SHALL
#APPLY REGARDLESS OF ANY FAILURE OF ESSENTIAL PURPOSE OF ANY LIMITED REMEDY.  SOME
#JURISDICTIONS DO NOT ALLOW THE EXCLUSION OF CERTAIN WARRANTIES SO SOME OF THE ABOVE
#EXCLUSIONS MAY NOT APPLY. IN NO EVENT SHALL ENVERUS, INC. OR ANY OF ITS AFFILIATES
#BE LIABLE UNDER ANY LEGAL THEORY, WHETHER IN TORT (INCLUDING WITHOUT LIMITATION
#NEGLIGENCE), CONTRACT, STRICT LIABILITY, STATUTORY OR OTHERWISE, FOR ANY SPECIAL,
#INCIDENTAL, CONSEQUENTIAL, EXEMPLARY, PUNITIVE OR INDIRECT DAMAGE OF ANY KIND, INCLUDING
#WITHOUT LIMITATION LOSS OF REVENUE, PROFITS, GOODWILL, USE, AND/OR DATA OR THE COST OF
#PROCUREMENT OF SUBSTITUTE GOODS OR SERVICES, EVEN IF APPRISED OF THE POSSIBILITY OF SUCH
#DAMAGES IN ADVANCE.
#--------------------------------------------------#

~VERSION INFORMATION
VERS. 2.0 : CWLS LOG ASCII STANDARD - VERSION 2.0
WRAP.  NO : ONE LINE PER DEPTH STEP
~WELL INFORMATION
#MNEMONIC     .UNIT              VALUE :DESCRIPTION
STRT       .FT                -3 :START DEPTH
STOP       .FT                21524 :STOP DEPTH
STEP       .FT                   0.500 :STEP
NULL       .                  -999.99 :NULL
UWI        .                42389105080000 :UNIQUE WELL ID
API        .                42389105080000 :API NUMBER
COMP       .         :COMPANY
WELL       .        :WELL
DATE       .                 :LOG DATE
FLD       .                 :FIELD NAME
LOC       .                  UNK :LOCATION
CNTY       .                 UNK :COUNTY
STAT       .                 UNK :STATE
CTRY       .                 UNK :COUNTY
SRVC       .                 UNK :SERVICE COMPANY
~CURVE INFORMATION
#MNEMONIC     .UNIT      API CODE :CURVE DESCRIPTION
DEPTH       .FT                      :MEASURED DEPTH
CAL.IN        UNKNOWN   :CAL
DT.MSEC/FT        UNKNOWN   :DT
GR.API        UNKNOWN   :GR
~A    DEPTH    CAL    DT    GR
# ...
 17491     7.27549   80.0526   195.69806
 17491.5     7.24668   81.08593   195.70897
 17492     7.21786   79.94228   195.71987
 17492.5     7.18905   78.79864   195.73077
 17493     7.16896   78.28301   195.74167
 17493.5     7.16265   78.8865   195.75258
 17494     7.15634   79.49   195.76348
 17494.5     7.15002   80.09164   195.77438
 17495     7.14371   79.33636   195.78528
 17495.5     7.1374   78.58108   195.79618
 17496     7.13109   78.98455   195.80709
 17496.5     7.12519   79.58496   195.81799
 17497     7.12645   80.18538   195.82889
 17497.5     7.12771   80.78579   195.83979
 17498     7.12897   81.38621   195.8507
 17498.5     7.13024   81.98662   195.8616
 17499     7.1315   82.58704   195.8725
 17499.5     7.13276   82.90945   195.8834
 17500     7.13402   77.90387   195.8943
 17500.5     7.13528   77.85215   195.90521
 17501     7.13654   78.64228   195.91611
 17501.5     7.13781   79.43241   195.92701
 17502     7.13907   80.04316   195.93791
 17502.5     7.14033   79.74167   195.94882
 17503     7.14159   79.44017   195.95972
 17503.5     7.14285   79.13868   195.97062
 17504     7.1376   79.06852   195.98152
 17504.5     7.12259   79.41755   195.99243
 17505     7.10758   79.76657   196.00333
 17505.5     7.09257   80.11559   196.01423
 17506     7.07755   80.46462   196.02513
 17506.5     7.06254   77.49606   196.03603
 17507     7.04753   74.17713   196.04694
 17507.5     7.03252   70.85821   196.05784
 17508     7.01751   73.54599   196.06874
 17508.5     7.0025   76.39627   196.07964
 17509     6.98749   77.13969   196.09055
 17509.5     6.97248   75.84978   196.10145
 17510     6.95747   76.91311   196.11235
 17510.5     6.94246   78.13261   196.12325
 17511     6.93842   79.27579   196.13415
 17511.5     6.93646   79.15173   196.14506
 17512     6.93449   79.01267   196.15596
 17512.5     6.93252   78.87362   196.16686
 17513     6.93055   78.73457   196.17776
 17513.5     6.92858   78.59552   196.18867
 17514     6.92661   78.46518   196.19957
 17514.5     6.92464   78.94788   196.21047
 17515     6.92268   79.43059   196.22137
 17515.5     6.92071   78.68026   196.23228
 17516     6.91874   79.17727   196.24318
 17516.5     6.91677   79.67428   196.25408
 17517     6.9148   80.17129   196.26498
 17517.5     6.91284   80.6683   196.27588
 17518     6.91087   81.30308   196.28679
 17518.5     6.9089   81.94118   196.29769
 17519     6.90694   78.06181   196.30859
 17519.5     6.90497   75.86265   196.31949
 17520     6.90301   74.92381   196.3304
 17520.5     6.90104   75.16929   196.3413
 17521     6.89907   75.86818   196.3522
 17521.5     6.89711   76.56001   196.3631
 17522     6.89514   77.25184   196.374
 17522.5     6.89318   78.49536   196.38491
 17523     6.89121   80.68789   196.39581
 17523.5     6.88924   82.61624   196.40671
 17524     6.88728   80.94597   196.41761
 17524.5     6.88531   79.27571   196.42852
 17525     6.88334   77.60544   196.43942
 17525.5     6.88138   76.35733   196.45032
 17526     6.87941   77.02512   196.46122
 17526.5     6.87745   77.69291   196.47213
 17527     6.87548   78.36071   196.48303
 17527.5     6.87351   79.67874   196.49393
 17528     6.87155   81.43424   196.40729
 17528.5     6.86958   83.18973   195.86462
 17529     6.86762   84.98084   195.32195
 17529.5     6.86565   86.7977   194.77927
 17530     6.86368   88.61457   194.2366
 17530.5     6.86172   90.43143   193.69393
 17531     6.85975   92.13491   193.15126
 17531.5     6.85778   88.04171   192.68695
 17532     6.85582   84.64793   193.09216
 17532.5     6.85385   83.18496   193.49736
 17533     6.85189   81.72199   193.90257
 17533.5     6.84992   80.25902   194.30778
 17534     6.84795   78.79605   186.89137
 17534.5     6.84599   78.25952   169.70702
 17535     6.84402   78.1002   152.52267
 17535.5     6.84206   77.94088   135.33831
 17536     6.84009   77.78156   118.15396
 17536.5     6.83812   77.62225   103.25249
 17537     6.84176   71.20013   103.94002
 17537.5     6.84567   63.95236   104.62755
 17538     6.84958   69.13655   113.16468
 17538.5     6.85349   71.46164   123.62214
 17539     6.8574   72.16259   134.07961
 17539.5     6.8613   72.86354   144.53707
 17540     6.86521   73.56449   154.99453
 17540.5     6.86912   74.26544   165.45199
 17541     6.87303   74.9664   173.07419
 17541.5     6.87694   75.66735   174.30265
 17542     6.8795   76.3683   175.5311
 17542.5     6.87799   77.00625   175.02125
 17543     6.87647   77.63057   170.33866
 17543.5     6.87495   78.25489   162.69673
 17544     6.87344   77.44556   155.0548
 17544.5     6.87192   76.5583   147.41287
 17545     6.87041   75.67103   139.77094
 17545.5     6.86889   74.78377   132.12901
 17546     6.86738   73.8965   130.56122
 17546.5     6.86586   73.00924   130.34265
 17547     6.86434   73.08545   130.12408
 17547.5     6.86283   73.18344   139.42072
 17548     6.86131   73.28142   151.22158
 17548.5     6.8598   74.0496   163.02244
 17549     6.85828   75.51907   168.40839
 17549.5     6.85677   76.17494   167.78059
 17550     6.85525   73.96345   167.15278
 17550.5     6.85373   74.84791   157.12853
 17551     6.85222   75.78056   161.87334
 17551.5     6.8507   76.71321   176.21699
 17552     6.84919   77.64586   190.56064
 17552.5     6.84767   78.57852   191.27589
 17553     6.84616   79.27115   191.53367
 17553.5     6.84464   78.23031   191.79144
 17554     6.84312   77.18946   192.04922
 17554.5     6.84161   76.14862   192.307
 17555     6.84009   73.24964   192.56478
 17555.5     6.83858   69.99157   192.82256
 17556     6.83706   66.7335   193.08034
 17556.5     6.83555   67.62404   193.33812
 17557     6.83403   68.84157   193.5959
 17557.5     6.83251   70.0591   193.85368
 17558     6.831   71.27663   194.11146
 17558.5     6.82948   70.63038   194.36923
 17559     6.82797   68.77701   194.62701
 17559.5     6.82596   70.29947   194.88479
 17560     6.82269   71.82193   195.14257
 17560.5     6.81942   73.3444   195.40035
 17561     6.81614   74.86686   195.5516
 17561.5     6.81287   76.38933   195.65714
 17562     6.80959   70.85041   195.76268
 17562.5     6.80632   69.62463   195.86822
 17563     6.80304   68.39885   195.97376
 17563.5     6.80236   67.17307   196.0793
 17564     6.80183   67.26969   196.18484
 17564.5     6.80131   68.05906   196.29038
 17565     6.80079   68.84843   196.39592
 17565.5     6.80026   68.33739   196.50147
 17566     6.79974   67.3545   196.60701
 17566.5     6.79921   66.37162   196.71255
 17567     6.79869   65.38873   196.81809
 17567.5     6.79816   69.41216   196.66283
 17568     6.79764   74.52307   196.40051
 17568.5     6.79711   79.63397   196.1382
 17569     6.79659   84.74487   195.87589
 17569.5     6.79606   83.63822   195.61358
 17570     6.79554   79.98085   195.35127
 17570.5     6.79502   76.32347   195.08896
 17571     6.79449   73.3162   194.82664
 17571.5     6.79397   71.6785   186.41721
 17572     6.79344   70.0408   173.54678
 17572.5     6.79292   68.40311   160.67635
 17573     6.79239   66.76541   147.80591
 17573.5     6.79187   65.60131   134.93548
 17574     6.79134   65.47699   122.06505
 17574.5     6.79082   65.1876   109.19462
 17575     6.79029   64.40829   99.69701
 17575.5     6.78977   63.62898   96.56836
 17576     6.78924   62.84967   93.13593
 17576.5     6.78872   63.12175   89.75856
 17577     6.7882   63.43541   87.5013
 17577.5     6.78767   63.74908   87.95239
 17578     6.78715   63.76244   88.40348
 17578.5     6.78662   63.36073   98.40556
 17579     6.7861   62.95903   133.57973
 17579.5     6.78557   62.55732   133.90236
 17580     6.78505   62.55824   115.98947
 17580.5     6.78452   63.22378   96.04257
 17581     6.784   63.88932   88.3782
 17581.5     6.78347   64.55485   85.63828
 17582     6.78295   65.19915   83.42359
 17582.5     6.78243   64.04233   75.6438
 17583     6.7819   62.4688   60.67351
 17583.5     6.78138   56.72699   45.70322
 17584     6.78085   54.22679   30.73294
 17584.5     6.78033   53.61222   22.39862
