#--------------------------------------------------#
#-------------------ENVERUS, INC.------------------#
#------------------WWW.ENVERUS.COM-----------------#
#------------------COPYRIGHT 2020------------------#
#--------------------------------------------------#
#THIS FILE MAY BE USED ONLY IN ACCORDANCE WITH A CURRENT SUBSCRIPTION AGREEMENT BETWEEN
#THE USER AND ENVERUS, INC. NO PART OF THIS FILE MAY BE REPRODUCED, USED, COPIED,
#MODIFIED, PROPAGATED, OR DISTRIBUTED EXCEPT IN ACCORDANCE WITH THE SUBSCRIPTION
#AGREEMENT. UNAUTHORIZED USE OR DISTRIBUTION OF ALL OR ANY PART OF THIS FILE MAY VIOLATE
#COPYRIGHT, TRADEMARK, AND/OR OTHER LAWS AND IS SUBJECT TO CIVIL AS WELL AS CRIMINAL
#SANCTIONS.
#--------------------------------------------------#
#THIS FILE IS PROVIDED "AS-IS" AND ALL WARRANTIES ARE EXPRESSLY DISCLAIMED, WHETHER
#EXPRESS, ORAL, IMPLIED, STATUTORY OR OTHERWISE, INCLUDING ANY IMPLIED WARRANTY OF FITNESS
#FOR A PARTICULAR PURPOSE, MERCHANTABILITY, TITLE OR NON-INFRINGEMENT, AND ANY WARRANTIES
#ARISING BY VIRTUE OF CUSTOM OF TRADE OR COURSE OF DEALING.  FURTHER, ENVERUS, INC.
#AND ITS LICENSORS DO NOT REPRESENT OR WARRANT THAT THIS FILE WILL MEET USER'S
#REQUIREMENTS OR ARE SUITABLE FOR USER'S NEEDS OR THAT THE DATA OR RESULTS PROVIDED IN
#CONJUNCTION THEREWITH ARE CORRECT, ACCURATE, TIMELY OR RELIABLE. THESE DISCLAIMERS SHALL
#APPLY REGARDLESS OF ANY FAILURE OF ESSENTIAL PURPOSE OF ANY LIMITED REMEDY.  SOME
#JURISDICTIONS DO NOT ALLOW THE EXCLUSION OF CERTAIN WARRANTIES SO SOME OF THE ABOVE
#EXCLUSIONS MAY NOT APPLY. IN NO EVENT SHALL ENVERUS, INC. OR ANY OF ITS AFFILIATES
#BE LIABLE UNDER ANY LEGAL THEORY, WHETHER IN TORT (INCLUDING WITHOUT LIMITATION
#NEGLIGENCE), CONTRACT, STRICT LIABILITY, STATUTORY OR OTHERWISE, FOR ANY SPECIAL,
#INCIDENTAL, CONSEQUENTIAL, EXEMPLARY, PUNITIVE OR INDIRECT DAMAGE OF ANY KIND, INCLUDING
#WITHOUT LIMITATION LOSS OF REVENUE, PROFITS, GOODWILL, USE, AND/OR DATA OR THE COST OF
#PROCUREMENT OF SUBSTITUTE GOODS OR SERVICES, EVEN IF APPRISED OF THE POSSIBILITY OF SUCH
#DAMAGES IN ADVANCE.
#--------------------------------------------------#

~VERSION INFORMATION
VERS. 2.0 : CWLS LOG ASCII STANDARD - VERSION 2.0
WRAP.  NO : ONE LINE PER DEPTH STEP
~WELL INFORMATION
#MNEMONIC     .UNIT              VALUE :DESCRIPTION
STRT       .FT                101 :START DEPTH
STOP       .FT                5382 :STOP DEPTH
STEP       .FT                   0.500 :STEP
NULL       .                  -999.990 :NULL
UWI        .              42389007790000 :UNIQUE WELL ID
API        .              42389007790000 :API NUMBER
COMP       .         :COMPANY
WELL       .         1, :WELL
DATE       .                            :LOG DATE
~CURVE INFORMATION
#MNEMONIC     .UNIT      API CODE :CURVE DESCRIPTION
DEPTH       .FT                      :MEASURED DEPTH
DT.US/FT        UNKNOWN   :DT
GR.API        UNKNOWN   :GR
~A    DEPTH    DT    GR
# ...
 4175     46.414   7.973
 4175.5     46.107   8.568
 4176     45.799   8.52
 4176.5     45.869   8.472
 4177     46.01   8.423
 4177.5     46.152   8.375
 4178     46.293   8.327
 4178.5     46.434   8.351
 4179     46.528   9.033
 4179.5     46.444   9.716
 4180     46.361   10.398
 4180.5     46.278   11.002
 4181     46.194   10.455
 4181.5     46.111   9.907
 4182     46.027   9.359
 4182.5     45.944   8.812
 4183     45.861   8.264
 4183.5     45.777   7.716
 4184     45.929   8.156
 4184.5     46.226   8.641
 4185     46.523   8.933
 4185.5     46.82   8.971
 4186     47.117   9.008
 4186.5     47.413   9.045
 4187     47.71   9.083
 4187.5     48.007   9.12
 4188     48.304   9.157
 4188.5     48.542   9.194
 4189     48.662   9.232
 4189.5     48.782   11.335
 4190     48.901   13.911
 4190.5     49.021   15.162
 4191     48.542   13.652
 4191.5     47.844   12.142
 4192     47.146   10.633
 4192.5     46.447   9.123
 4193     46.047   7.613
 4193.5     46.228   6.104
 4194     46.41   6.163
 4194.5     46.591   7.023
 4195     46.772   7.883
 4195.5     46.953   8.742
 4196     47.135   9.602
 4196.5     47.316   10.462
 4197     47.497   10.747
 4197.5     47.678   10.674
 4198     47.859   10.601
 4198.5     48.041   10.527
 4199     48.222   9.394
 4199.5     48.403   7.418
 4200     48.584   5.442
 4200.5     48.648   4.71
 4201     48.579   5.371
 4201.5     48.511   6.033
 4202     48.442   6.694
 4202.5     48.374   7.356
 4203     48.305   8.017
 4203.5     48.236   7.898
 4204     48.168   7.712
 4204.5     48.182   7.526
 4205     48.33   7.34
 4205.5     48.477   7.154
 4206     48.624   6.968
 4206.5     48.771   6.782
 4207     48.919   6.596
 4207.5     49.066   7.747
 4208     48.991   9.236
 4208.5     48.836   10.724
 4209     48.68   12.213
 4209.5     48.525   12.999
 4210     48.37   12.005
 4210.5     48.3   11.01
 4211     48.574   10.532
 4211.5     48.848   11.883
 4212     49.123   13.235
 4212.5     49.397   14.587
 4213     49.671   15.939
 4213.5     49.945   15.511
 4214     49.95   14.319
 4214.5     49.684   13.128
 4215     49.418   11.936
 4215.5     49.152   10.744
 4216     48.886   9.608
 4216.5     48.62   9.153
 4217     48.509   8.698
 4217.5     48.554   8.242
 4218     48.599   7.787
 4218.5     48.644   7.332
 4219     48.61   6.877
 4219.5     48.47   6.421
 4220     48.331   5.966
 4220.5     48.191   5.511
 4221     48.052   5.055
 4221.5     47.912   4.943
 4222     47.773   5.358
 4222.5     47.719   5.773
 4223     47.803   6.188
 4223.5     47.886   6.603
 4224     47.97   7.018
 4224.5     48.054   7.432
 4225     48.054   7.847
 4225.5     47.838   8.262
 4226     47.622   8.677
 4226.5     47.406   8.766
 4227     47.191   8.767
 4227.5     46.975   9.13
 4228     46.759   10.55
 4228.5     46.543   11.97
 4229     46.328   13.39
 4229.5     46.112   14.81
 4230     45.896   14.198
 4230.5     46.181   12.859
 4231     46.631   11.52
 4231.5     47.08   10.18
 4232     47.53   9.766
 4232.5     47.979   9.868
 4233     48.416   9.97
 4233.5     48.406   9.782
 4234     48.396   9.402
 4234.5     48.385   9.022
 4235     48.375   8.642
 4235.5     48.365   8.261
 4236     48.354   7.89
 4236.5     48.615   8.41
 4237     48.892   8.929
 4237.5     49.169   9.449
 4238     49.446   9.968
 4238.5     49.724   10.488
 4239     50.001   11.007
 4239.5     49.898   11.527
 4240     49.672   10.839
 4240.5     49.446   10.072
 4241     49.22   9.304
 4241.5     48.994   9.068
 4242     48.767   9.742
 4242.5     48.641   10.415
 4243     48.83   11.089
 4243.5     49.019   11.763
 4244     49.208   11.385
 4244.5     49.397   10.788
 4245     49.586   10.19
 4245.5     49.743   9.592
 4246     49.556   8.995
 4246.5     49.369   9.596
 4247     49.182   10.629
 4247.5     48.995   11.661
 4248     48.808   12.693
 4248.5     48.621   13.725
 4249     48.434   13.475
 4249.5     48.247   12.679
 4250     47.731   11.883
 4250.5     46.943   11.087
 4251     46.661   10.29
 4251.5     46.714   9.494
 4252     46.768   8.998
 4252.5     46.821   8.715
 4253     46.868   8.432
 4253.5     46.654   8.149
 4254     46.44   7.867
 4254.5     46.226   7.584
 4255     46.017   7.301
 4255.5     46.357   7.019
 4256     46.698   6.736
 4256.5     47.038   6.453
 4257     47.379   6.941
 4257.5     47.412   7.487
 4258     47.4   8.032
 4258.5     47.387   8.578
 4259     47.375   9.123
 4259.5     47.363   9.669
 4260     47.35   10.214
 4260.5     47.338   10.76
 4261     47.326   11.305
 4261.5     47.313   11.851
 4262     47.301   12.447
 4262.5     47.673   13.053
 4263     48.189   13.659
 4263.5     48.705   14.264
 4264     49.221   14.87
 4264.5     49.738   14.244
 4265     49.785   13.267
 4265.5     49.371   12.291
 4266     48.956   11.315
 4266.5     48.541   10.339
 4267     48.127   9.453
 4267.5     47.712   9.026
 4268     47.298   8.599
 4268.5     46.883   8.172
 4269     46.511   7.745
 4269.5     46.712   7.319
 4270     46.913   6.892
 4270.5     47.115   6.528
 4271     47.316   7.515
 4271.5     47.517   8.501
 4272     47.719   9.487
 4272.5     47.92   10.448
 4273     48.121   9.851
 4273.5     48.067   9.253
 4274     47.969   8.656
 4274.5     47.872   8.058
 4275     47.774   8.007
 4275.5     47.677   8.668
 4276     47.58   9.329
 4276.5     47.482   9.99
 4277     47.447   10.651
 4277.5     47.566   11.312
 4278     47.686   9.909
 4278.5     47.806   8.225
 4279     47.834   6.542
 4279.5     47.489   7.087
 4280     47.144   8.18
 4280.5     47.375   9.274
 4281     47.846   10.367
 4281.5     48.316   11.46
 4282     48.787   10.189
 4282.5     49.257   8.732
 4283     49.091   9.035
 4283.5     48.28   9.338
 4284     47.469   9.642
 4284.5     46.947   9.945
 4285     49.205   10.248
 4285.5     51.462   10.374
 4286     53.72   9.538
 4286.5     55.977   8.702
 4287     58.235   7.866
 4287.5     60.493   7.03
 4288     62.75   6.226
 4288.5     65.008   5.947
 4289     67.044   5.669
 4289.5     66.966   5.391
 4290     66.889   5.112
 4290.5     66.811   4.834
 4291     66.734   4.555
 4291.5     63.573   4.277
 4292     59.676   6.286
 4292.5     55.779   5.676
 4293     52.514   4.738
 4293.5     49.958   3.8
 4294     47.403   3.685
 4294.5     44.77   4.956
 4295     43.766   6.227
 4295.5     44.768   7.498
 4296     45.771   8.769
 4296.5     46.774   10.04
 4297     47.776   10.495
 4297.5     48.328   10.798
 4298     48.624   11.102
 4298.5     48.353   11.405
 4299     48.199   11.708
 4299.5     48.405   9.769
 4300     48.611   8.172
 4300.5     48.817   9.715
 4301     49.023   11.257
 4301.5     49.229   12.799
 4302     48.815   14.342
 4302.5     48.369   15.884
 4303     47.69   17.427
 4303.5     46.751   18.969
 4304     46.04   22.195
 4304.5     49.056   24.283
 4305     52.071   20.192
 4305.5     55.087   16.632
 4306     58.103   16.307
 4306.5     61.118   15.981
 4307     64.134   15.656
 4307.5     65.808   15.33
 4308     67.454   15.004
 4308.5     66.509   7.645
 4309     64.679   6.471
 4309.5     62.849   5.398
 4310     61.197   4.979
 4310.5     62.344   5.398
 4311     63.492   5.818
 4311.5     64.639   6.237
 4312     65.385   6.656
 4312.5     65.029   7.076
 4313     64.673   7.495
 4313.5     64.316   7.331
 4314     63.96   7.075
 4314.5     63.053   6.82
 4315     61.998   6.564
 4315.5     62.389   6.309
 4316     62.996   6.053
 4316.5     63.603   5.798
 4317     64.21   5.229
 4317.5     64.817   4.557
 4318     64.64   3.885
 4318.5     63.982   3.213
 4319     64.881   3.985
 4319.5     65.311   5.445
 4320     64.668   6.461
 4320.5     64.024   5.27
 4321     63.539   4.241
 4321.5     64.324   4.376
 4322     65.11   4.512
 4322.5     65.896   4.648
 4323     66.681   4.784
 4323.5     67.467   4.507
 4324     65.858   3.909
 4324.5     63.673   3.312
 4325     61.489   2.715
 4325.5     60.172   3.342
 4326     62.192   5.249
 4326.5     64.212   7.155
 4327     63.638   9.062
 4327.5     62.751   10.003
 4328     65.316   9.919
