#--------------------------------------------------#
#-------------------ENVERUS, INC.------------------#
#------------------WWW.ENVERUS.COM-----------------#
#------------------COPYRIGHT 2020------------------#
#--------------------------------------------------#
#THIS FILE MAY BE USED ONLY IN ACCORDANCE WITH A CURRENT SUBSCRIPTION AGREEMENT BETWEEN
#THE USER AND ENVERUS, INC. NO PART OF THIS FILE MAY BE REPRODUCED, USED, COPIED,
#MODIFIED, PROPAGATED, OR DISTRIBUTED EXCEPT IN ACCORDANCE WITH THE SUBSCRIPTION
#AGREEMENT. UNAUTHORIZED USE OR DISTRIBUTION OF ALL OR ANY PART OF THIS FILE MAY VIOLATE
#COPYRIGHT, TRADEMARK, AND/OR OTHER LAWS AND IS SUBJECT TO CIVIL AS WELL AS CRIMINAL
#SANCTIONS.
#--------------------------------------------------#
#THIS FILE IS PROVIDED "AS-IS" AND ALL WARRANTIES ARE EXPRESSLY DISCLAIMED, WHETHER
#EXPRESS, ORAL, IMPLIED, STATUTORY OR OTHERWISE, INCLUDING ANY IMPLIED WARRANTY OF FITNESS
#FOR A PARTICULAR PURPOSE, MERCHANTABILITY, TITLE OR NON-INFRINGEMENT, AND ANY WARRANTIES
#ARISING BY VIRTUE OF CUSTOM OF TRADE OR COURSE OF DEALING.  FURTHER, ENVERUS, INC.
#AND ITS LICENSORS DO NOT REPRESENT OR WARRANT THAT THIS FILE WILL MEET USER'S
#REQUIREMENTS OR ARE SUITABLE FOR USER'S NEEDS OR THAT THE DATA OR RESULTS PROVIDED IN
#CONJUNCTION THEREWITH ARE CORRECT, ACCURATE, TIMELY OR RELIABLE. THESE DISCLAIMERS SHALL
#APPLY REGARDLESS OF ANY FAILURE OF ESSENTIAL PURPOSE OF ANY LIMITED REMEDY.  SOME
#JURISDICTIONS DO NOT ALLOW THE EXCLUSION OF CERTAIN WARRANTIES SO SOME OF THE ABOVE
#EXCLUSIONS MAY NOT APPLY. IN NO EVENT SHALL ENVERUS, INC. OR ANY OF ITS AFFILIATES
#BE LIABLE UNDER ANY LEGAL THEORY, WHETHER IN TORT (INCLUDING WITHOUT LIMITATION
#NEGLIGENCE), CONTRACT, STRICT LIABILITY, STATUTORY OR OTHERWISE, FOR ANY SPECIAL,
#INCIDENTAL, CONSEQUENTIAL, EXEMPLARY, PUNITIVE OR INDIRECT DAMAGE OF ANY KIND, INCLUDING
#WITHOUT LIMITATION LOSS OF REVENUE, PROFITS, GOODWILL, USE, AND/OR DATA OR THE COST OF
#PROCUREMENT OF SUBSTITUTE GOODS OR SERVICES, EVEN IF APPRISED OF THE POSSIBILITY OF SUCH
#DAMAGES IN ADVANCE.
#--------------------------------------------------#

~VERSION INFORMATION
VERS. 2.0 : CWLS LOG ASCII STANDARD - VERSION 2.0
WRAP.  NO : ONE LINE PER DEPTH STEP
~WELL INFORMATION
#MNEMONIC     .UNIT              VALUE :DESCRIPTION
STRT       .FT                101 :START DEPTH
STOP       .FT                5382 :STOP DEPTH
STEP       .FT                   0.500 :STEP
NULL       .                  -999.990 :NULL
UWI        .              42389007790000 :UNIQUE WELL ID
API        .              42389007790000 :API NUMBER
COMP       .         :COMPANY
WELL       .         1, :WELL
DATE       .                            :LOG DATE
~CURVE INFORMATION
#MNEMONIC     .UNIT      API CODE :CURVE DESCRIPTION
DEPTH       .FT                      :MEASURED DEPTH
DT.US/FT        UNKNOWN   :DT
GR.API        UNKNOWN   :GR
~A    DEPTH    DT    GR
# ...
 5242     77.268   40.573
 5242.5     74.759   43.755
 5243     76.24   48.892
 5243.5     77.721   54.03
 5244     79.203   59.168
 5244.5     80.684   64.305
 5245     82.166   62.415
 5245.5     83.177   60.424
 5246     81.955   58.433
 5246.5     80.734   56.442
 5247     79.512   54.45
 5247.5     78.818   52.459
 5248     79.215   50.468
 5248.5     79.612   48.477
 5249     80.008   46.486
 5249.5     80.333   44.494
 5250     79.922   42.503
 5250.5     79.637   49.118
 5251     75.032   56.401
 5251.5     75.368   63.313
 5252     75.705   68.675
 5252.5     76.041   74.038
 5253     75.545   71.44
 5253.5     74.799   67.43
 5254     74.053   63.42
 5254.5     74.419   59.698
 5255     75.024   64.519
 5255.5     75.325   69.34
 5256     74.449   74.161
 5256.5     73.738   74.166
 5257     73.51   72.354
 5257.5     73.281   70.543
 5258     73.053   68.731
 5258.5     72.825   66.919
 5259     72.597   67.407
 5259.5     72.369   67.895
 5260     72.141   70.129
 5260.5     71.858   74.311
 5261     71.367   75.459
 5261.5     70.875   74.283
 5262     70.383   73.108
 5262.5     69.982   71.932
 5263     69.885   70.756
 5263.5     69.788   69.58
 5264     69.691   68.405
 5264.5     69.593   69.846
 5265     69.573   71.902
 5265.5     69.926   73.958
 5266     70.28   76.013
 5266.5     70.633   78.069
 5267     70.56   80.599
 5267.5     70.141   83.191
 5268     69.723   85.783
 5268.5     69.304   88.376
 5269     68.885   85.712
 5269.5     68.466   82.931
 5270     68.349   80.149
 5270.5     68.458   78.208
 5271     68.568   78.973
 5271.5     68.677   79.738
 5272     68.787   80.503
 5272.5     68.896   81.268
 5273     69.005   82.033
 5273.5     68.788   82.477
 5274     68.544   81.65
 5274.5     68.301   80.823
 5275     68.349   79.996
 5275.5     68.818   79.169
 5276     69.286   78.458
 5276.5     69.755   80.971
 5277     69.618   83.483
 5277.5     69.301   85.996
 5278     68.983   87.821
 5278.5     68.666   84.91
 5279     68.348   81.999
 5279.5     69.097   79.089
 5280     69.072   76.178
 5280.5     68.552   73.268
 5281     68.032   73.46
 5281.5     67.512   74.614
 5282     66.992   75.767
 5282.5     66.471   76.921
 5283     65.951   73.013
 5283.5     65.431   67.569
 5284     64.911   65.128
 5284.5     65.049   65.495
 5285     65.389   65.861
 5285.5     65.729   66.227
 5286     66.07   66.594
 5286.5     66.493   66.96
 5287     67.542   67.327
 5287.5     67.831   67.693
 5288     68.121   69.919
 5288.5     68.411   72.303
 5289     68.7   74.687
 5289.5     68.99   77.07
 5290     71.524   79.8
 5290.5     73.577   93.931
 5291     73.115   108.062
 5291.5     72.652   121.087
 5292     72.189   128.55
 5292.5     71.727   128.826
 5293     71.264   116.25
 5293.5     70.801   103.674
 5294     70.339   91.097
 5294.5     70.374   78.521
 5295     72.68   67.904
 5295.5     73.551   68.824
 5296     72.744   69.744
 5296.5     71.936   70.664
 5297     71.129   71.584
 5297.5     70.322   70.985
 5298     69.515   60.256
 5298.5     68.708   53.812
 5299     68.466   47.987
 5299.5     72.193   42.521
 5300     72.836   47.228
 5300.5     73.062   51.936
 5301     73.289   56.643
 5301.5     73.516   61.35
 5302     73.743   64.01
 5302.5     73.969   66.154
 5303     73.65   68.298
 5303.5     73.111   67.626
 5304     72.571   62.011
 5304.5     72.032   56.397
 5305     70.672   50.782
 5305.5     69.038   45.168
 5306     68.404   45.664
 5306.5     69.288   47.372
 5307     70.172   49.079
 5307.5     71.057   50.786
 5308     71.941   52.494
 5308.5     72.826   54.201
 5309     73.71   55.909
 5309.5     74.595   57.616
 5310     73.184   59.324
 5310.5     71.663   61.031
 5311     70.143   55.92
 5311.5     68.623   50.394
 5312     66.153   45.666
 5312.5     66.393   47.056
 5313     67.368   48.446
 5313.5     68.343   49.837
 5314     69.318   51.227
 5314.5     70.293   52.617
 5315     71.269   54.007
 5315.5     70.967   55.397
 5316     70.575   57.349
 5316.5     70.183   62.264
 5317     69.791   67.179
 5317.5     69.399   72.094
 5318     69.821   75.439
 5318.5     69.775   76.568
 5319     68.909   77.696
 5319.5     68.044   76.12
 5320     67.179   70.778
 5320.5     66.313   65.436
 5321     65.514   60.275
 5321.5     67.365   60.178
 5322     69.217   60.081
 5322.5     71.081   59.984
 5323     72.994   65.636
 5323.5     74.906   71.46
 5324     76.819   77.283
 5324.5     78.731   164.271
 5325     77.002   179.09
 5325.5     73.922   179.825
 5326     70.842   180.559
 5326.5     68.149   169.686
 5327     66.966   157.871
 5327.5     65.784   131.951
 5328     64.602   113.119
 5328.5     63.42   94.287
 5329     62.999   74.429
 5329.5     63.707   59.431
 5330     64.415   54.841
 5330.5     65.123   55.35
 5331     65.831   58.611
 5331.5     66.54   61.872
 5332     67.248   65.133
 5332.5     67.956   67.107
 5333     68.664   66.223
 5333.5     68.65   65.338
 5334     68.614   64.454
 5334.5     68.578   63.569
 5335     68.542   63.187
 5335.5     68.506   66.53
 5336     68.47   69.873
 5336.5     68.433   73.217
 5337     68.397   76.56
 5337.5     68.643   79.904
 5338     69.424   83.247
 5338.5     70.205   84.367
 5339     70.985   85.134
 5339.5     71.766   80.357
 5340     72.607   74.589
 5340.5     73.492   68.82
 5341     74.377   63.052
 5341.5     75.262   57.283
 5342     76.147   51.515
 5342.5     77.032   48.142
 5343     77.804   46.61
 5343.5     78.363   45.078
 5344     77.912   43.546
 5344.5     77.461   42.967
 5345     77.011   44.066
 5345.5     76.56   45.166
 5346     76.11   46.265
 5346.5     75.659   47.364
 5347     75.208   48.463
 5347.5     74.758   49.562
 5348     74.579   49.727
 5348.5     75.493   48.172
 5349     76.408   46.617
 5349.5     77.322   45.997
 5350     75.927   49.185
 5350.5     74.532   52.372
 5351     73.137   55.559
 5351.5     73.113   58.747
 5352     73.746   61.934
 5352.5     74.38   66.58
 5353     75.013   73.353
 5353.5     75.647   74.657
 5354     76.28   72.172
 5354.5     76.914   69.688
 5355     77.613   67.203
 5355.5     78.324   64.719
 5356     79.035   62.234
 5356.5     79.746   59.75
 5357     80.457   57.265
 5357.5     81.167   53.91
 5358     81.878   49.875
 5358.5     80.738   47.652
 5359     79.583   48.729
 5359.5     78.428   49.807
 5360     77.273   50.884
 5360.5     76.118   51.961
 5361     75.949   53.038
 5361.5     76.185   -999.990
 5362     76.421   -999.990
 5362.5     75.885   -999.990
 5363     74.875   -999.990
 5363.5     73.865   -999.990
 5364     72.856   -999.990
 5364.5     73.205   -999.990
 5365     74.002   -999.990
 5365.5     74.8   -999.990
 5366     75.598   -999.990
 5366.5     76.396   -999.990
 5367     77.194   -999.990
 5367.5     77.992   -999.990
 5368     78.789   -999.990
 5368.5     78.933   -999.990
 5369     77.344   -999.990
 5369.5     75.756   -999.990
 5370     74.167   -999.990
 5370.5     73.225   -999.990
 5371     72.904   -999.990
 5371.5     72.584   -999.990
 5372     72.263   -999.990
 5372.5     72.708   -999.990
 5373     73.891   -999.990
 5373.5     75.074   -999.990
 5374     75.404   -999.990
 5374.5     73.349   -999.990
 5375     72.429   -999.990
 5375.5     73.058   -999.990
 5376     73.688   -999.990
 5376.5     74.317   -999.990
 5377     74.23   -999.990
 5377.5     73.899   -999.990
 5378     73.567   -999.990
 5378.5     73.621   -999.990
 5379     74.856   -999.990
 5379.5     76.092   -999.990
 5380     77.328   -999.990
 5380.5     77.657   -999.990
 5381     76.869   -999.990
 5381.5     76.081   -999.990
 5382     75.293   -999.990
