###############################################
##         ENVERUS                           ##
##         Petrophysical Curves              ##
##         PERMIAN / DELAWARE                ##
##         Jan 21 2022                       ##
##         42-389-10491-00-00                ##
###############################################
## Copyright 2017-2022  ENVERUS.  All Rights Reserved. 
## Confidential - Property of ENVERUS, use governed by terms and 
## conditions found within the existing Information Services Subscription Agreement 
## (as may be amended, the “ISSA”) between Customer and ENVERUS. 
## 
~VERSION INFORMATION
# MNEM.UNIT                               DATA : DESCRIPTION OF MNEMONIC
#-----.-----     ----------------------------- : -----------------------------
VERS.                                     2.00 : CWLS LOG ASCII STANDARD - VERSION 2.00
WRAP.                                       NO : MULTIPLE LINES PER DEPTH STEP
VEND.                                  ENVERUS : VENDOR
TYPE.                     PETROPHYSICAL CURVES : ENVERUS PETROPHYSICAL CURVES - ACCESSIBLE THROUGH ENVERUS CORE(TM)
#___________________________________________________________________________________________________ 
~WELL INFORMATION 
# uyaQ8P8kQDJ9DXFS5hR1PxmExEOYaAUkY5f3/tnOS+scoPAUWgXA1zCIHGRbWCuSuUcwDzaESCjqjWQ81XhadA== 
# MNEM.UNIT                                              DATA : DESCRIPTION OF MNEMONIC 
#-----.-----                    ----------------------------- : ----------------------------- 
CNTY.                                                  REEVES : COUNTY 
STATE.                                                  TEXAS : STATE 
CNTRY.                                                    USA : COUNTRY 
API.                                             42-389-10491 : API (10 Digit) 
API_14.                                    42-389-10491-00-00 : API (14 Digits) 
API_14_std.                                 42-389-10491-0000 : API (14 Digits Standard) 
UWI.                                           42389104910000 : UNIQUE WELL ID
STRT.FT                                                 102.0 : START DEPTH
STOP.FT                                                9071.0 : STOP DEPTH
STEP.FT                                                   0.5 : STEP BETWEEN DEPTHS
NULL.                                                 -999.25 : NULL VALUE
COMP.                                FLAT CREEK RESOURCES LLC : COMPANY 
WELL.                                         REEVES-AW-FEE 1 : WELL NAME 
FLD.                                                     TORO : FIELD NAME
#___________________________________________________________________________________________________ 
~CURVE INFORMATION 
#    Zone Description
#          1 = Upper Avalon
#          2 = Middle Avalon
#          3 = Lower Avalon
#          4 = 1st Bone Spring
#          5 = 2nd Bone Spring
#          6 = 2nd Bone Spring Sand
#          7 = 3rd Bone Spring
#          8 = 3rd Bone Spring Sand
#          9 = Wolfcamp XY
#          10 = Wolfcamp A Upper
#          11 = Wolfcamp A Lower
#          12 = Wolfcamp B Upper
#          13 = Wolfcamp B Lower
#          14 = Wolfcamp C
#          15 = Wolfcamp D
#          16 = Pennsylvanian Shale
#          17 = Lower Pennsylvanian Shale
#          18 = Barnett
#          19 = Barnett Lower
#          20 = Mississippian Lime
#          21 = Woodford
#          22 = Base Woodford 
# MNEM.UNIT           : CURVE DESCRIPTION 
#-----.-----          : ----------------------------- 
 DEPT.FT               : MEASURED DEPTH 
 TVD_I.FT              : ENVERUS TRUE VERTICAL DEPTH 
 ZONE_I.               : ENVERUS DEFINED ZONE CODE 
 GR_N_I.API            : ENVERUS NORMALIZED GAMMA RAY LEVERAGED IN GEOLOGICAL MODELLING 
 TEMP_I.DEGF           : ENVERUS INTERPRETED TEMPERATURE DERIVED FROM BOTTOM HOLE TEMPERATURES 
 #___________________________________________________________________________________________________ 
~A         DEPT          TVD_I         ZONE_I         GR_N_I         TEMP_I
# ...
          685.0        685.000        -999.25         53.905         70.255
          685.5        685.500        -999.25         53.864         70.260
          686.0        686.000        -999.25         54.045         70.266
          686.5        686.500        -999.25         55.699         70.271
          687.0        687.000        -999.25         57.353         70.276
          687.5        687.500        -999.25         59.006         70.282
          688.0        688.000        -999.25         59.391         70.287
          688.5        688.500        -999.25         59.189         70.292
          689.0        689.000        -999.25         58.987         70.297
          689.5        689.500        -999.25         58.785         70.303
          690.0        690.000        -999.25         58.632         70.308
          690.5        690.500        -999.25         58.780         70.313
          691.0        691.000        -999.25         58.928         70.319
          691.5        691.500        -999.25         59.074         70.324
          692.0        692.000        -999.25         59.222         70.329
          692.5        692.500        -999.25         59.370         70.334
          693.0        693.000        -999.25         59.516         70.340
          693.5        693.500        -999.25         59.664         70.345
          694.0        694.000        -999.25         59.812         70.350
          694.5        694.500        -999.25         59.958         70.356
          695.0        695.000        -999.25         60.106         70.361
          695.5        695.500        -999.25         60.254         70.366
          696.0        696.000        -999.25         60.139         70.372
          696.5        696.500        -999.25         58.891         70.377
          697.0        697.000        -999.25         57.644         70.382
          697.5        697.500        -999.25         56.396         70.387
          698.0        698.000        -999.25         55.148         70.393
          698.5        698.500        -999.25         53.900         70.398
          699.0        699.000        -999.25         52.652         70.403
          699.5        699.500        -999.25         51.404         70.409
          700.0        700.000        -999.25         50.157         70.414
          700.5        700.500        -999.25         49.875         70.419
          701.0        701.000        -999.25         49.959         70.425
          701.5        701.500        -999.25         50.045         70.430
          702.0        702.000        -999.25         50.408         70.435
          702.5        702.500        -999.25         51.390         70.440
          703.0        703.000        -999.25         52.373         70.446
          703.5        703.500        -999.25         53.354         70.451
          704.0        704.000        -999.25         54.337         70.456
          704.5        704.500        -999.25         54.209         70.462
          705.0        705.000        -999.25         53.675         70.467
          705.5        705.500        -999.25         53.141         70.472
          706.0        706.000        -999.25         52.914         70.477
          706.5        706.500        -999.25         53.305         70.483
          707.0        707.000        -999.25         53.698         70.488
          707.5        707.500        -999.25         54.089         70.493
          708.0        708.000        -999.25         54.482         70.499
          708.5        708.500        -999.25         53.749         70.504
          709.0        709.000        -999.25         52.679         70.509
          709.5        709.500        -999.25         51.610         70.515
          710.0        710.000        -999.25         50.541         70.520
          710.5        710.500        -999.25         49.473         70.525
          711.0        711.000        -999.25         48.404         70.530
          711.5        711.500        -999.25         47.334         70.536
          712.0        712.000        -999.25         46.849         70.541
          712.5        712.500        -999.25         47.141         70.546
          713.0        713.000        -999.25         47.436         70.552
          713.5        713.500        -999.25         47.728         70.557
          714.0        714.000        -999.25         48.023         70.562
          714.5        714.500        -999.25         48.315         70.568
          715.0        715.000        -999.25         48.610         70.573
          715.5        715.500        -999.25         48.902         70.578
          716.0        716.000        -999.25         49.195         70.583
          716.5        716.500        -999.25         49.039         70.589
          717.0        717.000        -999.25         47.881         70.594
          717.5        717.500        -999.25         46.722         70.599
          718.0        718.000        -999.25         45.565         70.605
          718.5        718.500        -999.25         46.536         70.610
          719.0        719.000        -999.25         47.687         70.615
          719.5        719.500        -999.25         48.840         70.620
          720.0        720.000        -999.25         49.992         70.626
          720.5        720.500        -999.25         51.143         70.631
          721.0        721.000        -999.25         52.295         70.636
          721.5        721.500        -999.25         53.448         70.642
          722.0        722.000        -999.25         54.599         70.647
          722.5        722.500        -999.25         55.053         70.652
          723.0        723.000        -999.25         54.073         70.658
          723.5        723.500        -999.25         53.093         70.663
          724.0        724.000        -999.25         52.113         70.668
          724.5        724.500        -999.25         50.508         70.673
          725.0        725.000        -999.25         48.859         70.679
          725.5        725.500        -999.25         47.210         70.684
          726.0        726.000        -999.25         45.561         70.689
          726.5        726.500        -999.25         43.914         70.695
          727.0        727.000        -999.25         42.265         70.700
          727.5        727.500        -999.25         40.616         70.705
          728.0        728.000        -999.25         41.121         70.710
          728.5        728.500        -999.25         42.946         70.716
          729.0        729.000        -999.25         44.772         70.721
          729.5        729.500        -999.25         46.599         70.726
          730.0        730.000        -999.25         48.425         70.732
          730.5        730.500        -999.25         50.250         70.737
          731.0        731.000        -999.25         52.077         70.742
          731.5        731.500        -999.25         52.386         70.748
          732.0        732.000        -999.25         52.078         70.753
          732.5        732.500        -999.25         51.773         70.758
          733.0        733.000        -999.25         51.465         70.763
          733.5        733.500        -999.25         52.018         70.769
          734.0        734.000        -999.25         52.876         70.774
          734.5        734.500        -999.25         53.732         70.779
          735.0        735.000        -999.25         54.591         70.785
          735.5        735.500        -999.25         55.447         70.790
          736.0        736.000        -999.25         56.305         70.795
          736.5        736.500        -999.25         56.343         70.801
          737.0        737.000        -999.25         55.363         70.806
          737.5        737.500        -999.25         54.385         70.811
