#--------------------------------------------------#
#-------------------ENVERUS, INC.------------------#
#------------------WWW.ENVERUS.COM-----------------#
#------------------COPYRIGHT 2020------------------#
#--------------------------------------------------#
#THIS FILE MAY BE USED ONLY IN ACCORDANCE WITH A CURRENT SUBSCRIPTION AGREEMENT BETWEEN
#THE USER AND ENVERUS, INC. NO PART OF THIS FILE MAY BE REPRODUCED, USED, COPIED,
#MODIFIED, PROPAGATED, OR DISTRIBUTED EXCEPT IN ACCORDANCE WITH THE SUBSCRIPTION
#AGREEMENT. UNAUTHORIZED USE OR DISTRIBUTION OF ALL OR ANY PART OF THIS FILE MAY VIOLATE
#COPYRIGHT, TRADEMARK, AND/OR OTHER LAWS AND IS SUBJECT TO CIVIL AS WELL AS CRIMINAL
#SANCTIONS.
#--------------------------------------------------#
#THIS FILE IS PROVIDED "AS-IS" AND ALL WARRANTIES ARE EXPRESSLY DISCLAIMED, WHETHER
#EXPRESS, ORAL, IMPLIED, STATUTORY OR OTHERWISE, INCLUDING ANY IMPLIED WARRANTY OF FITNESS
#FOR A PARTICULAR PURPOSE, MERCHANTABILITY, TITLE OR NON-INFRINGEMENT, AND ANY WARRANTIES
#ARISING BY VIRTUE OF CUSTOM OF TRADE OR COURSE OF DEALING.  FURTHER, ENVERUS, INC.
#AND ITS LICENSORS DO NOT REPRESENT OR WARRANT THAT THIS FILE WILL MEET USER'S
#REQUIREMENTS OR ARE SUITABLE FOR USER'S NEEDS OR THAT THE DATA OR RESULTS PROVIDED IN
#CONJUNCTION THEREWITH ARE CORRECT, ACCURATE, TIMELY OR RELIABLE. THESE DISCLAIMERS SHALL
#APPLY REGARDLESS OF ANY FAILURE OF ESSENTIAL PURPOSE OF ANY LIMITED REMEDY.  SOME
#JURISDICTIONS DO NOT ALLOW THE EXCLUSION OF CERTAIN WARRANTIES SO SOME OF THE ABOVE
#EXCLUSIONS MAY NOT APPLY. IN NO EVENT SHALL ENVERUS, INC. OR ANY OF ITS AFFILIATES
#BE LIABLE UNDER ANY LEGAL THEORY, WHETHER IN TORT (INCLUDING WITHOUT LIMITATION
#NEGLIGENCE), CONTRACT, STRICT LIABILITY, STATUTORY OR OTHERWISE, FOR ANY SPECIAL,
#INCIDENTAL, CONSEQUENTIAL, EXEMPLARY, PUNITIVE OR INDIRECT DAMAGE OF ANY KIND, INCLUDING
#WITHOUT LIMITATION LOSS OF REVENUE, PROFITS, GOODWILL, USE, AND/OR DATA OR THE COST OF
#PROCUREMENT OF SUBSTITUTE GOODS OR SERVICES, EVEN IF APPRISED OF THE POSSIBILITY OF SUCH
#DAMAGES IN ADVANCE.
#--------------------------------------------------#

~VERSION INFORMATION
VERS. 2.0 : CWLS LOG ASCII STANDARD - VERSION 2.0
WRAP.  NO : ONE LINE PER DEPTH STEP
~WELL INFORMATION
#MNEMONIC     .UNIT              VALUE :DESCRIPTION
STRT       .FT                429 :START DEPTH
STOP       .FT                6365 :STOP DEPTH
STEP       .FT                   0.500 :STEP
NULL       .                  -999.99 :NULL
UWI        .                42371100750000 :UNIQUE WELL ID
API        .                42371100750000 :API NUMBER
COMP       .         :COMPANY
WELL       .        :WELL
DATE       .                 :LOG DATE
FLD       .                 :FIELD NAME
LOC       .                  UNK :LOCATION
CNTY       .                 UNK :COUNTY
STAT       .                 UNK :STATE
CTRY       .                 UNK :COUNTY
SRVC       .                 UNK :SERVICE COMPANY
~CURVE INFORMATION
#MNEMONIC     .UNIT      API CODE :CURVE DESCRIPTION
DEPTH       .FT                      :MEASURED DEPTH
DT.MSEC/FT        UNKNOWN   :DT
GR.API        UNKNOWN   :GR
~A    DEPTH    DT    GR
# ...
 4739.5     73.89919   14.04037
 4740     72.92123   11.73886
 4740.5     70.2293   12.14138
 4741     69.34887   12.70445
 4741.5     68.98861   13.26751
 4742     68.62835   13.83058
 4742.5     68.55738   14.39365
 4743     69.57667   14.95672
 4743.5     70.59595   15.21605
 4744     69.96436   14.96197
 4744.5     67.41384   14.45548
 4745     64.86332   13.30655
 4745.5     63.2357   12.15762
 4746     62.43957   12.62359
 4746.5     61.941   13.43223
 4747     62.35326   14.24086
 4747.5     62.76552   15.0495
 4748     64.04078   14.84594
 4748.5     65.73151   14.17247
 4749     67.42225   13.49916
 4749.5     69.11298   12.82598
 4750     70.80371   12.15279
 4750.5     72.49444   11.86506
 4751     71.29562   12.06768
 4751.5     68.98591   12.27029
 4752     66.67619   12.47291
 4752.5     64.36648   12.82707
 4753     62.86234   13.18588
 4753.5     63.97749   13.54468
 4754     65.09264   13.90349
 4754.5     66.68528   14.26229
 4755     68.85465   14.60874
 4755.5     71.02403   14.81125
 4756     73.19341   14.67479
 4756.5     75.36279   13.89013
 4757     75.08403   13.10547
 4757.5     73.80072   12.53647
 4758     61.17267   12.85984
 4758.5     43.45844   13.18321
 4759     42.25027   13.50658
 4759.5     41.08547   13.60953
 4760     44.28161   14.38594
 4760.5     47.71462   15.63515
 4761     51.432   16.88435
 4761.5     50.99252   18.13356
 4762     50.55305   19.38276
 4762.5     50.11358   20.4839
 4763     49.67411   20.91974
 4763.5     50.35922   21.35558
 4764     51.04557   21.50342
 4764.5     51.33649   21.55913
 4765     50.90427   21.61484
 4765.5     50.47205   21.37979
 4766     50.03983   20.97492
 4766.5     49.6076   20.57005
 4767     49.26259   20.089
 4767.5     48.96784   19.15382
 4768     48.98092   18.21864
 4768.5     49.05243   17.81256
 4769     49.12393   18.01596
 4769.5     49.19543   18.42286
 4770     49.26694   18.82975
 4770.5     49.33844   19.23665
 4771     49.40994   19.64354
 4771.5     49.43103   18.59811
 4772     49.37649   17.11989
 4772.5     49.32196   17.77509
 4773     49.26742   18.43028
 4773.5     49.21289   19.08548
 4774     49.15835   19.74068
 4774.5     49.17598   20.39588
 4775     49.2026   21.05108
 4775.5     49.22921   21.58566
 4776     49.25583   21.26899
 4776.5     49.28244   20.95232
 4777     49.30906   20.25439
 4777.5     49.33568   18.80619
 4778     49.36229   17.35799
 4778.5     49.38238   16.09904
 4779     49.38275   15.76149
 4779.5     49.38312   15.46762
 4780     49.38348   15.69312
 4780.5     49.38385   15.91863
 4781     49.38422   16.14413
 4781.5     49.38459   16.36963
 4782     49.37429   16.59513
 4782.5     49.35229   16.82063
 4783     49.33029   16.85772
 4783.5     49.30829   16.85726
 4784     49.28629   16.8568
 4784.5     49.26429   16.85634
 4785     49.24228   16.85588
 4785.5     49.19596   16.83117
 4786     49.1402   16.79166
 4786.5     49.08444   16.75214
 4787     49.02868   16.71263
 4787.5     48.97292   16.68343
 4788     48.91716   16.74649
 4788.5     48.8614   16.80954
 4789     48.83301   17.086
 4789.5     48.80497   17.81457
 4790     48.77692   18.54314
 4790.5     48.74888   19.27171
 4791     48.72083   20.00029
 4791.5     48.69279   20.20114
 4792     48.66474   19.83913
 4792.5     48.63729   19.43567
 4793     48.67843   18.14559
 4793.5     48.71957   16.85551
 4794     48.76072   15.15442
 4794.5     48.80186   13.16091
 4795     48.84301   13.29084
 4795.5     48.88415   13.90228
 4796     48.92529   14.51372
 4796.5     48.97844   15.12517
 4797     49.03986   15.73661
 4797.5     49.10127   16.34805
 4798     49.16269   16.9595
 4798.5     49.2241   17.57094
 4799     49.28551   18.06887
 4799.5     49.34693   18.01767
 4800     49.40834   17.96648
 4800.5     49.46976   17.91528
 4801     49.53117   17.60698
 4801.5     49.55094   17.18519
 4802     49.55133   16.61269
 4802.5     49.55173   15.94009
 4803     49.55212   15.63149
 4803.5     49.55251   15.68188
 4804     49.55291   15.73227
 4804.5     49.5533   15.78935
 4805     49.58167   16.07129
 4805.5     49.61269   16.35322
 4806     49.68373   16.63515
 4806.5     49.9763   16.99067
 4807     50.21635   17.35359
 4807.5     50.4564   17.71652
 4808     50.69645   18.07945
 4808.5     50.9365   18.39622
 4809     50.92544   17.9466
 4809.5     50.83732   17.49699
 4810     50.7492   17.04737
 4810.5     50.66108   16.5467
 4811     50.57296   16.48037
 4811.5     50.48485   16.47997
 4812     50.39673   16.47957
 4812.5     50.30861   16.47917
 4813     50.24601   16.47877
 4813.5     50.27091   15.95112
 4814     50.29581   15.14511
 4814.5     50.32071   14.3391
 4815     50.34561   13.70259
 4815.5     50.37051   13.99883
 4816     50.38846   14.29508
 4816.5     50.28961   14.59133
 4817     50.19076   14.88757
 4817.5     50.09191   15.99153
 4818     49.99306   17.10055
 4818.5     49.8942   17.61858
 4819     49.79535   18.09098
 4819.5     49.86026   18.56339
 4820     49.93127   19.03579
 4820.5     50.00228   19.50819
 4821     50.07328   19.9806
 4821.5     50.14429   20.453
 4822     50.2153   20.92541
 4822.5     50.2863   21.39781
 4823     50.35731   21.72907
 4823.5     50.42832   21.60219
 4824     50.49932   21.47531
 4824.5     50.57033   21.01962
 4825     50.61676   20.16359
 4825.5     50.55537   19.30757
 4826     50.49399   18.45155
 4826.5     50.43261   18.5221
 4827     50.37122   18.64254
 4827.5     50.30984   18.76297
 4828     50.24846   18.88341
 4828.5     50.18707   19.00385
 4829     50.12569   19.12428
 4829.5     50.06431   19.24472
 4830     50.00292   19.12979
 4830.5     49.94154   18.89232
 4831     49.88016   18.65484
 4831.5     49.81877   18.41737
 4832     49.84253   18.1799
 4832.5     49.89722   17.94242
 4833     49.95191   17.70495
 4833.5     50.00659   17.46748
 4834     50.06128   17.23
 4834.5     50.09966   16.99253
 4835     50.05464   16.75506
 4835.5     50.00962   16.5322
 4836     49.9646   16.32342
 4836.5     49.91958   16.11464
 4837     49.87456   15.90586
 4837.5     49.82954   15.69708
 4838     49.78452   15.4883
 4838.5     49.7395   15.37771
 4839     49.69448   15.33528
 4839.5     49.64946   15.29286
 4840     49.60444   15.25043
 4840.5     49.59333   15.2417
 4841     49.61263   15.28026
 4841.5     49.63193   15.31881
 4842     49.65122   15.35737
 4842.5     49.67052   15.39592
 4843     49.68982   15.59513
 4843.5     49.70911   15.81248
 4844     49.72841   16.02983
 4844.5     49.76017   16.24719
 4845     49.80377   16.46454
 4845.5     49.84738   16.68189
 4846     49.89098   16.89925
 4846.5     49.93459   17.17362
 4847     49.97819   17.48394
 4847.5     50.0218   17.79426
 4848     50.0654   18.10458
 4848.5     50.10901   18.41491
 4849     50.15262   18.72523
 4849.5     50.19604   18.90574
 4850     50.20333   18.86742
 4850.5     50.21061   18.82909
 4851     50.21789   18.79077
 4851.5     50.22517   18.75245
 4852     50.23245   18.71413
 4852.5     50.23974   18.6758
 4853     50.24702   18.63748
 4853.5     50.2543   18.59916
 4854     50.26158   18.56084
 4854.5     50.26886   18.52251
 4855     50.27614   18.48419
 4855.5     50.24217   18.44587
 4856     50.20471   18.40755
 4856.5     50.16724   18.57536
 4857     50.12978   18.9819
 4857.5     50.09232   19.38844
 4858     50.05485   19.79498
 4858.5     50.01739   20.20152
 4859     49.97992   20.66094
 4859.5     49.94246   21.26575
 4860     49.90499   21.87056
 4860.5     49.86753   22.47537
 4861     49.83006   23.08018
 4861.5     49.7926   23.68499
 4862     49.75513   23.76287
 4862.5     49.71767   23.65012
 4863     49.6802   23.53736
 4863.5     49.77019   23.05075
 4864     49.8619   22.31786
 4864.5     49.95361   21.58497
 4865     50.04532   20.85207
 4865.5     50.13704   20.70396
 4866     50.22875   20.74596
 4866.5     50.32046   20.78796
 4867     50.31525   20.82997
 4867.5     50.2256   20.31264
 4868     50.13596   19.3959
 4868.5     50.04631   18.47915
 4869     49.95667   17.56241
