#--------------------------------------------------#
#-------------------ENVERUS, INC.------------------#
#------------------WWW.ENVERUS.COM-----------------#
#------------------COPYRIGHT 2020------------------#
#--------------------------------------------------#
#THIS FILE MAY BE USED ONLY IN ACCORDANCE WITH A CURRENT SUBSCRIPTION AGREEMENT BETWEEN
#THE USER AND ENVERUS, INC. NO PART OF THIS FILE MAY BE REPRODUCED, USED, COPIED,
#MODIFIED, PROPAGATED, OR DISTRIBUTED EXCEPT IN ACCORDANCE WITH THE SUBSCRIPTION
#AGREEMENT. UNAUTHORIZED USE OR DISTRIBUTION OF ALL OR ANY PART OF THIS FILE MAY VIOLATE
#COPYRIGHT, TRADEMARK, AND/OR OTHER LAWS AND IS SUBJECT TO CIVIL AS WELL AS CRIMINAL
#SANCTIONS.
#--------------------------------------------------#
#THIS FILE IS PROVIDED "AS-IS" AND ALL WARRANTIES ARE EXPRESSLY DISCLAIMED, WHETHER
#EXPRESS, ORAL, IMPLIED, STATUTORY OR OTHERWISE, INCLUDING ANY IMPLIED WARRANTY OF FITNESS
#FOR A PARTICULAR PURPOSE, MERCHANTABILITY, TITLE OR NON-INFRINGEMENT, AND ANY WARRANTIES
#ARISING BY VIRTUE OF CUSTOM OF TRADE OR COURSE OF DEALING.  FURTHER, ENVERUS, INC.
#AND ITS LICENSORS DO NOT REPRESENT OR WARRANT THAT THIS FILE WILL MEET USER'S
#REQUIREMENTS OR ARE SUITABLE FOR USER'S NEEDS OR THAT THE DATA OR RESULTS PROVIDED IN
#CONJUNCTION THEREWITH ARE CORRECT, ACCURATE, TIMELY OR RELIABLE. THESE DISCLAIMERS SHALL
#APPLY REGARDLESS OF ANY FAILURE OF ESSENTIAL PURPOSE OF ANY LIMITED REMEDY.  SOME
#JURISDICTIONS DO NOT ALLOW THE EXCLUSION OF CERTAIN WARRANTIES SO SOME OF THE ABOVE
#EXCLUSIONS MAY NOT APPLY. IN NO EVENT SHALL ENVERUS, INC. OR ANY OF ITS AFFILIATES
#BE LIABLE UNDER ANY LEGAL THEORY, WHETHER IN TORT (INCLUDING WITHOUT LIMITATION
#NEGLIGENCE), CONTRACT, STRICT LIABILITY, STATUTORY OR OTHERWISE, FOR ANY SPECIAL,
#INCIDENTAL, CONSEQUENTIAL, EXEMPLARY, PUNITIVE OR INDIRECT DAMAGE OF ANY KIND, INCLUDING
#WITHOUT LIMITATION LOSS OF REVENUE, PROFITS, GOODWILL, USE, AND/OR DATA OR THE COST OF
#PROCUREMENT OF SUBSTITUTE GOODS OR SERVICES, EVEN IF APPRISED OF THE POSSIBILITY OF SUCH
#DAMAGES IN ADVANCE.
#--------------------------------------------------#

~VERSION INFORMATION
VERS. 2.0 : CWLS LOG ASCII STANDARD - VERSION 2.0
WRAP.  NO : ONE LINE PER DEPTH STEP
~WELL INFORMATION
#MNEMONIC     .UNIT              VALUE :DESCRIPTION
STRT       .FT                -3 :START DEPTH
STOP       .FT                21524 :STOP DEPTH
STEP       .FT                   0.500 :STEP
NULL       .                  -999.99 :NULL
UWI        .                42389105080000 :UNIQUE WELL ID
API        .                42389105080000 :API NUMBER
COMP       .         :COMPANY
WELL       .        :WELL
DATE       .                 :LOG DATE
FLD       .                 :FIELD NAME
LOC       .                  UNK :LOCATION
CNTY       .                 UNK :COUNTY
STAT       .                 UNK :STATE
CTRY       .                 UNK :COUNTY
SRVC       .                 UNK :SERVICE COMPANY
~CURVE INFORMATION
#MNEMONIC     .UNIT      API CODE :CURVE DESCRIPTION
DEPTH       .FT                      :MEASURED DEPTH
CAL.IN        UNKNOWN   :CAL
DT.MSEC/FT        UNKNOWN   :DT
GR.API        UNKNOWN   :GR
~A    DEPTH    CAL    DT    GR
# ...
 13059     12.01481   78.06031   44.62984
 13059.5     11.90367   78.89329   42.74951
 13060     11.79253   78.85009   42.37397
 13060.5     11.73351   77.49027   42.37847
 13061     11.74871   76.13045   42.38297
 13061.5     11.76391   75.88757   42.38747
 13062     11.77912   76.50754   42.39196
 13062.5     11.79432   75.99358   42.39646
 13063     11.80952   74.88965   42.33973
 13063.5     11.82472   73.78571   41.34135
 13064     11.83992   72.68178   40.34297
 13064.5     11.85512   71.57784   39.34459
 13065     11.87032   71.58812   39.40838
 13065.5     11.91367   72.7872   40.10631
 13066     11.96494   74.5585   40.80423
 13066.5     12.0162   76.88027   41.66328
 13067     12.06746   79.20204   42.59716
 13067.5     12.08033   81.52381   43.53104
 13068     12.08689   81.8208   43.43139
 13068.5     12.09346   82.05787   41.69957
 13069     12.10003   82.29494   41.71248
 13069.5     12.04366   82.532   43.14964
 13070     11.76606   81.60264   44.58679
 13070.5     11.72464   79.97897   46.02394
 13071     11.74684   78.35531   46.65635
 13071.5     11.76903   76.73165   46.61124
 13072     11.79123   76.70121   46.56613
 13072.5     11.81342   85.54566   44.60883
 13073     11.83562   85.72203   42.60773
 13073.5     11.85781   84.89671   41.71806
 13074     11.88001   84.07139   44.04633
 13074.5     11.99999   82.20139   45.35356
 13075     12.1261   78.70021   46.6608
 13075.5     12.19383   75.19902   47.96803
 13076     12.18985   71.69783   47.26548
 13076.5     12.18587   74.91122   46.28128
 13077     12.12495   80.05386   45.29708
 13077.5     11.88072   77.01199   44.31288
 13078     11.65768   73.97011   43.32868
 13078.5     11.66607   72.52092   42.34448
 13079     11.74225   72.83623   43.45569
 13079.5     11.97512   73.17498   44.69874
 13080     12.0649   73.52907   45.94178
 13080.5     12.01809   74.62602   45.6621
 13081     11.90313   75.99699   45.30752
 13081.5     11.78816   77.36796   44.95294
 13082     11.6732   78.73893   44.59836
 13082.5     11.60927   78.37055   44.24378
 13083     11.5926   77.3812   43.8892
 13083.5     11.57991   76.39185   37.52037
 13084     11.76368   75.4025   37.56757
 13084.5     11.94744   84.67615   39.05905
 13085     11.94835   84.31768   40.55053
 13085.5     11.78981   83.95922   41.10152
 13086     11.63127   83.60075   41.4509
 13086.5     11.47273   83.24228   41.80658
 13087     11.31419   82.88382   42.18306
 13087.5     11.18636   80.49446   42.55954
 13088     11.22007   77.35016   42.93603
 13088.5     11.25379   74.20587   43.31251
 13089     11.2875   71.06157   43.68899
 13089.5     11.32122   67.91727   43.8681
 13090     11.64499   68.72222   43.74796
 13090.5     12.00745   72.5508   43.62783
 13091     12.35513   75.03619   43.50769
 13091.5     12.42232   77.49435   43.38755
 13092     12.38911   79.73398   43.48985
 13092.5     12.33974   80.35425   44.17166
 13093     12.29038   80.97452   44.85346
 13093.5     12.24101   81.59479   45.53527
 13094     12.06528   81.831   46.21708
 13094.5     11.83418   81.20214   45.85364
 13095     11.60309   80.57328   43.76029
 13095.5     11.37199   79.9256   42.11377
 13096     11.2197   79.24371   41.83224
 13096.5     11.19091   78.56182   41.55071
 13097     11.16211   77.92327   41.26918
 13097.5     11.13332   77.34593   40.98766
 13098     11.10453   76.76859   41.68483
 13098.5     11.07542   76.19124   42.64895
 13099     11.03599   75.6139   43.61307
 13099.5     10.99657   75.03656   44.5772
 13100     10.95715   74.00446   45.54132
 13100.5     10.91772   72.50767   46.50545
 13101     11.02558   73.17887   45.05244
 13101.5     11.18421   74.3595   41.47551
 13102     11.34285   75.54013   38.77304
 13102.5     11.50149   76.72076   40.07171
 13103     11.66012   77.9014   41.37038
 13103.5     11.81876   79.08203   42.66905
 13104     11.9774   80.11777   43.41708
 13104.5     12.03471   80.66824   43.67311
 13105     12.09114   81.21872   43.92914
 13105.5     12.14757   81.76919   44.18518
 13106     12.04252   82.31967   42.15784
 13106.5     11.72306   84.45005   40.06846
 13107     11.40359   86.97152   37.97908
 13107.5     11.08412   89.49299   37.40024
 13108     10.96551   85.19613   40.12584
 13108.5     11.0963   80.34154   42.36927
 13109     11.65744   75.48694   43.1536
 13109.5     12.21859   70.63235   43.93792
 13110     12.25466   67.98881   44.03205
 13110.5     12.2551   75.68272   43.71577
 13111     12.22165   83.37663   43.39949
 13111.5     11.81222   83.86506   43.08321
 13112     11.50704   83.67107   42.76693
 13112.5     11.47561   83.47709   42.45065
 13113     11.58764   83.2831   41.944
 13113.5     11.84964   81.79   40.88741
 13114     12.11164   79.6781   39.83081
 13114.5     12.37364   78.98031   38.77421
 13115     12.21948   79.69348   37.71761
 13115.5     12.04313   80.40664   37.46804
 13116     11.86678   81.1198   37.84614
 13116.5     11.69043   80.15159   38.22425
 13117     11.51408   78.33776   38.60235
 13117.5     11.33773   76.52393   38.98046
 13118     11.16138   80.61084   39.35856
 13118.5     11.00697   84.80904   40.97715
 13119     11.23721   89.00724   44.41031
 13119.5     11.46744   93.20544   45.20122
 13120     11.59325   93.93834   44.60026
 13120.5     11.64163   93.74632   43.9993
 13121     11.59947   93.55429   43.39834
 13121.5     11.53352   93.36227   42.79738
 13122     11.46757   93.17024   42.19643
 13122.5     11.40161   91.17351   41.59547
 13123     11.38393   85.71442   41.04408
 13123.5     11.41432   80.25534   41.24642
 13124     11.4447   74.79625   41.47552
 13124.5     11.76161   72.32425   41.89059
 13125     11.75066   71.46282   42.30565
 13125.5     11.73971   72.2657   42.72072
 13126     11.72876   76.57439   43.13579
 13126.5     11.71781   80.88309   43.55085
 13127     11.6169   78.28412   43.96592
 13127.5     11.46989   74.42906   44.38098
 13128     11.37275   70.574   43.83645
 13128.5     11.55949   70.13372   42.91508
 13129     11.74623   70.2257   43.90907
 13129.5     11.93297   70.31767   44.90307
 13130     11.89571   70.40964   45.89706
 13130.5     11.29517   70.50162   44.73582
 13131     11.3289   72.87793   43.08701
 13131.5     11.37293   79.94551   43.21688
 13132     11.95764   85.4573   43.41959
 13132.5     11.81421   84.72277   43.6223
 13133     11.67078   83.98825   43.825
 13133.5     11.58206   83.48164   44.02771
 13134     11.56036   83.60036   42.98833
 13134.5     11.53867   82.97733   41.63943
 13135     11.51697   81.32519   40.29053
 13135.5     11.49527   79.67306   40.58371
 13136     11.47357   78.02092   41.63275
 13136.5     11.45385   76.36879   42.68179
 13137     11.5344   74.71665   43.73083
 13137.5     11.61496   74.37998   44.77987
 13138     11.69551   74.27377   44.83674
 13138.5     11.77607   74.16756   43.53765
 13139     11.85662   74.06135   42.23855
 13139.5     11.90529   72.64372   40.93946
 13140     11.88867   73.15103   40.2925
 13140.5     11.87206   74.45329   40.13638
 13141     11.70032   79.49084   40.68545
 13141.5     11.49633   84.52838   41.23452
 13142     11.41095   89.56593   41.78359
 13142.5     11.50873   94.60347   42.71778
 13143     11.9996   94.89173   45.39488
 13143.5     12.52924   93.82666   48.07198
 13144     12.52273   90.56192   47.43618
 13144.5     12.37235   84.90343   45.91682
 13145     12.22197   79.24494   44.39746
 13145.5     12.07159   79.36557   43.96574
 13146     11.92121   81.50838   44.0315
 13146.5     11.5232   80.28469   44.09725
 13147     11.52807   77.10549   44.16301
 13147.5     11.53294   74.40026   44.50987
 13148     11.8107   78.33825   45.13144
 13148.5     12.12108   82.27623   45.75301
 13149     12.43146   86.21422   46.37458
 13149.5     12.23178   85.99987   46.99615
 13150     11.83445   85.05023   46.41737
 13150.5     11.43712   84.10059   45.76957
 13151     11.51954   82.62469   45.12177
 13151.5     11.70784   81.12521   44.47397
 13152     11.74707   79.62574   44.67823
 13152.5     11.72098   78.12626   45.05707
