###############################################
##         ENVERUS                           ##
##         Petrophysical Curves              ##
##         PERMIAN / DELAWARE                ##
##         Jan 21 2022                       ##
##         42-389-10491-00-00                ##
###############################################
## Copyright 2017-2022  ENVERUS.  All Rights Reserved. 
## Confidential - Property of ENVERUS, use governed by terms and 
## conditions found within the existing Information Services Subscription Agreement 
## (as may be amended, the “ISSA”) between Customer and ENVERUS. 
## 
~VERSION INFORMATION
# MNEM.UNIT                               DATA : DESCRIPTION OF MNEMONIC
#-----.-----     ----------------------------- : -----------------------------
VERS.                                     2.00 : CWLS LOG ASCII STANDARD - VERSION 2.00
WRAP.                                       NO : MULTIPLE LINES PER DEPTH STEP
VEND.                                  ENVERUS : VENDOR
TYPE.                     PETROPHYSICAL CURVES : ENVERUS PETROPHYSICAL CURVES - ACCESSIBLE THROUGH ENVERUS CORE(TM)
#___________________________________________________________________________________________________ 
~WELL INFORMATION 
# uyaQ8P8kQDJ9DXFS5hR1PxmExEOYaAUkY5f3/tnOS+scoPAUWgXA1zCIHGRbWCuSuUcwDzaESCjqjWQ81XhadA== 
# MNEM.UNIT                                              DATA : DESCRIPTION OF MNEMONIC 
#-----.-----                    ----------------------------- : ----------------------------- 
CNTY.                                                  REEVES : COUNTY 
STATE.                                                  TEXAS : STATE 
CNTRY.                                                    USA : COUNTRY 
API.                                             42-389-10491 : API (10 Digit) 
API_14.                                    42-389-10491-00-00 : API (14 Digits) 
API_14_std.                                 42-389-10491-0000 : API (14 Digits Standard) 
UWI.                                           42389104910000 : UNIQUE WELL ID
STRT.FT                                                 102.0 : START DEPTH
STOP.FT                                                9071.0 : STOP DEPTH
STEP.FT                                                   0.5 : STEP BETWEEN DEPTHS
NULL.                                                 -999.25 : NULL VALUE
COMP.                                FLAT CREEK RESOURCES LLC : COMPANY 
WELL.                                         REEVES-AW-FEE 1 : WELL NAME 
FLD.                                                     TORO : FIELD NAME
#___________________________________________________________________________________________________ 
~CURVE INFORMATION 
#    Zone Description
#          1 = Upper Avalon
#          2 = Middle Avalon
#          3 = Lower Avalon
#          4 = 1st Bone Spring
#          5 = 2nd Bone Spring
#          6 = 2nd Bone Spring Sand
#          7 = 3rd Bone Spring
#          8 = 3rd Bone Spring Sand
#          9 = Wolfcamp XY
#          10 = Wolfcamp A Upper
#          11 = Wolfcamp A Lower
#          12 = Wolfcamp B Upper
#          13 = Wolfcamp B Lower
#          14 = Wolfcamp C
#          15 = Wolfcamp D
#          16 = Pennsylvanian Shale
#          17 = Lower Pennsylvanian Shale
#          18 = Barnett
#          19 = Barnett Lower
#          20 = Mississippian Lime
#          21 = Woodford
#          22 = Base Woodford 
# MNEM.UNIT           : CURVE DESCRIPTION 
#-----.-----          : ----------------------------- 
 DEPT.FT               : MEASURED DEPTH 
 TVD_I.FT              : ENVERUS TRUE VERTICAL DEPTH 
 ZONE_I.               : ENVERUS DEFINED ZONE CODE 
 GR_N_I.API            : ENVERUS NORMALIZED GAMMA RAY LEVERAGED IN GEOLOGICAL MODELLING 
 TEMP_I.DEGF           : ENVERUS INTERPRETED TEMPERATURE DERIVED FROM BOTTOM HOLE TEMPERATURES 
 #___________________________________________________________________________________________________ 
~A         DEPT          TVD_I         ZONE_I         GR_N_I         TEMP_I
# ...
         6038.0       6038.000        -999.25        132.339        126.950
         6038.5       6038.500        -999.25        125.367        126.955
         6039.0       6039.000        -999.25        107.013        126.961
         6039.5       6039.500        -999.25         91.228        126.966
         6040.0       6040.000        -999.25         93.076        126.971
         6040.5       6040.500        -999.25        107.622        126.977
         6041.0       6041.000        -999.25        125.932        126.982
         6041.5       6041.500        -999.25        144.240        126.987
         6042.0       6042.000        -999.25        155.770        126.992
         6042.5       6042.500        -999.25        159.227        126.998
         6043.0       6043.000        -999.25        153.978        127.003
         6043.5       6043.500        -999.25        147.155        127.008
         6044.0       6044.000        -999.25        140.332        127.014
         6044.5       6044.500        -999.25        124.596        127.019
         6045.0       6045.000        -999.25        108.624        127.024
         6045.5       6045.500        -999.25        102.891        127.030
         6046.0       6046.000        -999.25        103.335        127.035
         6046.5       6046.500        -999.25        104.257        127.040
         6047.0       6047.000        -999.25        105.178        127.045
         6047.5       6047.500        -999.25        106.098        127.051
         6048.0       6048.000        -999.25        107.019        127.056
         6048.5       6048.500        -999.25        111.059        127.061
         6049.0       6049.000        -999.25        118.994        127.067
         6049.5       6049.500        -999.25        126.305        127.072
         6050.0       6050.000        -999.25        131.547        127.077
         6050.5       6050.500        -999.25        132.471        127.082
         6051.0       6051.000        -999.25        132.870        127.088
         6051.5       6051.500        -999.25        132.596        127.093
         6052.0       6052.000        -999.25        131.275        127.098
         6052.5       6052.500        -999.25        129.829        127.104
         6053.0       6053.000        -999.25        127.331        127.109
         6053.5       6053.500        -999.25        116.778        127.114
         6054.0       6054.000        -999.25         98.212        127.120
         6054.5       6054.500        -999.25         79.644        127.125
         6055.0       6055.000        -999.25         74.894        127.130
         6055.5       6055.500        -999.25         74.970        127.135
         6056.0       6056.000        -999.25         77.351        127.141
         6056.5       6056.501        -999.25         79.733        127.146
         6057.0       6057.000        -999.25         75.573        127.151
         6057.5       6057.500        -999.25         68.803        127.157
         6058.0       6058.000        -999.25         62.033        127.162
         6058.5       6058.500        -999.25         55.263        127.167
         6059.0       6059.000        -999.25         52.088        127.172
         6059.5       6059.500        -999.25         49.897        127.178
         6060.0       6060.000        -999.25         53.338        127.183
         6060.5       6060.500        -999.25         57.058        127.188
         6061.0       6061.000        -999.25         57.831        127.194
         6061.5       6061.500        -999.25         58.382        127.199
         6062.0       6062.000        -999.25         60.894        127.204
         6062.5       6062.500        -999.25         70.941        127.210
         6063.0       6063.000        -999.25         80.903        127.215
         6063.5       6063.500        -999.25         81.732        127.220
         6064.0       6064.000        -999.25         83.490        127.225
         6064.5       6064.500        -999.25         89.112        127.231
         6065.0       6065.000        -999.25         95.720        127.236
         6065.5       6065.500        -999.25        114.521        127.241
         6066.0       6066.000        -999.25        133.732        127.247
         6066.5       6066.500        -999.25        144.666        127.252
         6067.0       6067.000        -999.25        143.172        127.257
         6067.5       6067.501        -999.25        131.188        127.263
         6068.0       6068.000        -999.25        119.203        127.268
         6068.5       6068.500        -999.25        107.220        127.273
         6069.0       6069.000        -999.25         96.647        127.278
         6069.5       6069.500        -999.25         87.623        127.284
         6070.0       6070.000        -999.25         74.668        127.289
         6070.5       6070.500        -999.25         66.023        127.294
         6071.0       6071.000        -999.25         63.960        127.300
         6071.5       6071.500        -999.25         61.898        127.305
         6072.0       6072.000        -999.25         59.835        127.310
         6072.5       6072.500        -999.25         60.920        127.315
         6073.0       6073.000        -999.25         63.143        127.321
         6073.5       6073.500        -999.25         66.291        127.326
         6074.0       6074.000        -999.25         69.509        127.331
         6074.5       6074.500        -999.25         77.336        127.337
         6075.0       6075.000        -999.25         85.655        127.342
         6075.5       6075.500        -999.25         91.892        127.347
         6076.0       6076.001        -999.25         90.986        127.353
         6076.5       6076.500        -999.25         83.019        127.358
         6077.0       6077.001        -999.25         75.052        127.363
         6077.5       6077.500        -999.25         67.085        127.368
         6078.0       6078.000        -999.25         59.118        127.374
         6078.5       6078.500        -999.25         52.680        127.379
         6079.0       6079.000        -999.25         52.378        127.384
         6079.5       6079.500        -999.25         52.075        127.390
         6080.0       6080.000        -999.25         51.773        127.395
         6080.5       6080.500        -999.25         51.470        127.400
         6081.0       6081.000        -999.25         51.319        127.405
         6081.5       6081.500        -999.25         51.809        127.411
         6082.0       6082.000        -999.25         51.774        127.416
         6082.5       6082.500        -999.25         48.682        127.421
         6083.0       6083.000        -999.25         45.588        127.427
         6083.5       6083.500        -999.25         44.733        127.432
         6084.0       6084.000        -999.25         47.434        127.437
         6084.5       6084.500        -999.25         50.137        127.443
         6085.0       6085.000        -999.25         52.215        127.448
         6085.5       6085.500        -999.25         52.212        127.453
         6086.0       6086.000        -999.25         52.703        127.458
         6086.5       6086.500        -999.25         55.396        127.464
         6087.0       6087.001        -999.25         58.087        127.469
         6087.5       6087.500        -999.25         60.780        127.474
         6088.0       6088.001        -999.25         63.472        127.480
         6088.5       6088.500        -999.25         65.740        127.485
         6089.0       6089.000        -999.25         67.960        127.490
         6089.5       6089.500        -999.25         70.181        127.496
         6090.0       6090.000        -999.25         70.066        127.501
         6090.5       6090.500        -999.25         68.856        127.506
