#--------------------------------------------------#
#-------------------ENVERUS, INC.------------------#
#------------------WWW.ENVERUS.COM-----------------#
#------------------COPYRIGHT 2020------------------#
#--------------------------------------------------#
#THIS FILE MAY BE USED ONLY IN ACCORDANCE WITH A CURRENT SUBSCRIPTION AGREEMENT BETWEEN
#THE USER AND ENVERUS, INC. NO PART OF THIS FILE MAY BE REPRODUCED, USED, COPIED,
#MODIFIED, PROPAGATED, OR DISTRIBUTED EXCEPT IN ACCORDANCE WITH THE SUBSCRIPTION
#AGREEMENT. UNAUTHORIZED USE OR DISTRIBUTION OF ALL OR ANY PART OF THIS FILE MAY VIOLATE
#COPYRIGHT, TRADEMARK, AND/OR OTHER LAWS AND IS SUBJECT TO CIVIL AS WELL AS CRIMINAL
#SANCTIONS.
#--------------------------------------------------#
#THIS FILE IS PROVIDED "AS-IS" AND ALL WARRANTIES ARE EXPRESSLY DISCLAIMED, WHETHER
#EXPRESS, ORAL, IMPLIED, STATUTORY OR OTHERWISE, INCLUDING ANY IMPLIED WARRANTY OF FITNESS
#FOR A PARTICULAR PURPOSE, MERCHANTABILITY, TITLE OR NON-INFRINGEMENT, AND ANY WARRANTIES
#ARISING BY VIRTUE OF CUSTOM OF TRADE OR COURSE OF DEALING.  FURTHER, ENVERUS, INC.
#AND ITS LICENSORS DO NOT REPRESENT OR WARRANT THAT THIS FILE WILL MEET USER'S
#REQUIREMENTS OR ARE SUITABLE FOR USER'S NEEDS OR THAT THE DATA OR RESULTS PROVIDED IN
#CONJUNCTION THEREWITH ARE CORRECT, ACCURATE, TIMELY OR RELIABLE. THESE DISCLAIMERS SHALL
#APPLY REGARDLESS OF ANY FAILURE OF ESSENTIAL PURPOSE OF ANY LIMITED REMEDY.  SOME
#JURISDICTIONS DO NOT ALLOW THE EXCLUSION OF CERTAIN WARRANTIES SO SOME OF THE ABOVE
#EXCLUSIONS MAY NOT APPLY. IN NO EVENT SHALL ENVERUS, INC. OR ANY OF ITS AFFILIATES
#BE LIABLE UNDER ANY LEGAL THEORY, WHETHER IN TORT (INCLUDING WITHOUT LIMITATION
#NEGLIGENCE), CONTRACT, STRICT LIABILITY, STATUTORY OR OTHERWISE, FOR ANY SPECIAL,
#INCIDENTAL, CONSEQUENTIAL, EXEMPLARY, PUNITIVE OR INDIRECT DAMAGE OF ANY KIND, INCLUDING
#WITHOUT LIMITATION LOSS OF REVENUE, PROFITS, GOODWILL, USE, AND/OR DATA OR THE COST OF
#PROCUREMENT OF SUBSTITUTE GOODS OR SERVICES, EVEN IF APPRISED OF THE POSSIBILITY OF SUCH
#DAMAGES IN ADVANCE.
#--------------------------------------------------#

~VERSION INFORMATION
VERS. 2.0 : CWLS LOG ASCII STANDARD - VERSION 2.0
WRAP.  NO : ONE LINE PER DEPTH STEP
~WELL INFORMATION
#MNEMONIC     .UNIT              VALUE :DESCRIPTION
STRT       .FT                101 :START DEPTH
STOP       .FT                5382 :STOP DEPTH
STEP       .FT                   0.500 :STEP
NULL       .                  -999.990 :NULL
UWI        .              42389007790000 :UNIQUE WELL ID
API        .              42389007790000 :API NUMBER
COMP       .         :COMPANY
WELL       .         1, :WELL
DATE       .                            :LOG DATE
~CURVE INFORMATION
#MNEMONIC     .UNIT      API CODE :CURVE DESCRIPTION
DEPTH       .FT                      :MEASURED DEPTH
DT.US/FT        UNKNOWN   :DT
GR.API        UNKNOWN   :GR
~A    DEPTH    DT    GR
# ...
 1112     68.487   17.527
 1112.5     68.38   16.505
 1113     65.827   15.483
 1113.5     61.755   14.462
 1114     55.72   13.44
 1114.5     51.891   12.418
 1115     52.621   11.397
 1115.5     54.86   10.375
 1116     57.099   9.353
 1116.5     59.338   11.701
 1117     61.577   14.667
 1117.5     64.226   17.633
 1118     66.975   20.599
 1118.5     69.725   23.565
 1119     72.474   26.531
 1119.5     76.099   30.533
 1120     78.299   38.703
 1120.5     76.696   46.873
 1121     74.207   47.86
 1121.5     71.718   44.072
 1122     69.229   40.284
 1122.5     67.446   36.496
 1123     68.812   35.902
 1123.5     74.48   37.467
 1124     74.67   39.031
 1124.5     74.859   40.595
 1125     74.777   42.16
 1125.5     72.524   43.724
 1126     63.129   45.288
 1126.5     62.585   46.853
 1127     62.042   47.196
 1127.5     61.499   46.079
 1128     60.97   44.962
 1128.5     60.809   43.846
 1129     60.648   43.815
 1129.5     60.487   43.874
 1130     60.326   43.934
 1130.5     60.337   43.993
 1131     60.533   44.052
 1131.5     60.729   41.989
 1132     60.925   39.575
 1132.5     60.922   37.162
 1133     60.656   36.42
 1133.5     60.391   35.991
 1134     60.125   35.562
 1134.5     59.859   35.133
 1135     59.781   34.705
 1135.5     60.022   34.276
 1136     60.263   33.847
 1136.5     60.505   34.491
 1137     60.314   35.468
 1137.5     60.033   36.445
 1138     59.751   37.422
 1138.5     59.469   38.399
 1139     59.573   39.624
 1139.5     60.31   42.002
 1140     59.864   44.38
 1140.5     59.418   44.345
 1141     58.973   42.874
 1141.5     58.527   41.403
 1142     58.081   39.932
 1142.5     57.636   38.461
 1143     57.475   36.99
 1143.5     57.45   35.519
 1144     57.426   34.048
 1144.5     57.402   32.577
 1145     57.378   32.579
 1145.5     61.605   33.773
 1146     70.555   34.966
 1146.5     71.098   36.16
 1147     71.349   37.353
 1147.5     67.76   38.547
 1148     64.244   41.025
 1148.5     62.264   43.551
 1149     60.284   46.078
 1149.5     64.227   48.604
 1150     63.522   48.322
 1150.5     58.008   47.667
 1151     58.068   47.012
 1151.5     58.129   46.357
 1152     58.189   45.701
 1152.5     58.249   44.179
 1153     58.309   40.852
 1153.5     58.264   37.525
 1154     58.069   35.47
 1154.5     57.875   36.167
 1155     57.68   36.864
 1155.5     57.486   36.777
 1156     57.291   34.597
 1156.5     57.097   32.417
 1157     56.902   30.236
 1157.5     56.708   28.056
 1158     56.682   25.876
 1158.5     57.044   23.696
 1159     58.732   22.949
 1159.5     60.783   22.724
 1160     64.804   22.499
 1160.5     66.007   22.274
 1161     66.043   22.777
 1161.5     66.079   23.613
 1162     66.115   24.449
 1162.5     66.152   25.286
 1163     66.292   26.122
 1163.5     66.479   27.823
 1164     66.667   30.078
 1164.5     66.854   32.333
 1165     66.992   34.588
 1165.5     66.788   36.843
 1166     66.585   39.097
 1166.5     66.382   41.352
 1167     66.178   43.607
 1167.5     65.975   45.862
 1168     65.772   48.117
 1168.5     65.568   44.771
 1169     65.365   40.986
 1169.5     65.162   26.832
 1170     65.097   27.036
 1170.5     65.166   27.974
 1171     65.235   28.913
 1171.5     65.304   29.852
 1172     65.373   30.79
 1172.5     65.442   31.729
 1173     65.511   32.667
 1173.5     65.959   33.606
 1174     66.925   34.545
 1174.5     67.891   35.483
 1175     68.483   35.184
 1175.5     68.482   31.918
 1176     68.482   28.652
 1176.5     68.482   25.386
 1177     66.123   22.12
 1177.5     60.801   19.906
 1178     58.97   20.404
 1178.5     57.139   20.902
 1179     56.756   21.149
 1179.5     59.953   20.588
 1180     63.15   20.028
 1180.5     65.333   19.468
 1181     64.468   18.907
 1181.5     63.603   18.347
 1182     62.738   17.786
 1182.5     61.873   17.226
 1183     61.008   17.817
 1183.5     60.112   19.011
 1184     59.069   20.205
 1184.5     58.027   21.399
 1185     56.984   22.592
 1185.5     55.942   22.913
 1186     54.899   22.593
 1186.5     56.177   22.273
 1187     58.952   21.953
 1187.5     64.443   21.633
 1188     64.853   21.312
 1188.5     65.143   20.992
 1189     63.195   20.672
 1189.5     61.246   21.767
 1190     59.297   22.876
 1190.5     58.235   23.985
 1191     58.03   25.094
 1191.5     57.826   26.203
 1192     57.622   27.312
 1192.5     57.418   28.421
 1193     57.213   27.626
 1193.5     57.009   26.574
 1194     57.096   25.522
 1194.5     57.207   24.469
 1195     57.318   24.641
 1195.5     57.428   25.04
 1196     57.539   25.439
 1196.5     57.649   24.966
 1197     57.604   24.28
 1197.5     57.531   23.594
 1198     57.459   23.396
 1198.5     57.386   24.544
 1199     57.314   25.692
 1199.5     57.241   26.841
 1200     57.169   27.989
 1200.5     57.096   29.137
 1201     57.024   30.285
 1201.5     56.951   32.801
 1202     57.095   36.007
 1202.5     57.319   38.881
 1203     57.543   39.08
 1203.5     58.259   39.279
 1204     61.156   39.479
 1204.5     64.053   39.678
 1205     66.712   39.101
 1205.5     68.897   37.899
 1206     68.837   36.696
 1206.5     68.704   35.494
 1207     67.98   34.291
 1207.5     67.255   33.46
 1208     66.531   32.988
 1208.5     65.807   32.517
 1209     65.121   32.045
 1209.5     65.212   31.573
 1210     65.216   31.102
 1210.5     61.513   30.63
 1211     61.583   30.878
 1211.5     65.353   32.072
 1212     67.309   33.266
 1212.5     67.296   34.459
 1213     67.282   35.024
 1213.5     67.269   34.509
 1214     67.256   33.994
 1214.5     66.618   33.479
 1215     65.928   34.025
 1215.5     65.239   34.786
 1216     61.489   35.546
 1216.5     56.041   36.307
 1217     56.282   37.068
 1217.5     59.438   37.486
 1218     65.347   36.885
 1218.5     65.491   36.285
 1219     65.636   35.684
 1219.5     61.325   35.084
 1220     57.401   35.223
 1220.5     57.34   38.342
 1221     57.28   40.814
 1221.5     57.219   39.812
 1222     57.159   38.81
 1222.5     57.098   37.808
 1223     57.038   36.806
 1223.5     56.978   36.421
 1224     57.054   36.421
 1224.5     57.748   36.42
 1225     63.122   36.073
 1225.5     61.708   35.473
 1226     60.294   34.872
 1226.5     58.88   34.272
 1227     62.055   33.671
 1227.5     60.863   33.071
 1228     59.671   33.578
 1228.5     58.479   35.129
 1229     67.137   36.681
 1229.5     67.257   38.232
 1230     65.69   39.783
 1230.5     62.673   41.335
 1231     59.67   42.886
 1231.5     58.728   44.438
 1232     57.787   43.263
 1232.5     57.33   41.759
 1233     57.407   40.255
 1233.5     57.483   40.25
 1234     57.56   40.474
 1234.5     57.637   40.698
 1235     57.714   40.923
 1235.5     68.058   39.538
 1236     69.619   37.792
 1236.5     69.329   36.045
 1237     69.04   34.299
 1237.5     68.75   32.552
 1238     68.46   33.613
 1238.5     68.17   35.468
 1239     67.881   37.323
 1239.5     66.748   39.178
 1240     63.661   40.506
 1240.5     60.573   39.755
 1241     57.486   39.004
 1241.5     56.886   38.254
 1242     57.076   37.503
 1242.5     57.265   36.752
 1243     57.593   36.295
 1243.5     58.42   37.622
 1244     59.247   38.949
 1244.5     60.074   40.276
 1245     67.441   41.602
 1245.5     67.486   43.347
 1246     67.531   45.407
 1246.5     67.576   47.466
 1247     67.593   49.525
 1247.5     67.392   51.585
 1248     67.19   53.644
 1248.5     66.989   53.11
 1249     66.788   52.509
 1249.5     66.249   51.909
 1250     65.504   53.095
 1250.5     66.142   54.39
 1251     66.779   55.684
 1251.5     67.417   53.064
 1252     66.743   49.997
 1252.5     64.743   46.931
 1253     62.742   43.864
 1253.5     60.742   40.797
 1254     67.563   37.73
 1254.5     67.582   36.424
 1255     67.601   38.115
 1255.5     67.62   39.805
 1256     67.64   41.496
 1256.5     67.659   43.186
 1257     67.678   44.877
 1257.5     67.697   46.567
 1258     67.717   48.258
 1258.5     67.736   49.948
 1259     67.755   50.762
 1259.5     67.774   48.502
 1260     67.794   46.241
 1260.5     66.027   43.98
 1261     63.795   42.364
