###############################################
##         ENVERUS                           ##
##         EPlus - Open Hole                 ##
##         PERMIAN / DELAWARE                ##
##         Copyright ©                       ##
##         Enverus Version - V4.0            ##
##         Nov 20 2023                       ##
##         42-389-00438-00-00                ##
###############################################
## Copyright 2017-2023  ENVERUS.  All Rights Reserved. 
## Confidential - Property of ENVERUS, use governed by terms and 
## conditions found within the existing Information Services Subscription Agreement 
## (as may be amended, the “ISSA”) between Customer and ENVERUS. 
## 
#___________________________________________________________________________________________________
~VERSION INFORMATION
# MNEM.UNIT                               DATA : DESCRIPTION OF MNEMONIC
#-----.-----     ----------------------------- : -----------------------------
VERS.                                     2.00 : CWLS LOG ASCII STANDARD - VERSION 2.00
WRAP.                                       NO : MULTIPLE LINES PER DEPTH STEP
VEND.                                  ENVERUS : VENDOR
ENV_TYPE.                    EPLUS - OPEN HOLE : Enverus Essential Plus Curves – Accessible through Enverus Core(TM)
ENV_VERS.                                 V4.0 : EPlus - Open Hole Version number 
ENV_DOC.                              32899000 : ENVERUS Header Document id
ENV_REF.                               PERMIAN : ENVERUS BASIN OR PLAY APPLIED REFERENCE LIMITS 
#___________________________________________________________________________________________________ 
~WELL INFORMATION 
# uyaQ8P8kQDJ9DXFS5hR1PxmExEOYaAUkY5f3/tnOS+scoPAUWgXA1zCIHGRbWCuSuUcwDzaESCjqjWQ81XhadA== 
# MNEM.UNIT                                              DATA : DESCRIPTION OF MNEMONIC 
#-----.-----                    ----------------------------- : ----------------------------- 
CNTY.                                                  REEVES : COUNTY 
STATE.                                                  TEXAS : STATE 
CNTRY.                                                    USA : COUNTRY 
API.                                             42-389-00438 : API (10 Digit) 
API_14.                                    42-389-00438-00-00 : API (14 Digits) 
API_14_std.                                 42-389-00438-0000 : API (14 Digits Standard) 
UWI.                                           42389004380000 : UNIQUE WELL ID
STRT.FT                                                    49 : START DEPTH
STOP.FT                                                   271 : STOP DEPTH
STEP.FT                                                   0.5 : STEP DEPTH
NULL.                                               -999.2500 : NULL VALUE
WELL.                                    YOUNG, J  B , ETAL 4 : WELL NAME 
GR_ELEV.                                                 2770 : GROUND ELEVATION 
SLAT.                                                 31.1804 : SURFACE LATITUDE 
SLONG.                                              -103.3622 : SURFACE LONGITUDE
#___________________________________________________________________________________________________ 
~CURVE INFORMATION 
# MNEM.UNIT           : CURVE DESCRIPTION 
#-----.-----          : ----------------------------- 
DEPT.FT               : MEASURED DEPTH 
GR_E.API              : ENVERUS GAMMA RAY - CLEANED BLENDED AND LUMPED 
GR_F.                 : ENVERUS GAMMA RAY - OUTLIER INDICATOR - 0=(IN BOUNDS) 1=(OUT OF BOUNDS) 2=(REPEATING) 
GR_S.                 : ENVERUS GAMMA RAY - SOURCE INDICATOR 
GR_U.                 : ENVERUS GAMMA RAY - OPTION INDICATOR - 0=(NO OPTION) 1=(OTHER OPTIONS) 
DT_E.US/FT            : ENVERUS SONIC TRAVEL TIME - CLEANED BLENDED AND LUMPED 
DT_F.                 : ENVERUS SONIC TRAVEL TIME - OUTLIER INDICATOR - 0=(IN BOUNDS) 1=(OUT OF BOUNDS) 2=(REPEATING) 
DT_S.                 : ENVERUS SONIC TRAVEL TIME - SOURCE INDICATOR 
DT_U.                 : ENVERUS SONIC TRAVEL TIME - OPTION INDICATOR - 0=(NO OPTION) 1=(OTHER OPTIONS)
#___________________________________________________________________________________________________ 
~A         DEPT           GR_E           GR_F           GR_S           GR_U           DT_E           DT_F           DT_S           DT_U
# ...
         255.50         -0.443           1.00           0.00           0.00       77.45900           0.00           0.00           0.00
         256.00         -0.437           1.00           0.00           0.00       76.35200           0.00           0.00           0.00
         256.50         -0.432           1.00           0.00           0.00       76.28400           0.00           0.00           0.00
         257.00         -0.426           1.00           0.00           0.00       76.24100           0.00           0.00           0.00
         257.50         -0.420           1.00           0.00           0.00       76.22400           0.00           0.00           0.00
         258.00         -0.414           1.00           0.00           0.00       76.23300           0.00           0.00           0.00
         258.50         -0.408           1.00           0.00           0.00       76.02200           0.00           0.00           0.00
         259.00         -0.403           1.00           0.00           0.00       75.57600           0.00           0.00           0.00
         259.50         -0.397           1.00           0.00           0.00       74.68500           0.00           0.00           0.00
         260.00         -0.391           1.00           0.00           0.00       74.25400           0.00           0.00           0.00
         260.50         -0.385           1.00           0.00           0.00       74.77300           0.00           0.00           0.00
         261.00         -0.379           1.00           0.00           0.00       75.53700           0.00           0.00           0.00
         261.50         -0.374           1.00           0.00           0.00       75.56900           0.00           0.00           0.00
         262.00         -0.368           1.00           0.00           0.00       75.38200           0.00           0.00           0.00
         262.50         -0.362           1.00           0.00           0.00       74.85500           0.00           0.00           0.00
         263.00         -0.356           1.00           0.00           0.00       74.65300           0.00           0.00           0.00
         263.50         -0.350           1.00           0.00           0.00       73.71700           0.00           0.00           0.00
         264.00         -0.344           1.00           0.00           0.00       73.31200           0.00           0.00           0.00
         264.50         -0.339           1.00           0.00           0.00       73.25800           0.00           0.00           0.00
         265.00         -0.333           1.00           0.00           0.00       73.50900           0.00           0.00           0.00
         265.50         -0.327           1.00           0.00           0.00       74.11800           0.00           0.00           0.00
         266.00         -0.321           1.00           0.00           0.00       76.14300           0.00           0.00           0.00
         266.50         -0.315           1.00           0.00           0.00       77.10200           0.00           0.00           0.00
         267.00         -0.310           1.00           0.00           0.00       77.82800           0.00           0.00           0.00
         267.50         -0.304           1.00           0.00           0.00       78.12300           0.00           0.00           0.00
         268.00         -0.298           1.00           0.00           0.00       79.98400           0.00           0.00           0.00
         268.50         -0.292           1.00           0.00           0.00       80.65200           0.00           0.00           0.00
         269.00         -0.286           1.00           0.00           0.00       80.81800           0.00           0.00           0.00
         269.50         -0.281           1.00           0.00           0.00       81.38200           0.00           0.00           0.00
         270.00         -0.275           1.00           0.00           0.00       81.19900           0.00           0.00           0.00
         270.50       -999.250        -999.25        -999.25        -999.25       80.07200           0.00           0.00           0.00
         271.00       -999.250        -999.25        -999.25        -999.25       78.63100           0.00           0.00           0.00
