#--------------------------------------------------#
#-------------------ENVERUS, INC.------------------#
#------------------WWW.ENVERUS.COM-----------------#
#------------------COPYRIGHT 2020------------------#
#--------------------------------------------------#
#THIS FILE MAY BE USED ONLY IN ACCORDANCE WITH A CURRENT SUBSCRIPTION AGREEMENT BETWEEN
#THE USER AND ENVERUS, INC. NO PART OF THIS FILE MAY BE REPRODUCED, USED, COPIED,
#MODIFIED, PROPAGATED, OR DISTRIBUTED EXCEPT IN ACCORDANCE WITH THE SUBSCRIPTION
#AGREEMENT. UNAUTHORIZED USE OR DISTRIBUTION OF ALL OR ANY PART OF THIS FILE MAY VIOLATE
#COPYRIGHT, TRADEMARK, AND/OR OTHER LAWS AND IS SUBJECT TO CIVIL AS WELL AS CRIMINAL
#SANCTIONS.
#--------------------------------------------------#
#THIS FILE IS PROVIDED "AS-IS" AND ALL WARRANTIES ARE EXPRESSLY DISCLAIMED, WHETHER
#EXPRESS, ORAL, IMPLIED, STATUTORY OR OTHERWISE, INCLUDING ANY IMPLIED WARRANTY OF FITNESS
#FOR A PARTICULAR PURPOSE, MERCHANTABILITY, TITLE OR NON-INFRINGEMENT, AND ANY WARRANTIES
#ARISING BY VIRTUE OF CUSTOM OF TRADE OR COURSE OF DEALING.  FURTHER, ENVERUS, INC.
#AND ITS LICENSORS DO NOT REPRESENT OR WARRANT THAT THIS FILE WILL MEET USER'S
#REQUIREMENTS OR ARE SUITABLE FOR USER'S NEEDS OR THAT THE DATA OR RESULTS PROVIDED IN
#CONJUNCTION THEREWITH ARE CORRECT, ACCURATE, TIMELY OR RELIABLE. THESE DISCLAIMERS SHALL
#APPLY REGARDLESS OF ANY FAILURE OF ESSENTIAL PURPOSE OF ANY LIMITED REMEDY.  SOME
#JURISDICTIONS DO NOT ALLOW THE EXCLUSION OF CERTAIN WARRANTIES SO SOME OF THE ABOVE
#EXCLUSIONS MAY NOT APPLY. IN NO EVENT SHALL ENVERUS, INC. OR ANY OF ITS AFFILIATES
#BE LIABLE UNDER ANY LEGAL THEORY, WHETHER IN TORT (INCLUDING WITHOUT LIMITATION
#NEGLIGENCE), CONTRACT, STRICT LIABILITY, STATUTORY OR OTHERWISE, FOR ANY SPECIAL,
#INCIDENTAL, CONSEQUENTIAL, EXEMPLARY, PUNITIVE OR INDIRECT DAMAGE OF ANY KIND, INCLUDING
#WITHOUT LIMITATION LOSS OF REVENUE, PROFITS, GOODWILL, USE, AND/OR DATA OR THE COST OF
#PROCUREMENT OF SUBSTITUTE GOODS OR SERVICES, EVEN IF APPRISED OF THE POSSIBILITY OF SUCH
#DAMAGES IN ADVANCE.
#--------------------------------------------------#

~VERSION INFORMATION
VERS. 2.0 : CWLS LOG ASCII STANDARD - VERSION 2.0
WRAP.  NO : ONE LINE PER DEPTH STEP
~WELL INFORMATION
#MNEMONIC     .UNIT              VALUE :DESCRIPTION
STRT       .FT                101 :START DEPTH
STOP       .FT                5382 :STOP DEPTH
STEP       .FT                   0.500 :STEP
NULL       .                  -999.990 :NULL
UWI        .              42389007790000 :UNIQUE WELL ID
API        .              42389007790000 :API NUMBER
COMP       .         :COMPANY
WELL       .         1, :WELL
DATE       .                            :LOG DATE
~CURVE INFORMATION
#MNEMONIC     .UNIT      API CODE :CURVE DESCRIPTION
DEPTH       .FT                      :MEASURED DEPTH
DT.US/FT        UNKNOWN   :DT
GR.API        UNKNOWN   :GR
~A    DEPTH    DT    GR
# ...
 1411.5     58.45   19.954
 1412     59.717   21.878
 1412.5     60.054   25.006
 1413     59.683   28.579
 1413.5     59.311   32.152
 1414     58.94   35.725
 1414.5     58.569   34.901
 1415     58.197   31.775
 1415.5     57.826   28.649
 1416     57.866   25.523
 1416.5     57.911   22.396
 1417     57.956   19.728
 1417.5     58.001   20.219
 1418     59.703   20.709
 1418.5     61.512   21.199
 1419     63.336   21.689
 1419.5     65.161   22.179
 1420     66.987   21.513
 1420.5     68.812   19.934
 1421     64.939   18.355
 1421.5     66.249   16.776
 1422     67.559   15.908
 1422.5     67.989   15.683
 1423     66.54   15.458
 1423.5     65.091   15.233
 1424     64.768   15.008
 1424.5     67.3   14.783
 1425     66.535   14.557
 1425.5     64.743   14.332
 1426     62.952   14.598
 1426.5     63.393   15.495
 1427     64.672   16.393
 1427.5     65.951   17.291
 1428     67.23   19.397
 1428.5     68.509   23.443
 1429     65.17   27.489
 1429.5     60.151   26.508
 1430     58.963   24.538
 1430.5     57.776   22.568
 1431     56.974   20.598
 1431.5     59.892   18.628
 1432     63.221   17.17
 1432.5     65.942   16.945
 1433     60.788   16.72
 1433.5     58.313   16.495
 1434     58.007   16.101
 1434.5     58.116   15.2
 1435     58.226   14.299
 1435.5     58.336   13.398
 1436     58.445   12.497
 1436.5     58.555   11.596
 1437     60.291   10.695
 1437.5     63.88   10.148
 1438     64.615   11.206
 1438.5     61.741   12.265
 1439     58.868   13.324
 1439.5     61.583   14.382
 1440     64.841   15.441
 1440.5     68.099   16.499
 1441     68.595   16.441
 1441.5     68.691   15.615
 1442     68.656   14.789
 1442.5     68.366   13.963
 1443     68.076   14.136
 1443.5     64.543   15.116
 1444     60.256   16.095
 1444.5     58.712   17.075
 1445     58.153   18.054
 1445.5     58.258   19.034
 1446     58.364   17.381
 1446.5     58.469   15.676
 1447     58.482   13.972
 1447.5     58.163   14.992
 1448     57.845   16.139
 1448.5     57.527   17.286
 1449     57.208   18.433
 1449.5     56.89   19.579
 1450     58.158   20.726
 1450.5     60.27   20.424
 1451     60.645   19.914
 1451.5     59.99   19.403
 1452     59.334   18.893
 1452.5     58.896   18.382
 1453     60.803   17.872
 1453.5     62.709   17.362
 1454     62.168   16.851
 1454.5     59.651   16.341
 1455     57.133   15.831
 1455.5     54.655   16.593
 1456     55.982   17.735
 1456.5     57.31   18.878
 1457     58.637   20.02
 1457.5     59.965   21.163
 1458     61.292   21.828
 1458.5     59.091   20.54
 1459     56.697   19.252
 1459.5     54.302   17.964
 1460     55.15   17.753
 1460.5     56.311   18.086
 1461     57.473   18.419
 1461.5     58.634   18.752
 1462     57.193   18.956
 1462.5     55.333   18.13
 1463     53.73   17.304
 1463.5     52.643   16.478
 1464     51.959   15.735
 1464.5     52.181   16.078
 1465     52.402   16.42
 1465.5     52.623   16.762
 1466     52.844   16.367
 1466.5     53.065   15.316
 1467     53.287   14.264
 1467.5     53.508   13.213
 1468     53.729   13.479
 1468.5     54.049   15.109
 1469     54.773   16.74
 1469.5     55.497   18.37
 1470     56.221   20
 1470.5     56.433   21.631
 1471     56.373   20.403
 1471.5     56.313   18.9
 1472     57.816   18.992
 1472.5     60.298   19.271
 1473     62.78   19.551
 1473.5     65.15   19.831
 1474     66.043   20.11
 1474.5     66.936   20.39
 1475     66.205   20.669
 1475.5     64.085   20.633
 1476     61.966   19.883
 1476.5     59.846   19.132
 1477     57.727   18.381
 1477.5     59.424   17.63
 1478     61.181   16.88
 1478.5     62.937   16.129
 1479     64.694   15.378
 1479.5     65.343   14.932
 1480     64.515   15.531
 1480.5     63.687   16.13
 1481     62.86   16.729
 1481.5     62.032   17.328
 1482     61.204   17.927
 1482.5     60.376   18.526
 1483     58.984   18.966
 1483.5     57.381   18.42
 1484     57.542   17.874
 1484.5     57.702   17.328
 1485     57.575   16.783
 1485.5     56.754   16.237
 1486     55.933   16.496
 1486.5     56.125   17.335
 1487     56.632   18.173
 1487.5     56.978   19.011
 1488     56.79   19.849
 1488.5     56.603   19.839
 1489     56.415   19.038
 1489.5     56.227   18.237
 1490     62.089   17.436
 1490.5     60.985   16.636
 1491     59.881   15.835
 1491.5     58.777   15.034
 1492     63.936   14.233
 1492.5     61.853   14.632
 1493     59.77   15.102
 1493.5     58.844   15.573
 1494     58.723   16.044
 1494.5     58.603   16.514
 1495     58.482   16.985
 1495.5     58.361   17.456
 1496     58.246   17.926
 1496.5     58.367   18.397
 1497     58.487   18.868
 1497.5     58.608   19.338
 1498     58.729   19.809
 1498.5     58.673   20.28
 1499     58.613   20.75
 1499.5     58.552   20.476
 1500     58.492   19.985
 1500.5     58.432   19.494
 1501     58.371   19.003
 1501.5     58.311   18.511
 1502     58.25   17.586
 1502.5     58.19   15.092
 1503     58.13   12.598
 1503.5     58.069   10.104
 1504     58.009   10.056
 1504.5     58.16   11.103
 1505     58.356   12.151
 1505.5     58.552   13.199
 1506     58.749   14.246
 1506.5     58.735   15.294
 1507     58.66   16.342
 1507.5     58.585   17.389
 1508     58.51   16.156
 1508.5     58.436   13.315
 1509     58.361   10.475
 1509.5     58.286   7.849
 1510     58.211   8.402
 1510.5     58.137   8.955
 1511     58.062   9.508
 1511.5     58.029   10.061
 1512     58.24   10.614
 1512.5     58.465   11.167
 1513     58.786   10.929
 1513.5     59.726   9.847
 1514     61.074   8.766
 1514.5     62.421   7.684
 1515     61.611   6.603
 1515.5     59.135   6.646
 1516     68.028   8.142
 1516.5     67.933   9.637
 1517     67.838   11.133
 1517.5     67.743   12.409
 1518     67.648   13.331
 1518.5     67.553   14.252
 1519     67.458   15.173
 1519.5     59.987   16.094
 1520     59.926   17.015
 1520.5     59.866   17.937
 1521     59.805   16.942
 1521.5     59.745   15.466
 1522     59.685   13.991
 1522.5     55.436   12.515
 1523     54.965   11.04
 1523.5     54.494   10.083
 1524     54.023   10.682
 1524.5     53.553   11.281
 1525     53.896   11.88
 1525.5     55.971   12.479
 1526     58.045   12.86
 1526.5     63.094   12.302
 1527     64.958   11.745
 1527.5     65.662   11.187
 1528     66.366   10.63
 1528.5     66.408   10.072
 1529     66.215   9.515
 1529.5     65.15   8.974
 1530     60.72   8.561
 1530.5     58.191   8.148
 1531     56.52   7.736
 1531.5     54.85   7.323
 1532     53.953   6.91
 1532.5     52.504   6.497
 1533     52.998   6.084
 1533.5     53.492   5.725
 1534     53.985   7.031
 1534.5     54.479   8.337
 1535     54.973   9.643
 1535.5     55.255   10.949
 1536     55.376   12.255
 1536.5     55.497   9.797
 1537     55.617   9.033
 1537.5     55.738   8.268
 1538     55.859   7.504
 1538.5     55.979   6.739
 1539     56.1   7.475
 1539.5     56.221   10.353
 1540     57.244   13.23
 1540.5     58.303   16.107
 1541     59.362   18.985
 1541.5     60.421   21.862
 1542     61.064   20.205
 1542.5     61.094   17.596
 1543     60.526   14.987
 1543.5     58.98   12.378
 1544     57.434   10.695
 1544.5     57.87   11.245
 1545     58.654   11.794
 1545.5     59.438   12.343
 1546     59.899   12.892
 1546.5     60.286   13.441
 1547     60.672   13.673
 1547.5     61.058   12.788
 1548     61.444   11.903
 1548.5     61.087   11.018
 1549     60.483   10.133
 1549.5     59.88   9.248
 1550     59.276   8.363
 1550.5     58.207   7.478
 1551     56.94   6.593
 1551.5     56.671   5.708
 1552     56.879   6.019
 1552.5     57.087   7.046
 1553     57.295   8.072
 1553.5     57.503   8.966
 1554     57.711   8.366
 1554.5     57.919   7.765
 1555     58.127   7.165
 1555.5     58.334   6.564
 1556     58.272   5.987
 1556.5     58.004   6.187
 1557     57.736   6.387
 1557.5     57.468   6.587
 1558     57.199   6.787
 1558.5     56.931   6.578
 1559     56.663   5.923
 1559.5     56.395   5.268
 1560     56.126   4.613
 1560.5     55.858   3.958
 1561     55.59   3.303
 1561.5     55.322   4.862
