#--------------------------------------------------#
#-------------------ENVERUS, INC.------------------#
#------------------WWW.ENVERUS.COM-----------------#
#------------------COPYRIGHT 2020------------------#
#--------------------------------------------------#
#THIS FILE MAY BE USED ONLY IN ACCORDANCE WITH A CURRENT SUBSCRIPTION AGREEMENT BETWEEN
#THE USER AND ENVERUS, INC. NO PART OF THIS FILE MAY BE REPRODUCED, USED, COPIED,
#MODIFIED, PROPAGATED, OR DISTRIBUTED EXCEPT IN ACCORDANCE WITH THE SUBSCRIPTION
#AGREEMENT. UNAUTHORIZED USE OR DISTRIBUTION OF ALL OR ANY PART OF THIS FILE MAY VIOLATE
#COPYRIGHT, TRADEMARK, AND/OR OTHER LAWS AND IS SUBJECT TO CIVIL AS WELL AS CRIMINAL
#SANCTIONS.
#--------------------------------------------------#
#THIS FILE IS PROVIDED "AS-IS" AND ALL WARRANTIES ARE EXPRESSLY DISCLAIMED, WHETHER
#EXPRESS, ORAL, IMPLIED, STATUTORY OR OTHERWISE, INCLUDING ANY IMPLIED WARRANTY OF FITNESS
#FOR A PARTICULAR PURPOSE, MERCHANTABILITY, TITLE OR NON-INFRINGEMENT, AND ANY WARRANTIES
#ARISING BY VIRTUE OF CUSTOM OF TRADE OR COURSE OF DEALING.  FURTHER, ENVERUS, INC.
#AND ITS LICENSORS DO NOT REPRESENT OR WARRANT THAT THIS FILE WILL MEET USER'S
#REQUIREMENTS OR ARE SUITABLE FOR USER'S NEEDS OR THAT THE DATA OR RESULTS PROVIDED IN
#CONJUNCTION THEREWITH ARE CORRECT, ACCURATE, TIMELY OR RELIABLE. THESE DISCLAIMERS SHALL
#APPLY REGARDLESS OF ANY FAILURE OF ESSENTIAL PURPOSE OF ANY LIMITED REMEDY.  SOME
#JURISDICTIONS DO NOT ALLOW THE EXCLUSION OF CERTAIN WARRANTIES SO SOME OF THE ABOVE
#EXCLUSIONS MAY NOT APPLY. IN NO EVENT SHALL ENVERUS, INC. OR ANY OF ITS AFFILIATES
#BE LIABLE UNDER ANY LEGAL THEORY, WHETHER IN TORT (INCLUDING WITHOUT LIMITATION
#NEGLIGENCE), CONTRACT, STRICT LIABILITY, STATUTORY OR OTHERWISE, FOR ANY SPECIAL,
#INCIDENTAL, CONSEQUENTIAL, EXEMPLARY, PUNITIVE OR INDIRECT DAMAGE OF ANY KIND, INCLUDING
#WITHOUT LIMITATION LOSS OF REVENUE, PROFITS, GOODWILL, USE, AND/OR DATA OR THE COST OF
#PROCUREMENT OF SUBSTITUTE GOODS OR SERVICES, EVEN IF APPRISED OF THE POSSIBILITY OF SUCH
#DAMAGES IN ADVANCE.
#--------------------------------------------------#

~VERSION INFORMATION
VERS. 2.0 : CWLS LOG ASCII STANDARD - VERSION 2.0
WRAP.  NO : ONE LINE PER DEPTH STEP
~WELL INFORMATION
#MNEMONIC     .UNIT              VALUE :DESCRIPTION
STRT       .FT                102 :START DEPTH
STOP       .FT                9071 :STOP DEPTH
STEP       .FT                   0.500 :STEP
NULL       .                  -999.99 :NULL
UWI        .                42389104910000 :UNIQUE WELL ID
API        .                42389104910000 :API NUMBER
COMP       .         :COMPANY
WELL       .        :WELL
DATE       .                 :LOG DATE
FLD       .                 :FIELD NAME
LOC       .                  UNK :LOCATION
CNTY       .                 UNK :COUNTY
STAT       .                 UNK :STATE
CTRY       .                 UNK :COUNTY
SRVC       .                 UNK :SERVICE COMPANY
~CURVE INFORMATION
#MNEMONIC     .UNIT      API CODE :CURVE DESCRIPTION
DEPTH       .FT                      :MEASURED DEPTH
DT.MSEC/FT        UNKNOWN   :DT
GR.API        UNKNOWN   :GR
~A    DEPTH    DT    GR
# ...
 7273     71.70446   55.59021
 7273.5     70.27679   51.47576
 7274     68.84913   47.36131
 7274.5     67.42147   45.29499
 7275     66.46107   44.9077
 7275.5     67.42355   48.23762
 7276     68.48438   51.70238
 7276.5     69.54522   55.16714
 7277     70.31635   58.87094
 7277.5     70.88381   62.7296
 7278     71.65817   65.82408
 7278.5     71.74537   64.26593
 7279     70.01166   62.05371
 7279.5     68.06009   59.84149
 7280     66.10852   57.88905
 7280.5     66.95935   60.3243
 7281     68.71925   62.75955
 7281.5     70.47915   65.1948
 7282     71.78185   64.9948
 7282.5     69.88025   61.40361
 7283     67.56453   55.29685
 7283.5     65.55299   49.1901
 7284     64.77722   48.41372
 7284.5     66.53939   49.26407
 7285     68.73393   53.1844
 7285.5     70.92846   58.87375
 7286     73.88391   64.5631
 7286.5     75.69683   69.36
 7287     74.49102   70.50294
 7287.5     72.62451   69.15249
 7288     70.758   67.84387
 7288.5     70.16984   67.57291
 7289     70.27955   67.30196
 7289.5     69.56851   67.031
 7290     68.33163   66.76005
 7290.5     67.75686   67.89528
 7291     68.30156   70.35148
 7291.5     71.72245   72.80768
 7292     73.80815   74.64605
 7292.5     73.56809   72.75444
 7293     73.32802   70.21173
 7293.5     72.63832   68.15774
 7294     67.64848   68.15754
 7294.5     67.67599   68.15735
 7295     67.70351   70.5226
 7295.5     68.3056   73.0575
 7296     69.6541   75.5924
 7296.5     71.00261   75.90664
 7297     72.35111   75.63602
 7297.5     73.36604   77.07996
 7298     73.58494   80.0397
 7298.5     74.46834   82.99944
 7299     75.10147   84.46658
 7299.5     75.14264   84.91821
 7300     75.09732   84.37587
 7300.5     74.97379   83.60242
 7301     75.10782   82.82896
 7301.5     75.27886   82.2262
 7302     75.03114   81.71856
 7302.5     74.80303   74.58811
 7303     74.61471   70.76851
 7303.5     74.06901   67.97143
 7304     73.40464   62.48985
 7304.5     71.84867   57.00827
 7305     70.27124   51.52669
 7305.5     67.15095   46.04512
 7306     66.04337   45.53303
 7306.5     67.46113   52.65581
 7307     68.87889   61.3571
 7307.5     70.69487   70.05838
 7308     72.07829   74.04833
 7308.5     71.17951   73.59709
 7309     70.39697   70.3897
 7309.5     71.75684   62.66953
 7310     71.91962   54.54604
 7310.5     71.95273   53.58283
 7311     71.7953   53.25147
 7311.5     71.10904   54.10093
 7312     68.89164   55.22922
 7312.5     65.98856   56.93236
 7313     65.6396   60.0414
 7313.5     67.29055   64.40999
 7314     68.98173   68.36113
 7314.5     70.14144   66.36731
 7315     69.18919   63.37985
 7315.5     68.1548   62.28761
 7316     67.3726   64.8488
 7316.5     69.48708   67.40999
 7317     71.60156   69.97119
 7317.5     72.11444   69.58572
 7318     72.11453   68.23447
 7318.5     71.55009   69.37227
 7319     70.41417   73.14066
 7319.5     69.73763   76.90906
 7320     70.30219   80.67745
 7320.5     70.86676   81.02124
 7321     72.81754   81.02129
 7321.5     74.70503   78.99559
 7322     74.54614   70.70946
 7322.5     73.41071   67.68372
 7323     72.15772   62.721
 7323.5     71.56417   55.35211
 7324     69.7379   47.98322
 7324.5     67.84073   45.06951
 7325     68.14206   44.19256
 7325.5     68.08915   45.7751
 7326     67.51638   52.12406
 7326.5     67.2477   58.47302
 7327     71.18389   64.82198
 7327.5     71.90019   71.17094
 7328     72.9042   69.86496
 7328.5     74.16343   66.5907
 7329     72.66882   66.39643
 7329.5     72.37998   66.09226
 7330     72.70794   65.70564
 7330.5     72.57211   62.83459
 7331     72.33045   59.93625
 7331.5     71.94439   57.12723
 7332     71.55833   57.35307
 7332.5     71.27945   57.4266
 7333     71.17082   57.42658
 7333.5     71.87775   58.80596
 7334     72.58467   63.88919
 7334.5     73.97306   72.22175
 7335     76.38983   77.17143
 7335.5     77.38632   78.67955
 7336     77.95089   78.84903
 7336.5     78.15131   77.91685
 7337     77.33215   76.31915
 7337.5     76.513   73.18397
 7338     76.10339   68.54662
 7338.5     76.43134   63.90926
 7339     76.47443   59.81218
 7339.5     75.22778   59.30416
 7340     72.50004   57.86004
 7340.5     70.91046   54.43846
 7341     69.4655   51.01687
 7341.5     68.02441   51.40017
 7342     67.56044   52.65733
 7342.5     67.45746   53.91449
 7343     68.02934   54.75986
 7343.5     69.01511   55.55331
 7344     69.15609   55.3543
 7344.5     68.49594   50.7239
 7345     67.22346   46.0935
 7345.5     65.69047   45.4653
 7346     64.65596   48.87556
 7346.5     65.58911   52.3004
 7347     73.38023   55.72523
 7347.5     76.5573   59.15006
 7348     75.13178   60.54369
 7348.5     73.04271   60.05119
 7349     70.95365   59.65457
 7349.5     68.86459   62.26421
 7350     71.46112   64.87385
 7350.5     74.04457   66.01038
 7351     73.15186   62.63422
 7351.5     71.09656   58.82847
 7352     69.04127   56.02168
 7352.5     68.10351   58.92905
 7353     69.71466   60.31809
 7353.5     70.07371   58.96581
 7354     68.90338   57.61354
 7354.5     67.73306   57.56312
 7355     67.48522   61.69179
 7355.5     68.85924   66.64656
 7356     71.14088   71.60132
 7356.5     74.25379   73.31769
 7357     74.64898   69.61336
 7357.5     74.15207   64.52887
 7358     73.63979   59.44438
 7358.5     73.81526   56.31419
 7359     74.67413   53.25408
 7359.5     75.53299   49.7468
 7360     75.06082   46.06691
 7360.5     74.57499   45.84143
 7361     74.08917   45.96906
 7361.5     74.10964   46.22391
 7362     74.43759   46.47876
 7362.5     74.63328   46.87387
 7363     74.11996   47.69
 7363.5     72.77967   48.44543
 7364     71.43937   49.93035
 7364.5     70.78211   52.92649
 7365     71.97216   57.20094
 7365.5     73.87237   61.4754
 7366     75.77258   65.74986
 7366.5     76.18817   67.16891
 7367     75.72062   65.30566
 7367.5     74.20916   63.10397
 7368     72.6977   60.90228
 7368.5     71.93388   58.70059
 7369     72.05277   57.74998
 7369.5     71.81693   59.93616
 7370     71.95674   62.03144
 7370.5     72.24811   62.03166
 7371     71.55846   62.03188
 7371.5     70.8191   62.34921
 7372     70.92886   63.30264
 7372.5     71.69815   64.25607
 7373     74.12308   65.2095
 7373.5     76.86131   66.16293
 7374     75.66845   61.60166
 7374.5     71.7411   50.05807
 7375     66.1881   39.05635
 7375.5     60.63509   40.36831
 7376     60.65938   47.52366
 7376.5     64.2069   50.6326
 7377     70.30251   52.81907
 7377.5     71.82383   54.65913
 7378     71.89853   56.23887
 7378.5     71.78862   57.8186
 7379     73.07392   59.39834
 7379.5     74.00937   59.69471
 7380     73.76146   56.94561
 7380.5     73.28546   54.1166
 7381     72.70474   51.67013
 7381.5     71.7236   52.16481
 7382     70.69415   52.65948
 7382.5     69.81796   53.15416
 7383     69.48742   53.64883
 7383.5     69.47592   53.40534
 7384     70.47719   49.18504
 7384.5     71.02286   46.68489
 7385     70.24635   45.54466
 7385.5     69.46984   44.40443
 7386     68.69333   43.2642
 7386.5     67.91682   42.70104
 7387     67.27134   43.81595
 7387.5     66.49616   44.93087
 7388     65.66354   43.68981
 7388.5     64.9256   41.78558
 7389     65.11335   39.88134
 7389.5     66.53855   37.97711
 7390     67.80087   36.07288
 7390.5     67.83904   35.08858
 7391     67.51115   32.77444
 7391.5     66.37615   27.58456
 7392     63.21538   24.32638
 7392.5     60.14419   25.4956
 7393     60.3914   30.27637
 7393.5     63.89734   35.05714
 7394     68.02616   39.8379
 7394.5     72.15498   44.54192
 7395     72.81495   42.25639
 7395.5     71.07764   39.97087
 7396     69.34034   37.87549
 7396.5     68.09269   38.81223
 7397     68.33899   39.74898
 7397.5     68.58529   40.68572
 7398     68.83158   40.97344
 7398.5     68.98929   40.4889
 7399     69.09319   40.00437
 7399.5     69.19709   39.56251
 7400     69.30099   39.22378
 7400.5     69.33483   38.22782
 7401     69.2248   36.94575
 7401.5     68.574   35.96025
 7402     66.169   34.90728
 7402.5     63.4711   33.16808
 7403     62.9368   32.8173
