###############################################
##         ENVERUS                           ##
##         Petrophysical Curves              ##
##         PERMIAN / DELAWARE                ##
##         Jan 21 2022                       ##
##         42-389-10491-00-00                ##
###############################################
## Copyright 2017-2022  ENVERUS.  All Rights Reserved. 
## Confidential - Property of ENVERUS, use governed by terms and 
## conditions found within the existing Information Services Subscription Agreement 
## (as may be amended, the “ISSA”) between Customer and ENVERUS. 
## 
~VERSION INFORMATION
# MNEM.UNIT                               DATA : DESCRIPTION OF MNEMONIC
#-----.-----     ----------------------------- : -----------------------------
VERS.                                     2.00 : CWLS LOG ASCII STANDARD - VERSION 2.00
WRAP.                                       NO : MULTIPLE LINES PER DEPTH STEP
VEND.                                  ENVERUS : VENDOR
TYPE.                     PETROPHYSICAL CURVES : ENVERUS PETROPHYSICAL CURVES - ACCESSIBLE THROUGH ENVERUS CORE(TM)
#___________________________________________________________________________________________________ 
~WELL INFORMATION 
# uyaQ8P8kQDJ9DXFS5hR1PxmExEOYaAUkY5f3/tnOS+scoPAUWgXA1zCIHGRbWCuSuUcwDzaESCjqjWQ81XhadA== 
# MNEM.UNIT                                              DATA : DESCRIPTION OF MNEMONIC 
#-----.-----                    ----------------------------- : ----------------------------- 
CNTY.                                                  REEVES : COUNTY 
STATE.                                                  TEXAS : STATE 
CNTRY.                                                    USA : COUNTRY 
API.                                             42-389-10491 : API (10 Digit) 
API_14.                                    42-389-10491-00-00 : API (14 Digits) 
API_14_std.                                 42-389-10491-0000 : API (14 Digits Standard) 
UWI.                                           42389104910000 : UNIQUE WELL ID
STRT.FT                                                 102.0 : START DEPTH
STOP.FT                                                9071.0 : STOP DEPTH
STEP.FT                                                   0.5 : STEP BETWEEN DEPTHS
NULL.                                                 -999.25 : NULL VALUE
COMP.                                FLAT CREEK RESOURCES LLC : COMPANY 
WELL.                                         REEVES-AW-FEE 1 : WELL NAME 
FLD.                                                     TORO : FIELD NAME
#___________________________________________________________________________________________________ 
~CURVE INFORMATION 
#    Zone Description
#          1 = Upper Avalon
#          2 = Middle Avalon
#          3 = Lower Avalon
#          4 = 1st Bone Spring
#          5 = 2nd Bone Spring
#          6 = 2nd Bone Spring Sand
#          7 = 3rd Bone Spring
#          8 = 3rd Bone Spring Sand
#          9 = Wolfcamp XY
#          10 = Wolfcamp A Upper
#          11 = Wolfcamp A Lower
#          12 = Wolfcamp B Upper
#          13 = Wolfcamp B Lower
#          14 = Wolfcamp C
#          15 = Wolfcamp D
#          16 = Pennsylvanian Shale
#          17 = Lower Pennsylvanian Shale
#          18 = Barnett
#          19 = Barnett Lower
#          20 = Mississippian Lime
#          21 = Woodford
#          22 = Base Woodford 
# MNEM.UNIT           : CURVE DESCRIPTION 
#-----.-----          : ----------------------------- 
 DEPT.FT               : MEASURED DEPTH 
 TVD_I.FT              : ENVERUS TRUE VERTICAL DEPTH 
 ZONE_I.               : ENVERUS DEFINED ZONE CODE 
 GR_N_I.API            : ENVERUS NORMALIZED GAMMA RAY LEVERAGED IN GEOLOGICAL MODELLING 
 TEMP_I.DEGF           : ENVERUS INTERPRETED TEMPERATURE DERIVED FROM BOTTOM HOLE TEMPERATURES 
 #___________________________________________________________________________________________________ 
~A         DEPT          TVD_I         ZONE_I         GR_N_I         TEMP_I
# ...
         3653.0       3653.000        -999.25          0.470        101.690
         3653.5       3653.500        -999.25          2.081        101.695
         3654.0       3654.000        -999.25          3.693        101.701
         3654.5       3654.500        -999.25          5.304        101.706
         3655.0       3655.000        -999.25          5.690        101.711
         3655.5       3655.500        -999.25          5.621        101.716
         3656.0       3656.000        -999.25          5.552        101.722
         3656.5       3656.500        -999.25          5.481        101.727
         3657.0       3657.000        -999.25          5.412        101.732
         3657.5       3657.500        -999.25          5.343        101.738
         3658.0       3658.000        -999.25          5.274        101.743
         3658.5       3658.500        -999.25          5.205        101.748
         3659.0       3659.000        -999.25          5.136        101.753
         3659.5       3659.500        -999.25          5.067        101.759
         3660.0       3660.000        -999.25          4.998        101.764
         3660.5       3660.500        -999.25          4.929        101.769
         3661.0       3661.000        -999.25          4.858        101.775
         3661.5       3661.500        -999.25          4.756        101.780
         3662.0       3662.000        -999.25          4.539        101.785
         3662.5       3662.500        -999.25          4.322        101.791
         3663.0       3663.000        -999.25          4.105        101.796
         3663.5       3663.500        -999.25          3.888        101.801
         3664.0       3664.000        -999.25          3.673        101.806
         3664.5       3664.500        -999.25          3.456        101.812
         3665.0       3665.000        -999.25          3.239        101.817
         3665.5       3665.500        -999.25          3.022        101.822
         3666.0       3666.000        -999.25          3.142        101.828
         3666.5       3666.500        -999.25          3.354        101.833
         3667.0       3667.000        -999.25          3.568        101.838
         3667.5       3667.500        -999.25          3.780        101.843
         3668.0       3668.000        -999.25          3.992        101.849
         3668.5       3668.500        -999.25          4.206        101.854
         3669.0       3669.000        -999.25          4.418        101.859
         3669.5       3669.500        -999.25          4.630        101.865
         3670.0       3670.000        -999.25          4.843        101.870
         3670.5       3670.500        -999.25          5.055        101.875
         3671.0       3671.000        -999.25          5.268        101.881
         3671.5       3671.500        -999.25          5.481        101.886
         3672.0       3672.000        -999.25          5.693        101.891
         3672.5       3672.500        -999.25          5.907        101.896
         3673.0       3673.000        -999.25          5.575        101.902
         3673.5       3673.500        -999.25          5.036        101.907
         3674.0       3674.000        -999.25          4.498        101.912
         3674.5       3674.500        -999.25          3.959        101.918
         3675.0       3675.000        -999.25          3.420        101.923
         3675.5       3675.500        -999.25          2.933        101.928
         3676.0       3676.000        -999.25          2.931        101.934
         3676.5       3676.500        -999.25          2.930        101.939
         3677.0       3677.000        -999.25          2.926        101.944
         3677.5       3677.500        -999.25          2.925        101.949
         3678.0       3678.000        -999.25          2.923        101.955
         3678.5       3678.500        -999.25          2.920        101.960
         3679.0       3679.000        -999.25          2.918        101.965
         3679.5       3679.500        -999.25          3.000        101.971
         3680.0       3680.000        -999.25          3.374        101.976
         3680.5       3680.500        -999.25          3.748        101.981
         3681.0       3681.000        -999.25          4.122        101.986
         3681.5       3681.500        -999.25          4.495        101.992
         3682.0       3682.000        -999.25          4.870        101.997
         3682.5       3682.500        -999.25          4.903        102.002
         3683.0       3683.000        -999.25          4.709        102.008
         3683.5       3683.500        -999.25          4.516        102.013
         3684.0       3684.000        -999.25          4.322        102.018
         3684.5       3684.500        -999.25          4.128        102.024
         3685.0       3685.000        -999.25          3.934        102.029
         3685.5       3685.500        -999.25          3.740        102.034
         3686.0       3686.000        -999.25          3.548        102.039
         3686.5       3686.500        -999.25          3.541        102.045
         3687.0       3687.000        -999.25          3.605        102.050
         3687.5       3687.500        -999.25          3.671        102.055
         3688.0       3688.000        -999.25          3.735        102.061
         3688.5       3688.500        -999.25          3.775        102.066
         3689.0       3689.000        -999.25          3.729        102.071
         3689.5       3689.500        -999.25          3.681        102.077
         3690.0       3690.000        -999.25          3.635        102.082
         3690.5       3690.500        -999.25          3.587        102.087
         3691.0       3691.000        -999.25          3.541        102.092
         3691.5       3691.500        -999.25          3.494        102.098
         3692.0       3692.000        -999.25          3.448        102.103
         3692.5       3692.500        -999.25          3.400        102.108
         3693.0       3693.000        -999.25          3.354        102.114
         3693.5       3693.500        -999.25          3.308        102.119
         3694.0       3694.000        -999.25          3.260        102.124
         3694.5       3694.500        -999.25          3.214        102.129
         3695.0       3695.000        -999.25          3.166        102.135
         3695.5       3695.500        -999.25          3.545        102.140
         3696.0       3696.000        -999.25          4.081        102.145
         3696.5       3696.500        -999.25          4.617        102.151
         3697.0       3697.000        -999.25          5.152        102.156
         3697.5       3697.500        -999.25          5.687        102.161
         3698.0       3698.000        -999.25          6.223        102.167
         3698.5       3698.500        -999.25          6.759        102.172
         3699.0       3699.000        -999.25          7.295        102.177
         3699.5       3699.500        -999.25          7.829        102.182
         3700.0       3700.000        -999.25          8.365        102.188
         3700.5       3700.500        -999.25          8.184        102.193
         3701.0       3701.000        -999.25          7.556        102.198
         3701.5       3701.500        -999.25          6.926        102.204
         3702.0       3702.000        -999.25          6.441        102.209
         3702.5       3702.500        -999.25          6.404        102.214
         3703.0       3703.000        -999.25          6.366        102.219
         3703.5       3703.500        -999.25          6.328        102.225
         3704.0       3704.000        -999.25          6.290        102.230
         3704.5       3704.500        -999.25          6.252        102.235
         3705.0       3705.000        -999.25          6.215        102.241
         3705.5       3705.500        -999.25          6.177        102.246
