#--------------------------------------------------#
#-------------------ENVERUS, INC.------------------#
#------------------WWW.ENVERUS.COM-----------------#
#------------------COPYRIGHT 2020------------------#
#--------------------------------------------------#
#THIS FILE MAY BE USED ONLY IN ACCORDANCE WITH A CURRENT SUBSCRIPTION AGREEMENT BETWEEN
#THE USER AND ENVERUS, INC. NO PART OF THIS FILE MAY BE REPRODUCED, USED, COPIED,
#MODIFIED, PROPAGATED, OR DISTRIBUTED EXCEPT IN ACCORDANCE WITH THE SUBSCRIPTION
#AGREEMENT. UNAUTHORIZED USE OR DISTRIBUTION OF ALL OR ANY PART OF THIS FILE MAY VIOLATE
#COPYRIGHT, TRADEMARK, AND/OR OTHER LAWS AND IS SUBJECT TO CIVIL AS WELL AS CRIMINAL
#SANCTIONS.
#--------------------------------------------------#
#THIS FILE IS PROVIDED "AS-IS" AND ALL WARRANTIES ARE EXPRESSLY DISCLAIMED, WHETHER
#EXPRESS, ORAL, IMPLIED, STATUTORY OR OTHERWISE, INCLUDING ANY IMPLIED WARRANTY OF FITNESS
#FOR A PARTICULAR PURPOSE, MERCHANTABILITY, TITLE OR NON-INFRINGEMENT, AND ANY WARRANTIES
#ARISING BY VIRTUE OF CUSTOM OF TRADE OR COURSE OF DEALING.  FURTHER, ENVERUS, INC.
#AND ITS LICENSORS DO NOT REPRESENT OR WARRANT THAT THIS FILE WILL MEET USER'S
#REQUIREMENTS OR ARE SUITABLE FOR USER'S NEEDS OR THAT THE DATA OR RESULTS PROVIDED IN
#CONJUNCTION THEREWITH ARE CORRECT, ACCURATE, TIMELY OR RELIABLE. THESE DISCLAIMERS SHALL
#APPLY REGARDLESS OF ANY FAILURE OF ESSENTIAL PURPOSE OF ANY LIMITED REMEDY.  SOME
#JURISDICTIONS DO NOT ALLOW THE EXCLUSION OF CERTAIN WARRANTIES SO SOME OF THE ABOVE
#EXCLUSIONS MAY NOT APPLY. IN NO EVENT SHALL ENVERUS, INC. OR ANY OF ITS AFFILIATES
#BE LIABLE UNDER ANY LEGAL THEORY, WHETHER IN TORT (INCLUDING WITHOUT LIMITATION
#NEGLIGENCE), CONTRACT, STRICT LIABILITY, STATUTORY OR OTHERWISE, FOR ANY SPECIAL,
#INCIDENTAL, CONSEQUENTIAL, EXEMPLARY, PUNITIVE OR INDIRECT DAMAGE OF ANY KIND, INCLUDING
#WITHOUT LIMITATION LOSS OF REVENUE, PROFITS, GOODWILL, USE, AND/OR DATA OR THE COST OF
#PROCUREMENT OF SUBSTITUTE GOODS OR SERVICES, EVEN IF APPRISED OF THE POSSIBILITY OF SUCH
#DAMAGES IN ADVANCE.
#--------------------------------------------------#

~VERSION INFORMATION
VERS. 2.0 : CWLS LOG ASCII STANDARD - VERSION 2.0
WRAP.  NO : ONE LINE PER DEPTH STEP
~WELL INFORMATION
#MNEMONIC     .UNIT              VALUE :DESCRIPTION
STRT       .FT                102 :START DEPTH
STOP       .FT                9071 :STOP DEPTH
STEP       .FT                   0.500 :STEP
NULL       .                  -999.99 :NULL
UWI        .                42389104910000 :UNIQUE WELL ID
API        .                42389104910000 :API NUMBER
COMP       .         :COMPANY
WELL       .        :WELL
DATE       .                 :LOG DATE
FLD       .                 :FIELD NAME
LOC       .                  UNK :LOCATION
CNTY       .                 UNK :COUNTY
STAT       .                 UNK :STATE
CTRY       .                 UNK :COUNTY
SRVC       .                 UNK :SERVICE COMPANY
~CURVE INFORMATION
#MNEMONIC     .UNIT      API CODE :CURVE DESCRIPTION
DEPTH       .FT                      :MEASURED DEPTH
DT.MSEC/FT        UNKNOWN   :DT
GR.API        UNKNOWN   :GR
~A    DEPTH    DT    GR
# ...
 7794.5     63.39713   51.82741
 7795     66.87257   54.81551
 7795.5     69.16166   57.63496
 7796     68.05088   56.54153
 7796.5     66.35762   51.64392
 7797     65.10032   46.39188
 7797.5     65.02689   46.68422
 7798     65.18695   47.86421
 7798.5     66.05354   49.0442
 7799     65.87535   48.87436
 7799.5     64.14082   48.19216
 7800     62.40629   47.10225
 7800.5     60.67177   45.97826
 7801     59.78252   44.85426
 7801.5     59.70218   43.8156
 7802     61.01951   43.64607
 7802.5     63.02428   44.41395
 7803     65.02904   47.47705
 7803.5     66.5723   50.54014
 7804     66.43994   53.17546
 7804.5     66.30757   53.8636
 7805     66.17521   57.28799
 7805.5     67.86322   60.71237
 7806     69.89227   64.13676
 7806.5     71.43507   67.56114
 7807     71.76278   68.19081
 7807.5     71.37795   68.19236
 7808     68.87926   64.61212
 7808.5     66.38056   60.11924
 7809     64.14294   55.65146
 7809.5     66.54897   51.9707
 7810     68.68127   52.65854
 7810.5     68.50064   53.10093
 7811     68.32002   53.05954
 7811.5     67.21912   48.32609
 7812     61.64775   44.36107
 7812.5     62.38204   43.7402
 7813     63.24864   43.11932
 7813.5     65.50433   45.3101
 7814     69.30895   48.6497
 7814.5     72.91948   51.98929
 7815     74.21082   55.32889
 7815.5     75.44652   56.32291
 7816     71.92367   57.12609
 7816.5     68.64543   56.82048
 7817     67.0942   52.85629
 7817.5     64.83008   48.89209
 7818     64.18103   46.3566
 7818.5     64.27812   47.51373
 7819     64.72789   48.67086
 7819.5     65.17766   49.82799
 7820     65.62744   50.98513
 7820.5     65.76851   52.14226
 7821     65.6028   51.07947
 7821.5     64.90215   48.95992
 7822     63.98212   47.9328
 7822.5     63.1055   47.51235
 7823     63.03922   47.09189
 7823.5     62.97294   47.56728
 7824     63.09249   48.39387
 7824.5     63.25669   48.17873
 7825     63.42089   46.81386
 7825.5     63.58509   45.44899
 7826     63.74929   44.08412
 7826.5     63.91349   43.20085
 7827     63.74127   42.58834
 7827.5     63.22705   41.97583
 7828     62.73604   41.36332
 7828.5     62.73584   40.75082
 7829     62.88672   40.13831
 7829.5     63.49838   39.53697
 7830     63.99863   39.02452
 7830.5     64.35152   39.1883
 7831     64.70441   40.84253
 7831.5     64.83559   42.22203
 7832     64.73833   40.17755
 7832.5     64.64108   40.84027
 7833     64.54382   42.56449
 7833.5     64.71446   44.28871
 7834     65.01241   46.01293
 7834.5     65.20467   46.88986
 7835     64.95624   45.15304
 7835.5     64.3684   43.41623
 7836     62.78149   40.45015
 7836.5     60.73706   37.09984
 7837     58.91154   33.74952
 7837.5     58.59031   30.78661
 7838     59.30752   28.52788
 7838.5     60.58641   31.95502
 7839     61.94644   35.38217
 7839.5     62.47654   38.80932
 7840     61.84355   42.23646
 7840.5     61.10457   43.44111
 7841     60.36559   43.99211
 7841.5     60.69202   44.54311
 7842     61.66386   46.93963
 7842.5     64.06547   52.02203
 7843     66.46708   57.10442
 7843.5     68.11049   62.18681
 7844     68.60094   67.26921
 7844.5     68.61111   70.7037
 7845     67.42984   70.47715
 7845.5     65.27621   66.92747
 7846     63.12258   62.35851
 7846.5     62.40078   56.29086
 7847     63.3544   55.49267
 7847.5     65.12739   59.13251
 7848     66.90038   62.77234
 7848.5     67.76567   66.41218
 7849     67.13795   57.54206
 7849.5     65.52061   49.75866
 7850     64.48982   44.81238
 7850.5     64.27552   43.27702
 7851     64.06121   44.14506
 7851.5     63.8469   46.05207
 7852     63.63259   45.1414
 7852.5     63.41829   44.23073
 7853     63.20398   44.69994
 7853.5     62.98967   47.3969
 7854     63.516   50.09385
 7854.5     63.9952   52.7908
 7855     64.18665   55.48775
 7855.5     64.37811   55.70046
 7856     64.42848   55.86612
 7856.5     64.42827   56.15384
 7857     64.45087   56.44155
 7857.5     65.02213   56.72927
 7858     65.32902   57.01699
 7858.5     64.72538   56.8087
 7859     64.12174   54.42435
 7859.5     63.51809   52.04001
 7860     63.52433   51.49003
 7860.5     63.83794   52.99464
 7861     64.15155   54.47782
 7861.5     64.46516   53.86982
 7862     64.77877   53.26183
 7862.5     64.77165   53.93147
 7863     64.40481   54.48992
 7863.5     64.03796   54.4914
 7864     63.67111   53.87925
 7864.5     63.4711   52.31819
 7865     63.83717   51.33206
 7865.5     64.20324   50.51026
 7866     64.56931   52.44412
 7866.5     64.80715   54.37799
 7867     64.83991   54.45464
 7867.5     64.87267   53.99956
 7868     64.90543   53.66786
 7868.5     64.93819   54.816
 7869     65.49516   55.05159
 7869.5     66.11777   54.95524
 7870     66.17337   54.85888
 7870.5     65.3472   53.48571
 7871     64.52102   51.21374
 7871.5     63.69485   47.65058
 7872     63.56675   44.84173
 7872.5     63.85825   44.56867
 7873     63.91157   44.13002
 7873.5     63.80135   42.86151
 7874     63.69113   41.593
 7874.5     63.77884   40.34654
 7875     63.88833   41.31137
 7875.5     63.6287   42.27619
 7876     63.31654   42.25112
 7876.5     63.00437   41.92996
 7877     62.78968   41.60879
 7877.5     63.76323   41.28763
 7878     64.64639   40.96646
 7878.5     65.52326   40.6453
 7879     65.77194   40.32413
 7879.5     65.68907   40.18012
 7880     64.66484   41.28288
 7880.5     63.59709   42.38565
 7881     63.53501   40.53722
 7881.5     63.47292   38.30611
 7882     63.41084   37.71486
 7882.5     63.62864   39.59792
 7883     64.4362   41.48097
 7883.5     65.45357   43.36402
 7884     65.40385   45.24707
 7884.5     65.35412   46.08283
 7885     65.3044   45.79019
 7885.5     65.25467   45.49755
 7886     64.91343   44.27796
 7886.5     64.295   41.21663
 7887     64.09479   40.02361
 7887.5     63.91407   40.54053
 7888     64.03046   40.23959
 7888.5     64.45405   39.63199
 7889     64.87764   40.55873
 7889.5     65.30123   42.13588
 7890     65.09212   43.71304
 7890.5     64.53744   44.6764
 7891     63.98275   45.17821
 7891.5     63.59842   45.73998
 7892     63.5982   46.82403
 7892.5     63.91762   47.90809
 7893     64.54277   48.99215
 7893.5     65.16793   51.93284
 7894     66.20549   58.13791
 7894.5     67.35446   66.20961
 7895     68.3299   74.28131
 7895.5     68.2505   74.32851
 7896     67.47121   72.32444
 7896.5     66.69192   69.22458
 7897     65.91264   66.12472
 7897.5     65.48522   63.02486
 7898     65.29895   61.37628
 7898.5     65.11267   60.82869
 7899     64.92335   59.9325
 7899.5     64.46625   57.80334
 7900     64.00915   53.59614
 7900.5     63.55205   49.38894
 7901     63.09495   47.0422
 7901.5     62.63785   44.85958
 7902     62.93415   44.8796
 7902.5     63.61539   46.04172
 7903     64.22289   47.20383
 7903.5     64.44999   48.36594
 7904     64.6771   48.91871
 7904.5     64.72985   48.57686
 7905     64.20123   47.49574
 7905.5     63.67262   46.0004
 7906     63.144   46.91986
 7906.5     62.88106   47.81401
 7907     62.94674   46.27599
 7907.5     62.93652   45.17464
 7908     62.61863   45.74926
 7908.5     62.30073   46.32387
 7909     61.98284   46.83903
 7909.5     61.66494   47.36047
 7910     61.34705   48.18885
 7910.5     61.7375   49.01723
 7911     62.26632   49.71633
 7911.5     62.79514   50.6442
 7912     63.32396   53.10418
 7912.5     63.80237   55.25148
 7913     63.68556   55.25294
 7913.5     63.56876   54.93706
 7914     63.45196   51.94315
 7914.5     63.37438   48.94479
 7915     63.40422   48.66396
 7915.5     63.43406   50.25785
 7916     63.95877   53.24885
 7916.5     64.61072   56.23984
 7917     64.71709   59.23084
 7917.5     64.64345   62.31075
 7918     65.37021   65.64059
 7918.5     66.26351   68.97043
 7919     66.47558   72.30027
 7919.5     67.11353   72.55277
 7920     67.75147   72.55432
 7920.5     68.38941   72.2457
 7921     69.02735   71.78984
 7921.5     69.56598   66.57467
 7922     63.77319   58.8461
 7922.5     63.26144   55.05164
 7923     62.7497   52.89498
 7923.5     62.45958   53.24015
 7924     62.64719   53.58532
