#--------------------------------------------------#
#-------------------ENVERUS, INC.------------------#
#------------------WWW.ENVERUS.COM-----------------#
#------------------COPYRIGHT 2020------------------#
#--------------------------------------------------#
#THIS FILE MAY BE USED ONLY IN ACCORDANCE WITH A CURRENT SUBSCRIPTION AGREEMENT BETWEEN
#THE USER AND ENVERUS, INC. NO PART OF THIS FILE MAY BE REPRODUCED, USED, COPIED,
#MODIFIED, PROPAGATED, OR DISTRIBUTED EXCEPT IN ACCORDANCE WITH THE SUBSCRIPTION
#AGREEMENT. UNAUTHORIZED USE OR DISTRIBUTION OF ALL OR ANY PART OF THIS FILE MAY VIOLATE
#COPYRIGHT, TRADEMARK, AND/OR OTHER LAWS AND IS SUBJECT TO CIVIL AS WELL AS CRIMINAL
#SANCTIONS.
#--------------------------------------------------#
#THIS FILE IS PROVIDED "AS-IS" AND ALL WARRANTIES ARE EXPRESSLY DISCLAIMED, WHETHER
#EXPRESS, ORAL, IMPLIED, STATUTORY OR OTHERWISE, INCLUDING ANY IMPLIED WARRANTY OF FITNESS
#FOR A PARTICULAR PURPOSE, MERCHANTABILITY, TITLE OR NON-INFRINGEMENT, AND ANY WARRANTIES
#ARISING BY VIRTUE OF CUSTOM OF TRADE OR COURSE OF DEALING.  FURTHER, ENVERUS, INC.
#AND ITS LICENSORS DO NOT REPRESENT OR WARRANT THAT THIS FILE WILL MEET USER'S
#REQUIREMENTS OR ARE SUITABLE FOR USER'S NEEDS OR THAT THE DATA OR RESULTS PROVIDED IN
#CONJUNCTION THEREWITH ARE CORRECT, ACCURATE, TIMELY OR RELIABLE. THESE DISCLAIMERS SHALL
#APPLY REGARDLESS OF ANY FAILURE OF ESSENTIAL PURPOSE OF ANY LIMITED REMEDY.  SOME
#JURISDICTIONS DO NOT ALLOW THE EXCLUSION OF CERTAIN WARRANTIES SO SOME OF THE ABOVE
#EXCLUSIONS MAY NOT APPLY. IN NO EVENT SHALL ENVERUS, INC. OR ANY OF ITS AFFILIATES
#BE LIABLE UNDER ANY LEGAL THEORY, WHETHER IN TORT (INCLUDING WITHOUT LIMITATION
#NEGLIGENCE), CONTRACT, STRICT LIABILITY, STATUTORY OR OTHERWISE, FOR ANY SPECIAL,
#INCIDENTAL, CONSEQUENTIAL, EXEMPLARY, PUNITIVE OR INDIRECT DAMAGE OF ANY KIND, INCLUDING
#WITHOUT LIMITATION LOSS OF REVENUE, PROFITS, GOODWILL, USE, AND/OR DATA OR THE COST OF
#PROCUREMENT OF SUBSTITUTE GOODS OR SERVICES, EVEN IF APPRISED OF THE POSSIBILITY OF SUCH
#DAMAGES IN ADVANCE.
#--------------------------------------------------#

~VERSION INFORMATION
VERS. 2.0 : CWLS LOG ASCII STANDARD - VERSION 2.0
WRAP.  NO : ONE LINE PER DEPTH STEP
~WELL INFORMATION
#MNEMONIC     .UNIT              VALUE :DESCRIPTION
STRT       .FT                -3 :START DEPTH
STOP       .FT                21524 :STOP DEPTH
STEP       .FT                   0.500 :STEP
NULL       .                  -999.99 :NULL
UWI        .                42389105080000 :UNIQUE WELL ID
API        .                42389105080000 :API NUMBER
COMP       .         :COMPANY
WELL       .        :WELL
DATE       .                 :LOG DATE
FLD       .                 :FIELD NAME
LOC       .                  UNK :LOCATION
CNTY       .                 UNK :COUNTY
STAT       .                 UNK :STATE
CTRY       .                 UNK :COUNTY
SRVC       .                 UNK :SERVICE COMPANY
~CURVE INFORMATION
#MNEMONIC     .UNIT      API CODE :CURVE DESCRIPTION
DEPTH       .FT                      :MEASURED DEPTH
CAL.IN        UNKNOWN   :CAL
DT.MSEC/FT        UNKNOWN   :DT
GR.API        UNKNOWN   :GR
~A    DEPTH    CAL    DT    GR
# ...
 19513     1.34169   93.20858   44.94086
 19513.5     1.34439   93.40956   34.8733
 19514     1.34708   93.61055   22.59635
 19514.5     1.34978   93.81153   20.72478
 19515     1.35248   94.01251   19.95334
 19515.5     1.35518   94.21349   19.95031
 19516     1.35788   94.41447   20.39774
 19516.5     1.36058   94.61545   22.18302
 19517     1.36327   94.81643   23.96829
 19517.5     1.37802   95.01742   25.75357
 19518     1.49447   95.2184   27.53885
 19518.5     1.61092   95.41938   29.32413
 19519     1.72737   95.62036   30.17639
 19519.5     1.84382   95.82134   30.22979
 19520     1.96028   96.02232   27.70178
 19520.5     2.02678   96.2233   26.54074
 19521     2.0288   96.42428   27.37361
 19521.5     2.03082   96.62527   28.20648
 19522     2.03284   96.82625   29.27596
 19522.5     2.03485   97.02723   31.79918
 19523     2.03687   97.22821   34.32241
 19523.5     2.03889   97.42919   36.8326
 19524     2.0409   97.63017   36.82974
 19524.5     2.04292   97.83115   36.82687
 19525     2.04494   98.03214   35.81731
 19525.5     2.04695   98.23312   34.30581
 19526     2.04897   98.4341   35.52419
 19526.5     2.05099   98.63508   38.67556
 19527     2.053   98.83606   40.60345
 19527.5     2.05502   99.03704   40.8472
 19528     2.05704   99.23802   38.67434
 19528.5     2.05906   99.439   35.74735
 19529     2.06107   99.63999   33.48461
 19529.5     2.06309   99.84097   33.31896
 19530     2.06511   100.04195   34.79552
 19530.5     2.06712   100.24293   37.53638
 19531     2.06914   68.89115   40.27723
 19531.5     2.07116   70.58777   47.73367
 19532     2.07317   54.73074   55.71318
 19532.5     2.07739   55.71738   56.70653
 19533     2.08218   56.70403   56.46615
 19533.5     2.08697   57.69067   49.95576
 19534     2.09176   57.33591   47.38694
 19534.5     2.09656   56.80003   51.21626
 19535     2.10135   56.26415   65.45638
 19535.5     2.10614   55.72826   75.83921
 19536     2.0339   55.05672   75.89518
 19536.5     1.95859   54.15463   75.95114
 19537     1.88329   53.25254   66.9425
 19537.5     1.80798   54.60631   57.33089
 19538     1.73268   54.61223   47.71927
 19538.5     1.65737   54.43107   38.10766
 19539     1.58207   54.24991   33.3717
 19539.5     1.50676   54.06875   33.50687
 19540     1.46347   53.95019   37.95487
 19540.5     1.45962   54.05533   39.55794
 19541     1.45578   54.16048   39.88522
 19541.5     1.45193   54.26562   40.21249
 19542     1.44809   54.37076   38.26162
 19542.5     1.44424   54.57423   32.58397
 19543     1.4404   55.07023   26.90633
 19543.5     1.43655   55.56624   21.22869
 19544     1.43271   55.21114   20.84066
 19544.5     1.42886   54.84099   21.11202
 19545     1.42501   54.47083   22.8874
 19545.5     1.42117   54.14295   24.82754
 19546     1.41732   55.80204   26.76768
 19546.5     1.41348   57.26255   28.70783
 19547     1.40963   57.54468   30.55597
 19547.5     1.40579   57.82682   31.73211
 19548     1.40194   58.10895   31.70191
 19548.5     1.3981   58.39109   30.4572
 19549     1.39425   58.67322   29.2125
 19549.5     1.39041   58.92807   28.56579
 19550     1.38656   59.12117   28.12135
 19550.5     1.38272   59.31426   27.6769
 19551     1.37887   59.50736   27.42008
 19551.5     1.37503   59.70045   32.34924
 19552     1.37118   59.89355   32.91039
 19552.5     1.36734   60.08664   29.73192
 19553     1.36349   59.96764   30.08996
 19553.5     1.35965   57.44998   30.44801
 19554     1.3558   56.51026   35.36326
 19554.5     1.35196   56.60256   38.85164
 19555     1.34811   56.69486   38.44343
 19555.5     1.34427   56.78716   36.77222
 19556     1.34042   56.87945   38.61325
 19556.5     1.33658   56.97175   40.45429
 19557     1.33273   57.66672   42.29532
 19557.5     1.32889   58.40011   44.13636
 19558     1.32504   58.3671   45.97739
 19558.5     1.3212   57.77863   46.80025
 19559     1.31735   57.19017   46.41459
 19559.5     1.31351   56.60171   40.94491
 19560     1.30966   56.01324   35.47523
 19560.5     1.30582   55.42478   33.93123
 19561     1.30197   54.83631   33.02731
 19561.5     1.29813   54.76268   32.24883
 19562     1.29428   55.13349   32.30439
 19562.5     1.29044   55.5043   32.35994
 19563     1.28659   55.8751   34.52504
 19563.5     1.28275   56.13708   37.22137
 19564     1.2789   55.39366   39.9177
 19564.5     1.27506   54.65023   40.36043
 19565     1.27121   53.90681   39.64179
 19565.5     1.26737   54.79378   38.92316
 19566     1.26352   55.74737   37.99845
 19566.5     1.25968   56.70097   36.93867
 19567     1.25583   57.65457   35.8789
 19567.5     1.25199   58.60816   34.81913
 19568     1.24814   59.3185   33.75936
 19568.5     1.24429   59.27765   32.69958
 19569     1.24045   59.63261   31.97974
 19569.5     1.2366   61.98718   31.35281
 19570     1.23276   64.34175   30.72587
 19570.5     1.22891   66.69632   29.9731
 19571     1.22507   69.05089   27.28129
 19571.5     1.22122   71.40546   24.58948
 19572     1.21738   73.76003   21.89768
 19572.5     1.21353   76.1146   20.80098
 19573     1.20969   78.46917   21.28105
 19573.5     1.20584   80.82374   27.23429
 19574     1.202   83.1783   38.16758
 19574.5     1.19815   61.92705   38.67693
 19575     1.19431   63.38751   38.32618
 19575.5     1.19046   65.95735   36.2119
 19576     1.18662   69.34692   32.75028
 19576.5     1.18277   72.73649   30.48865
 19577     1.17893   76.12606   30.07989
 19577.5     1.17508   79.51563   30.29317
 19578     1.17124   82.90519   31.55427
 19578.5     1.16739   86.29476   37.95876
 19579     1.16355   61.92874   46.07293
 19579.5     1.1597   60.80666   50.17894
 19580     1.15586   61.06695   49.44368
 19580.5     1.15201   63.4719   44.79568
 19581     1.14817   65.40009   40.14768
 19581.5     1.14432   65.40084   40.04374
 19582     1.14048   65.40159   40.32958
 19582.5     1.12598   65.40233   40.61541
 19583     1.1082   65.41466   46.78745
 19583.5     1.09043   66.41377   56.81266
 19584     1.07266   66.01129   58.48823
 19584.5     1.05489   63.18107   59.61651
 19585     1.03712   62.62677   49.2118
 19585.5     1.01934   62.32526   46.61573
 19586     1.00157   62.02374   49.90354
 19586.5     .9838   61.72223   58.77501
 19587     .96603   58.78545   66.17902
 19587.5     .94825   55.54143   65.58629
 19588     .93048   54.69524   64.99356
 19588.5     .91271   55.80495   64.40083
 19589     .89494   56.91466   63.8081
 19589.5     .87716   58.2627   62.06439
 19590     .85939   60.57301   59.94621
 19590.5     .84162   62.88333   57.82803
 19591     .82385   65.19364   55.70985
 19591.5     .80608   67.50395   52.02002
 19592     .7883   69.81426   47.05984
 19592.5     .77053   68.15064   42.09965
 19593     .75276   65.75886   37.13947
 19593.5     .73499   63.36709   32.17929
 19594     .71721   60.97532   27.21911
 19594.5     .75987   58.58354   22.25893
 19595     .85842   57.71551   19.61906
 19595.5     .95696   58.02671   19.97749
 19596     1.0555   59.31118   20.33593
 19596.5     1.15405   60.59565   43.61509
 19597     1.08929   61.88011   68.26697
 19597.5     .99574   63.16458   67.38101
 19598     .90219   59.79827   64.27676
 19598.5     .80864   60.19508   58.53136
 19599     .71509   60.59189   52.78596
 19599.5     .62154   60.9887   47.17007
 19600     .62441   61.38551   46.19374
 19600.5     .62798   61.78232   45.2174
 19601     .63155   61.95336   48.20667
 19601.5     .63513   62.1153   53.44189
 19602     .6387   62.27723   58.67711
 19602.5     .64227   62.43917   63.86916
 19603     .64584   63.7682   62.1817
 19603.5     .64942   65.6718   58.36404
 19604     .65299   67.5754   55.354
 19604.5     .65656   69.479   55.97328
 19605     .66013   70.11404   58.42339
 19605.5     .66371   70.35378   61.16408
 19606     .66053   70.59351   63.85089
 19606.5     .65665   70.83325   64.02466
 19607     .65278   71.07298   64.19843
 19607.5     .6489   58.14724   66.63024
 19608     .64503   57.12313   70.06547
 19608.5     .64115   56.74127   73.50069
 19609     .63728   57.48589   76.93592
