###############################################
##         ENVERUS                           ##
##         Petrophysical Curves              ##
##         PERMIAN / DELAWARE                ##
##         Jan 21 2022                       ##
##         42-389-10491-00-00                ##
###############################################
## Copyright 2017-2022  ENVERUS.  All Rights Reserved. 
## Confidential - Property of ENVERUS, use governed by terms and 
## conditions found within the existing Information Services Subscription Agreement 
## (as may be amended, the “ISSA”) between Customer and ENVERUS. 
## 
~VERSION INFORMATION
# MNEM.UNIT                               DATA : DESCRIPTION OF MNEMONIC
#-----.-----     ----------------------------- : -----------------------------
VERS.                                     2.00 : CWLS LOG ASCII STANDARD - VERSION 2.00
WRAP.                                       NO : MULTIPLE LINES PER DEPTH STEP
VEND.                                  ENVERUS : VENDOR
TYPE.                     PETROPHYSICAL CURVES : ENVERUS PETROPHYSICAL CURVES - ACCESSIBLE THROUGH ENVERUS CORE(TM)
#___________________________________________________________________________________________________ 
~WELL INFORMATION 
# uyaQ8P8kQDJ9DXFS5hR1PxmExEOYaAUkY5f3/tnOS+scoPAUWgXA1zCIHGRbWCuSuUcwDzaESCjqjWQ81XhadA== 
# MNEM.UNIT                                              DATA : DESCRIPTION OF MNEMONIC 
#-----.-----                    ----------------------------- : ----------------------------- 
CNTY.                                                  REEVES : COUNTY 
STATE.                                                  TEXAS : STATE 
CNTRY.                                                    USA : COUNTRY 
API.                                             42-389-10491 : API (10 Digit) 
API_14.                                    42-389-10491-00-00 : API (14 Digits) 
API_14_std.                                 42-389-10491-0000 : API (14 Digits Standard) 
UWI.                                           42389104910000 : UNIQUE WELL ID
STRT.FT                                                 102.0 : START DEPTH
STOP.FT                                                9071.0 : STOP DEPTH
STEP.FT                                                   0.5 : STEP BETWEEN DEPTHS
NULL.                                                 -999.25 : NULL VALUE
COMP.                                FLAT CREEK RESOURCES LLC : COMPANY 
WELL.                                         REEVES-AW-FEE 1 : WELL NAME 
FLD.                                                     TORO : FIELD NAME
#___________________________________________________________________________________________________ 
~CURVE INFORMATION 
#    Zone Description
#          1 = Upper Avalon
#          2 = Middle Avalon
#          3 = Lower Avalon
#          4 = 1st Bone Spring
#          5 = 2nd Bone Spring
#          6 = 2nd Bone Spring Sand
#          7 = 3rd Bone Spring
#          8 = 3rd Bone Spring Sand
#          9 = Wolfcamp XY
#          10 = Wolfcamp A Upper
#          11 = Wolfcamp A Lower
#          12 = Wolfcamp B Upper
#          13 = Wolfcamp B Lower
#          14 = Wolfcamp C
#          15 = Wolfcamp D
#          16 = Pennsylvanian Shale
#          17 = Lower Pennsylvanian Shale
#          18 = Barnett
#          19 = Barnett Lower
#          20 = Mississippian Lime
#          21 = Woodford
#          22 = Base Woodford 
# MNEM.UNIT           : CURVE DESCRIPTION 
#-----.-----          : ----------------------------- 
 DEPT.FT               : MEASURED DEPTH 
 TVD_I.FT              : ENVERUS TRUE VERTICAL DEPTH 
 ZONE_I.               : ENVERUS DEFINED ZONE CODE 
 GR_N_I.API            : ENVERUS NORMALIZED GAMMA RAY LEVERAGED IN GEOLOGICAL MODELLING 
 TEMP_I.DEGF           : ENVERUS INTERPRETED TEMPERATURE DERIVED FROM BOTTOM HOLE TEMPERATURES 
 #___________________________________________________________________________________________________ 
~A         DEPT          TVD_I         ZONE_I         GR_N_I         TEMP_I
# ...
         7840.0       7840.001        -999.25         69.438        146.036
         7840.5       7840.500        -999.25         71.419        146.041
         7841.0       7841.000        -999.25         72.325        146.046
         7841.5       7841.500        -999.25         73.231        146.051
         7842.0       7842.001        -999.25         77.171        146.057
         7842.5       7842.500        -999.25         85.527        146.062
         7843.0       7843.000        -999.25         93.882        146.067
         7843.5       7843.500        -999.25        102.238        146.073
         7844.0       7844.001        -999.25        110.593        146.078
         7844.5       7844.501        -999.25        116.241        146.083
         7845.0       7845.000        -999.25        115.867        146.088
         7845.5       7845.500        -999.25        110.031        146.094
         7846.0       7846.000        -999.25        102.521        146.099
         7846.5       7846.500        -999.25         92.545        146.104
         7847.0       7847.000        -999.25         91.233        146.110
         7847.5       7847.500        -999.25         97.217        146.115
         7848.0       7848.000        -999.25        103.200        146.120
         7848.5       7848.501        -999.25        109.184        146.126
         7849.0       7849.001        -999.25         94.602        146.131
         7849.5       7849.500        -999.25         81.806        146.136
         7850.0       7850.000        -999.25         73.673        146.141
         7850.5       7850.501        -999.25         71.149        146.147
         7851.0       7851.000        -999.25         72.576        146.152
         7851.5       7851.500        -999.25         75.712        146.157
         7852.0       7852.000        -999.25         74.214        146.163
         7852.5       7852.500        -999.25         72.718        146.168
         7853.0       7853.001        -999.25         73.489        146.173
         7853.5       7853.500        -999.25         77.923        146.179
         7854.0       7854.000        -999.25         82.357        146.184
         7854.5       7854.500        -999.25         86.791        146.189
         7855.0       7855.001        -999.25         91.225        146.194
         7855.5       7855.500        -999.25         91.573        146.200
         7856.0       7856.000        -999.25         91.846        146.205
         7856.5       7856.500        -999.25         92.320        146.210
         7857.0       7857.001        -999.25         92.793        146.216
         7857.5       7857.500        -999.25         93.265        146.221
         7858.0       7858.000        -999.25         93.739        146.226
         7858.5       7858.500        -999.25         93.397        146.231
         7859.0       7859.000        -999.25         89.476        146.237
         7859.5       7859.501        -999.25         85.556        146.242
         7860.0       7860.000        -999.25         84.652        146.247
         7860.5       7860.500        -999.25         87.126        146.253
         7861.0       7861.000        -999.25         89.564        146.258
         7861.5       7861.501        -999.25         88.565        146.263
         7862.0       7862.000        -999.25         87.565        146.269
         7862.5       7862.500        -999.25         88.665        146.274
         7863.0       7863.000        -999.25         89.584        146.279
         7863.5       7863.501        -999.25         89.586        146.284
         7864.0       7864.001        -999.25         88.580        146.290
         7864.5       7864.500        -999.25         86.013        146.295
         7865.0       7865.000        -999.25         84.392        146.300
         7865.5       7865.500        -999.25         83.041        146.306
         7866.0       7866.000        -999.25         86.220        146.311
         7866.5       7866.500        -999.25         89.400        146.316
         7867.0       7867.000        -999.25         89.526        146.321
         7867.5       7867.500        -999.25         88.778        146.327
         7868.0       7868.001        -999.25         88.233        146.332
         7868.5       7868.501        -999.25         90.120        146.337
         7869.0       7869.000        -999.25         90.508        146.343
         7869.5       7869.500        -999.25         90.349        146.348
         7870.0       7870.000        -999.25         90.191        146.353
         7870.5       7870.500        -999.25         87.933        146.359
         7871.0       7871.000        -999.25         84.198        146.364
         7871.5       7871.500        -999.25         78.340        146.369
         7872.0       7872.000        -999.25         73.722        146.374
         7872.5       7872.501        -999.25         73.273        146.380
         7873.0       7873.000        -999.25         72.552        146.385
         7873.5       7873.500        -999.25         70.467        146.390
         7874.0       7874.000        -999.25         68.381        146.396
         7874.5       7874.501        -999.25         66.332        146.401
         7875.0       7875.000        -999.25         67.917        146.406
         7875.5       7875.500        -999.25         69.504        146.412
         7876.0       7876.000        -999.25         69.463        146.417
         7876.5       7876.500        -999.25         68.935        146.422
         7877.0       7877.000        -999.25         68.407        146.427
         7877.5       7877.500        -999.25         67.879        146.433
         7878.0       7878.000        -999.25         67.350        146.438
         7878.5       7878.500        -999.25         66.822        146.443
         7879.0       7879.001        -999.25         66.295        146.449
         7879.5       7879.500        -999.25         66.058        146.454
         7880.0       7880.000        -999.25         67.871        146.459
         7880.5       7880.500        -999.25         69.685        146.464
         7881.0       7881.001        -999.25         66.645        146.470
         7881.5       7881.500        -999.25         62.977        146.475
         7882.0       7882.000        -999.25         62.005        146.480
         7882.5       7882.500        -999.25         65.101        146.486
         7883.0       7883.000        -999.25         68.197        146.491
         7883.5       7883.501        -999.25         71.292        146.496
         7884.0       7884.000        -999.25         74.388        146.502
         7884.5       7884.500        -999.25         75.763        146.507
         7885.0       7885.000        -999.25         75.281        146.512
         7885.5       7885.500        -999.25         74.801        146.517
         7886.0       7886.000        -999.25         72.795        146.523
         7886.5       7886.500        -999.25         67.763        146.528
         7887.0       7887.000        -999.25         65.801        146.533
         7887.5       7887.501        -999.25         66.651        146.539
         7888.0       7888.000        -999.25         66.156        146.544
         7888.5       7888.500        -999.25         65.157        146.549
         7889.0       7889.000        -999.25         66.681        146.554
         7889.5       7889.500        -999.25         69.274        146.560
         7890.0       7890.000        -999.25         71.866        146.565
         7890.5       7890.500        -999.25         73.449        146.570
         7891.0       7891.000        -999.25         74.275        146.576
         7891.5       7891.500        -999.25         75.199        146.581
         7892.0       7892.001        -999.25         76.981        146.586
         7892.5       7892.500        -999.25         78.763        146.592
