###############################################
##         ENVERUS                           ##
##         Petrophysical Curves              ##
##         PERMIAN / DELAWARE                ##
##         Jan 21 2022                       ##
##         42-371-36857-00-00                ##
###############################################
## Copyright 2017-2022  ENVERUS.  All Rights Reserved. 
## Confidential - Property of ENVERUS, use governed by terms and 
## conditions found within the existing Information Services Subscription Agreement 
## (as may be amended, the “ISSA”) between Customer and ENVERUS. 
## 
~VERSION INFORMATION
# MNEM.UNIT                               DATA : DESCRIPTION OF MNEMONIC
#-----.-----     ----------------------------- : -----------------------------
VERS.                                     2.00 : CWLS LOG ASCII STANDARD - VERSION 2.00
WRAP.                                       NO : MULTIPLE LINES PER DEPTH STEP
VEND.                                  ENVERUS : VENDOR
TYPE.                     PETROPHYSICAL CURVES : ENVERUS PETROPHYSICAL CURVES - ACCESSIBLE THROUGH ENVERUS CORE(TM)
#___________________________________________________________________________________________________ 
~WELL INFORMATION 
# uyaQ8P8kQDJ9DXFS5hR1PxmExEOYaAUkY5f3/tnOS+scoPAUWgXA1zCIHGRbWCuSuUcwDzaESCjqjWQ81XhadA== 
# MNEM.UNIT                                              DATA : DESCRIPTION OF MNEMONIC 
#-----.-----                    ----------------------------- : ----------------------------- 
CNTY.                                                   PECOS : COUNTY 
STATE.                                                  TEXAS : STATE 
CNTRY.                                                    USA : COUNTRY 
API.                                             42-371-36857 : API (10 Digit) 
API_14.                                    42-371-36857-00-00 : API (14 Digits) 
API_14_std.                                 42-371-36857-0000 : API (14 Digits Standard) 
UWI.                                           42371368570000 : UNIQUE WELL ID
STRT.FT                                                7870.0 : START DEPTH
STOP.FT                                               16592.5 : STOP DEPTH
STEP.FT                                                   0.5 : STEP BETWEEN DEPTHS
NULL.                                                 -999.25 : NULL VALUE
COMP.                                             DIAMONDBACK : COMPANY 
WELL.                                         MOORE-GILMORE 1 : WELL NAME 
FLD.                                               WAHA  WEST : FIELD NAME
#___________________________________________________________________________________________________ 
~CURVE INFORMATION 
#    Zone Description
#          1 = Upper Avalon
#          2 = Middle Avalon
#          3 = Lower Avalon
#          4 = 1st Bone Spring
#          5 = 2nd Bone Spring
#          6 = 2nd Bone Spring Sand
#          7 = 3rd Bone Spring
#          8 = 3rd Bone Spring Sand
#          9 = Wolfcamp XY
#          10 = Wolfcamp A Upper
#          11 = Wolfcamp A Lower
#          12 = Wolfcamp B Upper
#          13 = Wolfcamp B Lower
#          14 = Wolfcamp C
#          15 = Wolfcamp D
#          16 = Pennsylvanian Shale
#          17 = Lower Pennsylvanian Shale
#          18 = Barnett
#          19 = Barnett Lower
#          20 = Mississippian Lime
#          21 = Woodford
#          22 = Base Woodford 
# MNEM.UNIT           : CURVE DESCRIPTION 
#-----.-----          : ----------------------------- 
 DEPT.FT               : MEASURED DEPTH 
 TVD_I.FT              : ENVERUS TRUE VERTICAL DEPTH 
 ZONE_I.               : ENVERUS DEFINED ZONE CODE 
 GR_N_I.API            : ENVERUS NORMALIZED GAMMA RAY LEVERAGED IN GEOLOGICAL MODELLING 
 RESD_I.OHMM           : ENVERUS DEEP RESISTIVITY LEVERAGED IN GEOLOGICAL MODELLING 
 DPHI_I.V/V            : ENVERUS INTERPRETED DENSITY POROSITY USING A 2.71 G/CC MATRIX DENSITY 
 PHIE_I.V/V            : ENVERUS INTERPRETED EFFECTIVE POROSITY 
 SW_I.V/V              : ENVERUS INTERPRETED WATER SATURATION USING MODIFIED SIMANDOUX EQUATION 
 TOC_I.WT%             : ENVERUS INTERPRETED TOTAL ORGANIC CARBON USING MULTI-LINEAR REGRESSION 
 VCLAY_I.V/V           : ENVERUS INTERPRETED CLAY VOLUMES USING MULTI-LINEAR REGRESSION 
 NVCLAY_I.V/V          : ENVERUS INTERPRETED NON CLAY VOLUMES 
 HCPV_I.V/V            : ENVERUS INTERPRETED HYDROCARBON PORE VOLUME 
 OOIP_I.MMBBL/SEC      : ENVERUS INTERPRETED ORIGINAL OIL IN PLACE 
 OGIP_I.BCF/SEC        : ENVERUS INTERPRETED ORIGINAL GAS IN PLACE 
 TEMP_I.DEGF           : ENVERUS INTERPRETED TEMPERATURE DERIVED FROM BOTTOM HOLE TEMPERATURES 
 #___________________________________________________________________________________________________ 
~A         DEPT          TVD_I         ZONE_I         GR_N_I         RESD_I         DPHI_I         PHIE_I           SW_I          TOC_I        VCLAY_I       NVCLAY_I         HCPV_I         OOIP_I         OGIP_I         TEMP_I
# ...
        13180.0      13180.000        -999.25         84.814         3.5200        0.10090        0.07040        0.83670        3.23230        0.30200        0.62760        0.01290        0.03220      284.22790        562.694
        13180.5      13180.500        -999.25         85.436         3.3110        0.10020        0.06960        0.87090        3.24140        0.30580        0.62460        0.01030        0.02510      222.05310        562.713
        13181.0      13181.000        -999.25         88.980         3.1010        0.10080        0.06930        0.90090        3.32690        0.31270        0.61800        0.00830        0.01920      169.69010        562.732
        13181.5      13181.500        -999.25         92.523         2.8920        0.09860        0.06580        0.94800        3.40220        0.33260        0.60160        0.00630        0.00960       84.67490        562.751
        13182.0      13182.000        -999.25         92.270         2.8730        0.09950        0.06530        0.94270        3.45880        0.34360        0.59100        0.00210        0.01050       92.54220        562.770
        13182.5      13182.500        -999.25         89.379         3.0640        0.09620        0.06230        0.92110        3.39040        0.35190        0.58580        0.00000        0.01380      121.61490        562.789
        13183.0      13183.000        -999.25         86.332         3.2550        0.09060        0.05950        0.92100        3.20870        0.34290        0.59750        0.00000        0.01320      116.23470        562.808
        13183.5      13183.500        -999.25         79.908         3.4460        0.08300        0.05590        0.93960        2.92970        0.32720        0.61690        0.00000        0.00940       83.45140        562.827
        13184.0      13183.999        -999.25         73.483         3.6370        0.07630        0.05270        0.96060        2.66370        0.30900        0.63820        0.00000        0.00580       51.40990        562.846
        13184.5      13184.499        -999.25         64.798         3.8360        0.07110        0.05190        0.99740        2.29590        0.26910        0.67900        0.00000        0.00040        3.40280        562.865
        13185.0      13185.000        -999.25         64.520         4.6860        0.05610        0.04200        0.98980        1.91540        0.25170        0.70630        0.00000        0.00120       10.63370        562.884
        13185.5      13185.500        -999.25         63.668         5.5350        0.04050        0.03100        0.96520        1.51280        0.23300        0.73600        0.00000        0.00300       26.70580        562.903
        13186.0      13186.000        -999.25         60.947         6.3850        0.02050        0.01600        0.05190        1.04480        0.22040        0.76360        0.00000        0.04230      374.12580        562.922
        13186.5      13186.500        -999.25         58.225         6.2600        0.02640        0.02080        0.74430        1.08660        0.21010        0.76910        0.00000        0.01490      131.48350        562.941
        13187.0      13187.000        -999.25         55.504         6.0090        0.03550        0.02840        1.00000        1.18450        0.19870        0.77290        0.00000        0.00000        0.00000        562.960
        13187.5      13187.500        -999.25         60.793         5.7570        0.04460        0.03550        1.00000        1.43270        0.20410        0.76040        0.00000        0.00000        0.00000        562.979
        13188.0      13188.000        -999.25         66.373         5.5060        0.05360        0.04210        0.95660        1.71770        0.21530        0.74270        0.00000        0.00510       45.13090        562.998
        13188.5      13188.500        -999.25         72.884         5.2550        0.06270        0.04810        0.89600        2.04740        0.23290        0.71910        0.00000        0.01400      123.64120        563.017
        13189.0      13189.000        -999.25         81.990         5.0040        0.07170        0.05330        0.84190        2.43680        0.25620        0.69050        0.00000        0.02360      208.67270        563.036
        13189.5      13189.501        -999.25         91.134         4.7530        0.07830        0.05640        0.81300        2.78520        0.27970        0.66390        0.00000        0.02950      260.83910        563.054
        13190.0      13190.000        -999.25        100.289         4.5010        0.08010        0.05570        0.81450        3.04380        0.30440        0.63990        0.00390        0.02890      255.73850        563.073
        13190.5      13190.500        -999.25         85.108         4.2500        0.08150        0.05730        0.84500        2.82600        0.29700        0.64580        0.00700        0.02480      219.51890        563.092
        13191.0      13191.000        -999.25         73.066         4.2010        0.08260        0.05950        0.85640        2.63740        0.27950        0.66100        0.00730        0.02390      211.42100        563.111
        13191.5      13191.500        -999.25         63.877         4.3070        0.08340        0.06330        0.86100        2.38670        0.24030        0.69630        0.00290        0.02460      217.77930        563.130
        13192.0      13192.000        -999.25         54.999         4.4130        0.07440        0.05870        0.93010        2.00010        0.21210        0.72920        0.00000        0.01150      101.42230        563.149
        13192.5      13192.500        -999.25         55.157         4.5190        0.05590        0.04440        1.00000        1.61490        0.20650        0.74910        0.00000        0.00000        0.00000        563.168
        13193.0      13192.999        -999.25         55.315         4.7690        0.05930        0.04790        1.00000        1.61520        0.19240        0.75970        0.00000        0.00000        0.00300        563.187
        13193.5      13193.500        -999.25         55.473         6.4810        0.06640        0.05450        0.81160        1.69770        0.17890        0.76660        0.00000        0.02870      253.91300        563.206
        13194.0      13194.000        -999.25         57.695         6.7480        0.07120        0.05830        0.75650        1.82660        0.18090        0.76080        0.00000        0.03970      351.14340        563.225
        13194.5      13194.500        -999.25         62.043         7.0150        0.06840        0.05580        0.75350        1.83540        0.18400        0.76020        0.00000        0.03850      340.20960        563.244
        13195.0      13195.000        -999.25         66.390         7.1430        0.06610        0.05370        0.75580        1.85900        0.18750        0.75880        0.00000        0.03670      324.36910        563.263
        13195.5      13195.500        -999.25         70.738         6.9300        0.07270        0.05800        0.71610        2.10830        0.20260        0.73940        0.00000        0.04610      407.63370        563.282
        13196.0      13196.000        -999.25         75.086         6.7170        0.07980        0.06250        0.68220        2.36200        0.21630        0.72110        0.00780        0.05560      491.79030        563.301
        13196.5      13196.500        -999.25         72.597         6.5040        0.08680        0.06760        0.65860        2.48830        0.22160        0.71080        0.01600        0.06460      570.96400        563.320
        13197.0      13197.000        -999.25         69.242         6.2920        0.09390        0.07380        0.64240        2.55930        0.21450        0.71180        0.01910        0.07380      652.68160        563.339
        13197.5      13197.500        -999.25         65.888         6.0790        0.09650        0.07670        0.64720        2.53290        0.20530        0.71800        0.01830        0.07570      669.62670        563.358
