#--------------------------------------------------#
#-------------------ENVERUS, INC.------------------#
#------------------WWW.ENVERUS.COM-----------------#
#------------------COPYRIGHT 2020------------------#
#--------------------------------------------------#
#THIS FILE MAY BE USED ONLY IN ACCORDANCE WITH A CURRENT SUBSCRIPTION AGREEMENT BETWEEN
#THE USER AND ENVERUS, INC. NO PART OF THIS FILE MAY BE REPRODUCED, USED, COPIED,
#MODIFIED, PROPAGATED, OR DISTRIBUTED EXCEPT IN ACCORDANCE WITH THE SUBSCRIPTION
#AGREEMENT. UNAUTHORIZED USE OR DISTRIBUTION OF ALL OR ANY PART OF THIS FILE MAY VIOLATE
#COPYRIGHT, TRADEMARK, AND/OR OTHER LAWS AND IS SUBJECT TO CIVIL AS WELL AS CRIMINAL
#SANCTIONS.
#--------------------------------------------------#
#THIS FILE IS PROVIDED "AS-IS" AND ALL WARRANTIES ARE EXPRESSLY DISCLAIMED, WHETHER
#EXPRESS, ORAL, IMPLIED, STATUTORY OR OTHERWISE, INCLUDING ANY IMPLIED WARRANTY OF FITNESS
#FOR A PARTICULAR PURPOSE, MERCHANTABILITY, TITLE OR NON-INFRINGEMENT, AND ANY WARRANTIES
#ARISING BY VIRTUE OF CUSTOM OF TRADE OR COURSE OF DEALING.  FURTHER, ENVERUS, INC.
#AND ITS LICENSORS DO NOT REPRESENT OR WARRANT THAT THIS FILE WILL MEET USER'S
#REQUIREMENTS OR ARE SUITABLE FOR USER'S NEEDS OR THAT THE DATA OR RESULTS PROVIDED IN
#CONJUNCTION THEREWITH ARE CORRECT, ACCURATE, TIMELY OR RELIABLE. THESE DISCLAIMERS SHALL
#APPLY REGARDLESS OF ANY FAILURE OF ESSENTIAL PURPOSE OF ANY LIMITED REMEDY.  SOME
#JURISDICTIONS DO NOT ALLOW THE EXCLUSION OF CERTAIN WARRANTIES SO SOME OF THE ABOVE
#EXCLUSIONS MAY NOT APPLY. IN NO EVENT SHALL ENVERUS, INC. OR ANY OF ITS AFFILIATES
#BE LIABLE UNDER ANY LEGAL THEORY, WHETHER IN TORT (INCLUDING WITHOUT LIMITATION
#NEGLIGENCE), CONTRACT, STRICT LIABILITY, STATUTORY OR OTHERWISE, FOR ANY SPECIAL,
#INCIDENTAL, CONSEQUENTIAL, EXEMPLARY, PUNITIVE OR INDIRECT DAMAGE OF ANY KIND, INCLUDING
#WITHOUT LIMITATION LOSS OF REVENUE, PROFITS, GOODWILL, USE, AND/OR DATA OR THE COST OF
#PROCUREMENT OF SUBSTITUTE GOODS OR SERVICES, EVEN IF APPRISED OF THE POSSIBILITY OF SUCH
#DAMAGES IN ADVANCE.
#--------------------------------------------------#

~VERSION INFORMATION
VERS. 2.0 : CWLS LOG ASCII STANDARD - VERSION 2.0
WRAP.  NO : ONE LINE PER DEPTH STEP
~WELL INFORMATION
#MNEMONIC     .UNIT              VALUE :DESCRIPTION
STRT       .FT                102 :START DEPTH
STOP       .FT                9071 :STOP DEPTH
STEP       .FT                   0.500 :STEP
NULL       .                  -999.99 :NULL
UWI        .                42389104910000 :UNIQUE WELL ID
API        .                42389104910000 :API NUMBER
COMP       .         :COMPANY
WELL       .        :WELL
DATE       .                 :LOG DATE
FLD       .                 :FIELD NAME
LOC       .                  UNK :LOCATION
CNTY       .                 UNK :COUNTY
STAT       .                 UNK :STATE
CTRY       .                 UNK :COUNTY
SRVC       .                 UNK :SERVICE COMPANY
~CURVE INFORMATION
#MNEMONIC     .UNIT      API CODE :CURVE DESCRIPTION
DEPTH       .FT                      :MEASURED DEPTH
DT.MSEC/FT        UNKNOWN   :DT
GR.API        UNKNOWN   :GR
~A    DEPTH    DT    GR
# ...
 2486.5     70.25398   2.62382
 2487     72.91726   3.13297
 2487.5     76.93871   3.64211
 2488     80.96016   4.15126
 2488.5     84.98161   4.6604
 2489     89.00306   5.07304
 2489.5     93.02451   4.2858
 2490     97.04595   3.49855
 2490.5     97.09164   2.7113
 2491     96.90775   1.92405
 2491.5     96.72386   1.1368
 2492     96.79575   1.10448
 2492.5     97.05751   1.10552
 2493     97.31928   1.10656
 2493.5     97.58104   1.10761
 2494     97.8428   1.10865
 2494.5     98.10456   1.10969
 2495     97.24842   1.11073
 2495.5     96.28116   1.11177
 2496     95.3139   1.11281
 2496.5     94.90996   1.11385
 2497     94.90962   1.11489
 2497.5     94.71302   1.11593
 2498     94.49253   1.11698
 2498.5     94.27204   1.11802
 2499     94.05155   1.11906
 2499.5     94.20972   1.1201
 2500     94.94128   1.12114
 2500.5     95.67284   1.12218
 2501     96.4044   1.09957
 2501.5     97.13596   1.07641
 2502     97.09213   1.05324
 2502.5     96.89367   1.03008
 2503     96.6952   1.00692
 2503.5     96.49673   .98376
 2504     96.29827   .9606
 2504.5     95.70521   .93744
 2505     93.66181   .91428
 2505.5     91.61841   .89112
 2506     89.575   .86796
 2506.5     90.22597   .8448
 2507     91.03776   .82164
 2507.5     92.61951   .79848
 2508     94.60029   .77532
 2508.5     95.03143   .75215
 2509     95.30916   .72899
 2509.5     95.58688   .70583
 2510     95.86461   .68267
 2510.5     96.14234   .65951
 2511     96.42006   .63635
 2511.5     96.28334   .61319
 2512     95.95184   .59003
 2512.5     89.55266   .56687
 2513     85.07846   .54371
 2513.5     83.37854   .52055
 2514     85.80231   .49739
 2514.5     88.22607   .47422
 2515     90.64984   .45106
 2515.5     93.0736   .4279
 2516     95.49736   .40474
 2516.5     96.6872   .38158
 2517     96.79643   .35842
 2517.5     96.90565   .33526
 2518     96.99893   .3121
 2518.5     96.9986   .28894
 2519     96.99827   .26578
 2519.5     96.99794   .24262
 2520     96.99761   .21946
 2520.5     96.99728   .19629
 2521     96.99695   .17313
 2521.5     96.99662   .14997
 2522     96.99629   .12681
 2522.5     96.99596   .10365
 2523     96.99563   .08049
 2523.5     96.9953   .12283
 2524     96.99497   .24438
 2524.5     96.99464   .36593
 2525     97.02938   .48748
 2525.5     97.08594   .60902
 2526     97.1425   .73057
 2526.5     97.19906   .85212
 2527     97.25562   .97367
 2527.5     97.31218   1.09521
 2528     97.36874   1.21676
 2528.5     97.4253   1.33831
 2529     97.48186   1.28545
 2529.5     97.53842   1.18869
 2530     97.59498   1.09192
 2530.5     97.65154   .99515
 2531     97.7081   .89839
 2531.5     97.76466   .80162
 2532     97.82122   .70486
 2532.5     97.71594   .60809
 2533     97.35439   .51133
 2533.5     96.99283   .41456
 2534     96.63128   .31779
 2534.5     96.26973   .22103
 2535     95.90817   .12426
 2535.5     95.30677   .0275
 2536     93.86066   -.06927
 2536.5     92.41455   -.16603
 2537     90.96844   -.2628
 2537.5     89.52234   -.24869
 2538     89.31133   -.22492
 2538.5     92.64494   -.20116
 2539     94.51023   -.17739
 2539.5     94.76716   -.15362
 2540     95.02408   -.12986
 2540.5     95.28101   -.10609
 2541     95.53794   -.08233
 2541.5     95.79486   -.05856
 2542     96.05179   -.03479
 2542.5     96.30872   -.01103
 2543     96.56564   .01274
 2543.5     96.82257   .03651
 2544     96.92914   .06027
 2544.5     97.01105   .08404
 2545     97.09296   .10781
 2545.5     97.17487   .13157
 2546     97.25678   .15534
 2546.5     97.33869   .1791
 2547     97.4206   .20287
 2547.5     97.50251   .22664
 2548     97.58442   .2504
 2548.5     97.53676   .27417
 2549     97.46316   .29794
 2549.5     97.38955   .3217
 2550     97.31595   .34547
 2550.5     97.24235   .36923
 2551     97.16874   .393
 2551.5     97.09514   .41677
 2552     97.02153   .44053
 2552.5     96.94793   .4643
 2553     96.87433   .48807
 2553.5     96.80072   .51183
 2554     96.72942   .5356
 2554.5     96.83875   .55937
 2555     96.94807   .58313
 2555.5     97.0574   .6069
 2556     97.16672   .63066
 2556.5     97.27604   .65443
 2557     97.38537   .6782
 2557.5     97.46082   .70196
 2558     97.4275   .72573
 2558.5     97.39418   .7495
 2559     97.36087   .77326
 2559.5     97.32755   .79703
 2560     97.29423   .82079
 2560.5     97.26091   .84456
 2561     97.22759   .86833
 2561.5     97.19428   .85041
 2562     97.16096   .80785
 2562.5     97.12764   .7653
 2563     97.09432   .72274
 2563.5     97.14361   .68018
 2564     97.19496   .63762
 2564.5     97.2463   .59506
 2565     97.29765   .5525
 2565.5     97.349   .52317
 2566     97.40035   .54834
 2566.5     97.4517   .57351
 2567     97.50305   .59868
 2567.5     97.5544   .62384
 2568     97.61765   .64901
 2568.5     97.69956   .67418
 2569     97.78147   .69935
 2569.5     97.86337   .72452
 2570     97.94528   .74969
 2570.5     97.7837   .77486
 2571     97.5877   .80003
 2571.5     97.39169   .8252
 2572     97.19569   .85037
 2572.5     96.99969   .87554
 2573     97.04378   .89902
 2573.5     97.141   .87664
 2574     97.23823   .85425
 2574.5     97.33545   .83187
 2575     97.43268   .80949
 2575.5     97.39753   .78711
 2576     97.31623   .76472
 2576.5     97.23494   .74234
 2577     97.15365   .71996
 2577.5     97.07236   .69758
 2578     96.99106   .67519
 2578.5     96.90977   .65281
 2579     96.82848   .63043
 2579.5     96.74719   .60805
 2580     96.66589   .58566
 2580.5     96.59155   .56328
 2581     96.65983   .5409
 2581.5     96.72811   .51852
 2582     96.79638   .49613
 2582.5     96.86466   .47375
 2583     96.93294   .45137
 2583.5     97.00122   .42898
 2584     97.0695   .4066
 2584.5     97.13778   .38422
 2585     97.20027   .36184
 2585.5     97.03998   .33945
 2586     96.87969   .31707
 2586.5     96.7194   .29469
 2587     96.5591   .27231
 2587.5     96.39881   .24992
 2588     96.23852   .22754
 2588.5     96.39647   .20516
 2589     96.61511   .18278
 2589.5     96.83375   .16039
 2590     97.05239   .13801
 2590.5     97.27103   .11563
 2591     97.12088   .09325
 2591.5     96.85139   .07086
 2592     96.5819   .04848
 2592.5     96.31242   .0261
 2593     96.04293   .1614
 2593.5     95.77344   .36243
 2594     95.50395   .56346
 2594.5     95.23446   .7645
 2595     94.96497   .96553
 2595.5     94.69548   1.16656
 2596     91.42757   1.36759
 2596.5     86.53754   1.56863
 2597     81.64751   1.76966
 2597.5     76.75748   1.97069
 2598     71.86744   1.87255
 2598.5     68.60527   1.59473
 2599     68.54234   1.31691
 2599.5     68.47941   1.03909
 2600     68.41649   .76127
 2600.5     68.35356   .48345
 2601     68.29063   .20563
 2601.5     68.22771   -.07219
 2602     68.16478   .22307
 2602.5     68.19392   .72994
 2603     68.33541   1.2368
 2603.5     68.47689   1.74367
 2604     68.61837   2.25054
 2604.5     68.75985   2.7574
 2605     68.90134   3.26427
 2605.5     69.04282   3.54718
 2606     69.1843   3.58883
 2606.5     69.32578   3.63049
 2607     69.46727   3.67214
 2607.5     69.43851   3.7138
 2608     69.37969   3.50655
 2608.5     69.32086   3.29678
 2609     69.26204   3.08702
 2609.5     69.20321   2.87725
 2610     69.14439   2.66749
 2610.5     69.08557   2.45773
 2611     69.02674   2.24796
 2611.5     69.20363   2.0382
 2612     69.73303   1.82844
 2612.5     70.26244   1.85437
 2613     70.79184   2.21466
 2613.5     70.89554   2.57495
 2614     70.43733   2.93524
 2614.5     69.97911   3.29553
 2615     69.52089   3.65582
 2615.5     69.06268   4.01611
 2616     68.60446   4.3764
 2616.5     68.14624   4.73669
 2617     67.80045   5.09698
 2617.5     68.14019   5.45727
 2618     68.47992   5.81756
 2618.5     68.81966   5.71384
 2619     69.1594   5.38981
 2619.5     69.42111   5.06579
 2620     68.12852   4.74176
 2620.5     66.83593   4.41774
 2621     65.89595   4.09372
 2621.5     65.89574   3.76969
 2622     65.89552   4.17515
 2622.5     65.89531   5.98352
 2623     65.8951   7.79188
 2623.5     65.96868   9.60024
