###############################################
##         ENVERUS                           ##
##         ESS - Open Hole                   ##
##         PERMIAN / DELAWARE                ##
##         Nov 04 2023  V4.0                 ##
##         42-389-10116-00-00                ##
###############################################
## Copyright 2017-2023  ENVERUS.  All Rights Reserved. 
## Confidential - Property of ENVERUS, use governed by terms and 
## conditions found within the existing Information Services Subscription Agreement 
## (as may be amended, the “ISSA”) between Customer and ENVERUS. 
## 
~VERSION INFORMATION
# MNEM.UNIT                               DATA : DESCRIPTION OF MNEMONIC
#-----.-----     ----------------------------- : -----------------------------
VERS.                                     2.00 : CWLS LOG ASCII STANDARD - VERSION 2.00
WRAP.                                       NO : MULTIPLE LINES PER DEPTH STEP
VEND.                                  ENVERUS : VENDOR
TYPE.                          ESS - OPEN HOLE : ENVERUS ESSENTIAL CURVES – ACCESSIBLE THROUGH ENVERUS PRISM(TM)
DOC.                                  31818149 : ENVERUS HEADER RAW DOCUMENT ID
#___________________________________________________________________________________________________ 
~WELL INFORMATION 
# kxSJJvG4Ro99GqojvmaAoFb8nmZsGWyMBdB6Op61yYkHZj6VRdx+Ef4kBXz5Syac/VH6awax3Ll89xsC2rvs8g== 
# MNEM.UNIT                                              DATA : DESCRIPTION OF MNEMONIC 
#-----.-----                    ----------------------------- : ----------------------------- 
CNTY.                                                  REEVES : COUNTY 
STATE.                                                  TEXAS : STATE 
CNTRY.                                                    USA : COUNTRY 
API.                                             42-389-10116 : API (10 Digit) 
API_14.                                    42-389-10116-00-00 : API (14 Digits) 
API_14_std.                                 42-389-10116-0000 : API (14 Digits Standard) 
UWI.                                           42389101160000 : UNIQUE WELL ID 
WELL.                                            WOODS -A-  1 : WELL NAME
STRT.FT                                                 107.0 : START DEPTH
STOP.FT                                                5258.0 : STOP DEPTH
STEP.FT                                                   0.5 : STEP BETWEEN DEPTHS
NULL.                                                 -999.25 : NULL VALUE
COMP.                              PHILLIPS PETROLEUM COMPANY : COMPANY
#___________________________________________________________________________________________________ 
~CURVE INFORMATION 
# MNEM.UNIT           : CURVE DESCRIPTION 
#-----.-----          : ----------------------------- 
 DEPT.FT               : MEASURED DEPTH 
 GR.API                : GAMMA RAY (GR) 
 DT.US/FT              : SONIC DELTA TRANSIT TIME (DT) 
 #___________________________________________________________________________________________________ 
~A         DEPT             GR             DT
# ...
         3848.0         12.844         50.020
         3848.5         13.294         50.171
         3849.0         13.391         50.263
         3849.5         12.967         49.741
         3850.0         12.544         49.860
         3850.5         12.120         49.979
         3851.0         11.697         50.097
         3851.5         11.273         50.216
         3852.0         10.849         50.335
         3852.5         10.426         50.121
         3853.0         10.002         49.010
         3853.5          9.579         48.890
         3854.0          9.352         48.939
         3854.5         10.292         48.988
         3855.0         11.232         49.037
         3855.5         12.173         49.087
         3856.0         12.039         49.133
         3856.5         11.590         49.012
         3857.0         11.140         48.891
         3857.5         10.691         48.770
         3858.0         10.242         48.649
         3858.5         10.239         48.528
         3859.0         10.914         48.407
         3859.5         11.588         48.788
         3860.0         12.262         49.366
         3860.5         12.886         49.944
         3861.0         12.608         50.522
         3861.5         12.329         51.100
         3862.0         12.050         51.022
         3862.5         11.771         50.762
         3863.0         11.492         50.503
         3863.5         11.214         50.438
         3864.0         10.935         50.659
         3864.5         10.656         50.879
         3865.0         10.377         51.100
         3865.5         10.099         50.399
         3866.0          9.820         49.683
         3866.5         10.264         48.967
         3867.0         10.854         48.686
         3867.5         11.444         48.646
         3868.0         12.033         48.605
         3868.5         12.623         48.564
         3869.0         13.162         48.524
         3869.5         12.258         48.483
         3870.0         11.354         48.442
         3870.5         10.565         50.852
         3871.0         11.004         50.659
         3871.5         11.442         50.465
         3872.0         11.880         50.272
         3872.5         12.318         49.235
         3873.0         12.756         48.481
         3873.5         13.194         49.071
         3874.0         13.633         49.660
         3874.5         13.074         50.249
         3875.0         12.306         50.789
         3875.5         11.538         50.648
         3876.0         10.769         50.507
         3876.5         10.371         50.366
         3877.0         10.499         50.225
         3877.5         10.627         50.084
         3878.0         10.755         49.895
         3878.5         10.883         49.569
         3879.0         11.011         49.243
         3879.5          8.958         48.917
         3880.0          7.688         48.590
         3880.5          8.154         48.264
         3881.0          8.621         47.938
         3881.5          9.087         48.146
         3882.0          9.554         48.357
         3882.5         10.021         48.569
         3883.0         10.286         48.780
         3883.5         10.040         48.991
         3884.0          9.793         49.203
         3884.5          9.636         49.414
         3885.0          9.638         49.625
         3885.5          9.641         49.865
         3886.0          9.644         50.221
         3886.5          9.647         50.576
         3887.0          9.650         50.932
         3887.5          9.653         51.287
         3888.0          9.656         51.643
         3888.5          9.419         51.998
         3889.0          7.045         52.033
         3889.5          7.709         51.412
         3890.0          8.372         50.791
         3890.5          9.036         50.170
         3891.0          9.700         49.549
         3891.5         10.363         48.982
         3892.0         11.027         49.136
         3892.5         11.691         49.291
         3893.0         11.951         49.445
         3893.5         11.502         49.600
         3894.0         11.053         50.760
         3894.5         10.603         50.673
         3895.0         10.154         50.587
         3895.5          9.705         50.500
         3896.0          9.255         53.342
         3896.5          8.806         57.069
         3897.0          8.356         60.724
         3897.5          7.907         63.320
         3898.0          7.458         65.916
         3898.5          7.428         68.512
         3899.0          7.667         61.690
         3899.5          7.905         55.327
         3900.0          8.144         43.454
         3900.5          8.383         44.714
         3901.0          8.622         45.973
         3901.5          8.860         47.232
         3902.0          9.099         47.608
         3902.5          9.363         47.594
         3903.0          9.673         47.580
         3903.5          9.982         47.566
         3904.0         10.291         47.767
         3904.5         10.601         48.423
         3905.0         10.910         49.078
         3905.5         11.219         49.734
         3906.0         11.528         49.338
         3906.5         11.838         48.770
         3907.0         13.405         48.201
         3907.5         15.677         48.736
         3908.0         17.949         49.287
         3908.5         18.502         49.818
         3909.0         15.402         49.636
         3909.5         12.301         49.455
         3910.0          9.201         49.274
         3910.5          8.623         49.093
         3911.0          8.698         48.911
         3911.5          8.772         48.730
         3912.0          8.846         48.664
         3912.5          8.921         48.937
         3913.0          8.995         49.210
         3913.5          9.069         49.483
         3914.0          9.143         49.757
         3914.5          9.218         49.757
         3915.0          9.292         49.271
         3915.5          9.621         48.784
         3916.0         10.127         48.298
         3916.5         10.632         48.362
         3917.0         11.137         48.931
         3917.5         11.643         49.501
         3918.0         11.114         49.811
         3918.5         10.251         49.917
         3919.0          9.387         50.023
         3919.5          8.523         50.128
         3920.0          8.568         50.054
         3920.5          8.802         49.111
         3921.0          9.036         48.167
         3921.5          9.270         47.615
         3922.0          9.504         47.862
         3922.5          9.738         48.108
         3923.0          9.696         48.355
         3923.5          9.399         48.602
         3924.0          9.103         48.848
         3924.5          8.807         49.095
         3925.0          8.511         48.804
         3925.5          8.795         48.494
         3926.0          9.402         48.185
         3926.5         10.009         47.875
         3927.0         10.615         48.094
         3927.5         11.222         48.625
         3928.0         10.814         48.986
         3928.5         10.171         49.257
         3929.0          9.528         49.528
         3929.5          8.886         49.632
         3930.0          8.243         49.170
         3930.5          8.515         48.708
         3931.0          8.872         48.863
         3931.5          9.229         49.145
         3932.0          9.586         49.426
         3932.5          9.943         49.708
         3933.0         10.300         49.440
         3933.5         10.658         49.116
         3934.0         11.015         48.805
         3934.5         11.017         49.058
