###############################################
##         ENVERUS                           ##
##         Petrophysical Curves              ##
##         PERMIAN / DELAWARE                ##
##         Jan 21 2022                       ##
##         42-371-36857-00-00                ##
###############################################
## Copyright 2017-2022  ENVERUS.  All Rights Reserved. 
## Confidential - Property of ENVERUS, use governed by terms and 
## conditions found within the existing Information Services Subscription Agreement 
## (as may be amended, the “ISSA”) between Customer and ENVERUS. 
## 
~VERSION INFORMATION
# MNEM.UNIT                               DATA : DESCRIPTION OF MNEMONIC
#-----.-----     ----------------------------- : -----------------------------
VERS.                                     2.00 : CWLS LOG ASCII STANDARD - VERSION 2.00
WRAP.                                       NO : MULTIPLE LINES PER DEPTH STEP
VEND.                                  ENVERUS : VENDOR
TYPE.                     PETROPHYSICAL CURVES : ENVERUS PETROPHYSICAL CURVES - ACCESSIBLE THROUGH ENVERUS CORE(TM)
#___________________________________________________________________________________________________ 
~WELL INFORMATION 
# uyaQ8P8kQDJ9DXFS5hR1PxmExEOYaAUkY5f3/tnOS+scoPAUWgXA1zCIHGRbWCuSuUcwDzaESCjqjWQ81XhadA== 
# MNEM.UNIT                                              DATA : DESCRIPTION OF MNEMONIC 
#-----.-----                    ----------------------------- : ----------------------------- 
CNTY.                                                   PECOS : COUNTY 
STATE.                                                  TEXAS : STATE 
CNTRY.                                                    USA : COUNTRY 
API.                                             42-371-36857 : API (10 Digit) 
API_14.                                    42-371-36857-00-00 : API (14 Digits) 
API_14_std.                                 42-371-36857-0000 : API (14 Digits Standard) 
UWI.                                           42371368570000 : UNIQUE WELL ID
STRT.FT                                                7870.0 : START DEPTH
STOP.FT                                               16592.5 : STOP DEPTH
STEP.FT                                                   0.5 : STEP BETWEEN DEPTHS
NULL.                                                 -999.25 : NULL VALUE
COMP.                                             DIAMONDBACK : COMPANY 
WELL.                                         MOORE-GILMORE 1 : WELL NAME 
FLD.                                               WAHA  WEST : FIELD NAME
#___________________________________________________________________________________________________ 
~CURVE INFORMATION 
#    Zone Description
#          1 = Upper Avalon
#          2 = Middle Avalon
#          3 = Lower Avalon
#          4 = 1st Bone Spring
#          5 = 2nd Bone Spring
#          6 = 2nd Bone Spring Sand
#          7 = 3rd Bone Spring
#          8 = 3rd Bone Spring Sand
#          9 = Wolfcamp XY
#          10 = Wolfcamp A Upper
#          11 = Wolfcamp A Lower
#          12 = Wolfcamp B Upper
#          13 = Wolfcamp B Lower
#          14 = Wolfcamp C
#          15 = Wolfcamp D
#          16 = Pennsylvanian Shale
#          17 = Lower Pennsylvanian Shale
#          18 = Barnett
#          19 = Barnett Lower
#          20 = Mississippian Lime
#          21 = Woodford
#          22 = Base Woodford 
# MNEM.UNIT           : CURVE DESCRIPTION 
#-----.-----          : ----------------------------- 
 DEPT.FT               : MEASURED DEPTH 
 TVD_I.FT              : ENVERUS TRUE VERTICAL DEPTH 
 ZONE_I.               : ENVERUS DEFINED ZONE CODE 
 GR_N_I.API            : ENVERUS NORMALIZED GAMMA RAY LEVERAGED IN GEOLOGICAL MODELLING 
 RESD_I.OHMM           : ENVERUS DEEP RESISTIVITY LEVERAGED IN GEOLOGICAL MODELLING 
 DPHI_I.V/V            : ENVERUS INTERPRETED DENSITY POROSITY USING A 2.71 G/CC MATRIX DENSITY 
 PHIE_I.V/V            : ENVERUS INTERPRETED EFFECTIVE POROSITY 
 SW_I.V/V              : ENVERUS INTERPRETED WATER SATURATION USING MODIFIED SIMANDOUX EQUATION 
 TOC_I.WT%             : ENVERUS INTERPRETED TOTAL ORGANIC CARBON USING MULTI-LINEAR REGRESSION 
 VCLAY_I.V/V           : ENVERUS INTERPRETED CLAY VOLUMES USING MULTI-LINEAR REGRESSION 
 NVCLAY_I.V/V          : ENVERUS INTERPRETED NON CLAY VOLUMES 
 HCPV_I.V/V            : ENVERUS INTERPRETED HYDROCARBON PORE VOLUME 
 OOIP_I.MMBBL/SEC      : ENVERUS INTERPRETED ORIGINAL OIL IN PLACE 
 OGIP_I.BCF/SEC        : ENVERUS INTERPRETED ORIGINAL GAS IN PLACE 
 TEMP_I.DEGF           : ENVERUS INTERPRETED TEMPERATURE DERIVED FROM BOTTOM HOLE TEMPERATURES 
 #___________________________________________________________________________________________________ 
~A         DEPT          TVD_I         ZONE_I         GR_N_I         RESD_I         DPHI_I         PHIE_I           SW_I          TOC_I        VCLAY_I       NVCLAY_I         HCPV_I         OOIP_I         OGIP_I         TEMP_I
# ...
        12118.0      12118.000          15.00        104.634         4.0070        0.04850        0.03220        0.93720        2.56540        0.33590        0.63190        0.00000        0.00570       47.66980        522.431
        12118.5      12118.500          15.00        104.465         4.0010        0.04810        0.03190        0.93430        2.55820        0.33660        0.63150        0.00000        0.00590       49.43820        522.450
        12119.0      12119.000          15.00        104.297         3.9950        0.05050        0.03360        0.95420        2.59520        0.33420        0.63220        0.00000        0.00430       36.27980        522.469
        12119.5      12119.501          15.00        104.129         3.9890        0.05460        0.03660        0.97630        2.65620        0.32820        0.63510        0.00000        0.00240       20.49480        522.487
        12120.0      12120.000          15.00        103.960         3.9830        0.05800        0.03930        0.98560        2.70360        0.32200        0.63870        0.00000        0.00160       13.31010        522.506
        12120.5      12120.500          15.00        103.792         3.9920        0.05850        0.03990        0.98970        2.69960        0.31830        0.64180        0.00000        0.00120        9.69510        522.525
        12121.0      12121.000          15.00        103.091         4.0030        0.05820        0.03990        0.99480        2.67140        0.31510        0.64500        0.00000        0.00060        4.89230        522.544
        12121.5      12121.501          15.00        102.205         4.0150        0.05910        0.04030        0.98530        2.68310        0.31730        0.64240        0.00000        0.00170       13.98780        522.563
        12122.0      12122.000          15.00        101.320         4.0260        0.06050        0.04100        0.97090        2.71200        0.32120        0.63770        0.00000        0.00330       28.16570        522.582
        12122.5      12122.500          15.00        100.435         4.0380        0.05810        0.03930        0.97310        2.65450        0.32250        0.63810        0.00000        0.00300       24.93100        522.601
        12123.0      12122.999          15.00         99.550         4.0500        0.05350        0.03630        0.97790        2.54860        0.32240        0.64130        0.00000        0.00220       18.92780        522.620
        12123.5      12123.500          15.00         99.502         4.0610        0.05100        0.03460        0.97620        2.49440        0.32180        0.64370        0.00000        0.00230       19.37330        522.639
        12124.0      12124.000          15.00         99.722         4.0730        0.04820        0.03270        0.96520        2.44170        0.32210        0.64520        0.00000        0.00320       26.76770        522.658
        12124.5      12124.500          15.00         99.941         4.0850        0.04380        0.02940        0.90560        2.37940        0.32880        0.64180        0.00000        0.00780       65.44230        522.677
        12125.0      12125.000          15.00        100.160         4.0960        0.03910        0.02590        0.77270        2.31970        0.33780        0.63640        0.00000        0.01640      138.62700        522.696
        12125.5      12125.500          15.00        100.379         4.1080        0.03650        0.02410        0.66920        2.28390        0.34100        0.63490        0.00000        0.02230      187.83720        522.715
        12126.0      12126.000          15.00        100.598         4.0770        0.03600        0.02380        0.66210        2.27380        0.34040        0.63590        0.00000        0.02250      189.29640        522.734
        12126.5      12126.500          15.00        100.818         4.0450        0.03500        0.02300        0.60830        2.26760        0.34330        0.63370        0.00000        0.02520      212.43010        522.753
        12127.0      12127.000          15.00        102.043         4.0130        0.03330        0.02180        0.52250        2.24940        0.34370        0.63450        0.00000        0.02920      245.86210        522.772
        12127.5      12127.500          15.00        104.772         3.9810        0.03420        0.02240        0.57100        2.30870        0.34520        0.63240        0.00000        0.02680      226.13430        522.791
        12128.0      12128.001          15.00        104.139         3.9490        0.03890        0.02550        0.78010        2.38890        0.34320        0.63120        0.00000        0.01570      132.40950        522.810
        12128.5      12128.500          15.00        103.506         3.9170        0.04510        0.02970        0.91370        2.49830        0.34110        0.62920        0.00000        0.00720       60.44810        522.829
        12129.0      12129.000          15.00        102.872         3.8850        0.05130        0.03410        0.98000        2.59540        0.33500        0.63090        0.00000        0.00190       16.07250        522.848
        12129.5      12129.499          15.00        102.239         3.8840        0.05510        0.03710        1.00000        2.63850        0.32760        0.63530        0.00000        0.00000        0.00000        522.867
        12130.0      12130.000          15.00        101.606         3.8860        0.05440        0.03680        1.00000        2.60020        0.32370        0.63950        0.00000        0.00000        0.00000        522.886
        12130.5      12130.500          15.00        100.972         3.8880        0.05200        0.03530        1.00000        2.53400        0.32130        0.64340        0.00000        0.00000        0.00000        522.905
        12131.0      12131.000          15.00        100.339         3.8900        0.04980        0.03320        0.97830        2.52520        0.33380        0.63300        0.00000        0.00200       17.02200        522.923
        12131.5      12131.500          15.00         99.706         3.8910        0.04770        0.03130        0.93150        2.51420        0.34450        0.62420        0.00000        0.00600       50.53680        522.942
        12132.0      12132.000          15.00        100.794         3.8930        0.04530        0.02940        0.88770        2.49790        0.34960        0.62090        0.00000        0.00920       77.97920        522.961
        12132.5      12132.500          15.00        102.961         3.8950        0.04490        0.02930        0.88880        2.51330        0.34810        0.62260        0.00000        0.00910       76.76580        522.980
        12133.0      12133.000          15.00        105.129         3.8970        0.04700        0.03090        0.93420        2.56330        0.34190        0.62720        0.00000        0.00570       48.02000        522.999
        12133.5      12133.500          15.00        107.297         3.8990        0.04800        0.03150        0.93740        2.61690        0.34270        0.62570        0.00000        0.00550       46.51190        523.018
        12134.0      12134.000          15.00        106.941         3.9010        0.04740        0.03110        0.92870        2.60520        0.34400        0.62490        0.00000        0.00620       52.31940        523.037
        12134.5      12134.501          15.00        105.925         3.9050        0.04810        0.03170        0.94390        2.59370        0.34080        0.62750        0.00000        0.00500       41.97500        523.056
        12135.0      12135.000          15.00        105.602         3.9350        0.04980        0.03300        0.95990        2.60670        0.33610        0.63080        0.00000        0.00370       31.27470        523.075
        12135.5      12135.500          15.00        106.929         3.9650        0.05150        0.03410        0.95470        2.66630        0.33730        0.62850        0.00000        0.00430       36.45520        523.094
