#--------------------------------------------------#
#-------------------ENVERUS, INC.------------------#
#------------------WWW.ENVERUS.COM-----------------#
#------------------COPYRIGHT 2020------------------#
#--------------------------------------------------#
#THIS FILE MAY BE USED ONLY IN ACCORDANCE WITH A CURRENT SUBSCRIPTION AGREEMENT BETWEEN
#THE USER AND ENVERUS, INC. NO PART OF THIS FILE MAY BE REPRODUCED, USED, COPIED,
#MODIFIED, PROPAGATED, OR DISTRIBUTED EXCEPT IN ACCORDANCE WITH THE SUBSCRIPTION
#AGREEMENT. UNAUTHORIZED USE OR DISTRIBUTION OF ALL OR ANY PART OF THIS FILE MAY VIOLATE
#COPYRIGHT, TRADEMARK, AND/OR OTHER LAWS AND IS SUBJECT TO CIVIL AS WELL AS CRIMINAL
#SANCTIONS.
#--------------------------------------------------#
#THIS FILE IS PROVIDED "AS-IS" AND ALL WARRANTIES ARE EXPRESSLY DISCLAIMED, WHETHER
#EXPRESS, ORAL, IMPLIED, STATUTORY OR OTHERWISE, INCLUDING ANY IMPLIED WARRANTY OF FITNESS
#FOR A PARTICULAR PURPOSE, MERCHANTABILITY, TITLE OR NON-INFRINGEMENT, AND ANY WARRANTIES
#ARISING BY VIRTUE OF CUSTOM OF TRADE OR COURSE OF DEALING.  FURTHER, ENVERUS, INC.
#AND ITS LICENSORS DO NOT REPRESENT OR WARRANT THAT THIS FILE WILL MEET USER'S
#REQUIREMENTS OR ARE SUITABLE FOR USER'S NEEDS OR THAT THE DATA OR RESULTS PROVIDED IN
#CONJUNCTION THEREWITH ARE CORRECT, ACCURATE, TIMELY OR RELIABLE. THESE DISCLAIMERS SHALL
#APPLY REGARDLESS OF ANY FAILURE OF ESSENTIAL PURPOSE OF ANY LIMITED REMEDY.  SOME
#JURISDICTIONS DO NOT ALLOW THE EXCLUSION OF CERTAIN WARRANTIES SO SOME OF THE ABOVE
#EXCLUSIONS MAY NOT APPLY. IN NO EVENT SHALL ENVERUS, INC. OR ANY OF ITS AFFILIATES
#BE LIABLE UNDER ANY LEGAL THEORY, WHETHER IN TORT (INCLUDING WITHOUT LIMITATION
#NEGLIGENCE), CONTRACT, STRICT LIABILITY, STATUTORY OR OTHERWISE, FOR ANY SPECIAL,
#INCIDENTAL, CONSEQUENTIAL, EXEMPLARY, PUNITIVE OR INDIRECT DAMAGE OF ANY KIND, INCLUDING
#WITHOUT LIMITATION LOSS OF REVENUE, PROFITS, GOODWILL, USE, AND/OR DATA OR THE COST OF
#PROCUREMENT OF SUBSTITUTE GOODS OR SERVICES, EVEN IF APPRISED OF THE POSSIBILITY OF SUCH
#DAMAGES IN ADVANCE.
#--------------------------------------------------#

~VERSION INFORMATION
VERS. 2.0 : CWLS LOG ASCII STANDARD - VERSION 2.0
WRAP.  NO : ONE LINE PER DEPTH STEP
~WELL INFORMATION
#MNEMONIC     .UNIT              VALUE :DESCRIPTION
STRT       .FT                429 :START DEPTH
STOP       .FT                6365 :STOP DEPTH
STEP       .FT                   0.500 :STEP
NULL       .                  -999.99 :NULL
UWI        .                42371100750000 :UNIQUE WELL ID
API        .                42371100750000 :API NUMBER
COMP       .         :COMPANY
WELL       .        :WELL
DATE       .                 :LOG DATE
FLD       .                 :FIELD NAME
LOC       .                  UNK :LOCATION
CNTY       .                 UNK :COUNTY
STAT       .                 UNK :STATE
CTRY       .                 UNK :COUNTY
SRVC       .                 UNK :SERVICE COMPANY
~CURVE INFORMATION
#MNEMONIC     .UNIT      API CODE :CURVE DESCRIPTION
DEPTH       .FT                      :MEASURED DEPTH
DT.MSEC/FT        UNKNOWN   :DT
GR.API        UNKNOWN   :GR
~A    DEPTH    DT    GR
# ...
 5519.5     80.16145   56.97621
 5520     78.62122   57.0544
 5520.5     79.11427   56.85539
 5521     80.06975   56.65638
 5521.5     79.3057   57.22129
 5522     77.90409   58.06539
 5522.5     76.97796   58.86776
 5523     74.89527   59.67013
 5523.5     72.48915   58.64809
 5524     71.82508   57.29876
 5524.5     70.89185   55.31776
 5525     68.49876   53.33677
 5525.5     66.98928   51.35578
 5526     66.10953   52.32798
 5526.5     65.40966   53.56574
 5527     65.09242   54.80351
 5527.5     67.48445   56.18161
 5528     67.78358   60.92653
 5528.5     68.19083   63.05534
 5529     69.06201   61.26897
 5529.5     71.61689   58.64333
 5530     72.70058   55.16222
 5530.5     73.78427   51.68111
 5531     73.03913   48.19999
 5531.5     70.94279   47.67185
 5532     71.25639   49.5905
 5532.5     73.43228   50.86073
 5533     75.27775   50.85723
 5533.5     75.72845   49.53546
 5534     75.29907   47.16294
 5534.5     74.86968   44.79042
 5535     73.64862   44.30923
 5535.5     71.66607   44.46453
 5536     71.84957   44.62025
 5536.5     72.98299   45.21302
 5537     72.53605   47.6862
 5537.5     72.07566   51.55446
 5538     73.79421   55.80343
 5538.5     72.82327   59.23078
 5539     71.85233   62.49628
 5539.5     72.21842   63.74244
 5540     73.43979   62.21569
 5540.5     73.09936   59.31506
 5541     72.72085   56.41444
 5541.5     72.26483   53.22683
 5542     71.75315   53.89289
 5542.5     71.55882   55.75634
 5543     72.07859   58.22325
 5543.5     72.05154   57.03551
 5544     73.29603   55.56258
 5544.5     75.03566   54.08964
 5545     73.66418   52.6167
 5545.5     71.94029   51.14376
 5546     71.22893   53.12267
 5546.5     70.66999   52.8548
 5547     70.52908   52.21253
 5547.5     70.61844   51.40647
 5548     69.84792   50.60041
 5548.5     68.36125   50.128
 5549     66.73487   49.72048
 5549.5     68.49381   48.70567
 5550     69.32201   48.44351
 5550.5     67.83943   49.42692
 5551     64.9374   50.50718
 5551.5     64.00496   51.58743
 5552     63.69881   52.66768
 5552.5     64.31211   59.52451
 5553     65.75714   62.75903
 5553.5     68.2501   65.22885
 5554     69.03327   67.69866
 5554.5     69.0777   69.05106
 5555     69.52466   67.25302
 5555.5     69.71462   65.45499
 5556     68.89969   68.63383
 5556.5     68.0835   71.90346
 5557     68.24026   75.17309
 5557.5     68.59657   78.44272
 5558     68.95288   77.32054
 5558.5     68.98285   75.79992
 5559     67.87608   74.60528
 5559.5     67.17393   73.56588
 5560     67.93671   72.11532
 5560.5     67.96296   69.19417
 5561     67.98921   66.27302
 5561.5     68.21357   63.21607
 5562     68.63288   59.45551
 5562.5     69.73758   53.14205
 5563     71.52087   50.67214
 5563.5     72.75115   53.36103
 5564     71.09911   56.1441
 5564.5     68.82407   58.92716
 5565     69.17681   61.50796
 5565.5     70.81813   63.52905
 5566     72.45393   64.40944
 5566.5     73.14812   59.63917
 5567     72.80427   54.8689
 5567.5     70.04306   50.09863
 5568     68.98089   45.32836
 5568.5     70.18801   41.02455
 5569     71.39513   43.94666
 5569.5     70.29729   54.75933
 5570     65.69541   77.70229
 5570.5     67.78603   116.69918
 5571     71.26486   147.43459
 5571.5     72.2562   169.41819
 5572     72.83094   179.88855
 5572.5     76.9158   159.67397
 5573     81.68728   144.85189
 5573.5     80.77953   132.53047
 5574     77.97395   110.04876
 5574.5     75.27012   65.86489
 5575     76.42436   57.24876
 5575.5     74.89523   53.48896
 5576     67.51866   49.72917
 5576.5     63.59187   49.42151
 5577     61.42221   50.37561
 5577.5     64.03952   51.3297
 5578     64.2756   51.68298
 5578.5     63.64308   50.76966
 5579     64.94918   48.50873
 5579.5     65.61963   46.24781
 5580     63.91778   47.28474
 5580.5     60.11558   52.63766
 5581     61.91138   58.61669
 5581.5     65.4707   67.76848
 5582     66.4385   83.73002
 5582.5     66.91726   104.09132
 5583     67.39601   127.35596
 5583.5     70.30741   131.21212
 5584     73.57236   122.54698
 5584.5     76.98335   107.77014
 5585     79.91886   91.88233
 5585.5     79.56856   83.46621
 5586     78.1933   75.13899
 5586.5     69.893   73.76744
 5587     67.30197   76.63007
 5587.5     66.29629   79.4927
 5588     66.38894   77.88901
 5588.5     66.92183   73.31083
 5589     67.63496   68.73264
 5589.5     66.18988   64.15446
 5590     65.80483   59.57627
 5590.5     65.83965   58.39604
 5591     66.57729   57.88535
 5591.5     67.29645   57.37467
 5592     67.62726   55.90871
 5592.5     68.50946   53.44542
 5593     72.30724   51.05119
 5593.5     69.46127   53.17494
 5594     64.96079   54.79315
 5594.5     63.74254   56.41135
 5595     64.72971   58.02956
 5595.5     70.81177   60.60391
 5596     70.08316   63.57884
 5596.5     69.37571   63.79302
 5597     75.50988   63.85011
 5597.5     73.8848   61.77775
 5598     72.62657   58.33959
 5598.5     72.3512   54.90142
 5599     67.61032   54.32441
 5599.5     66.08407   55.42259
 5600     66.76767   52.42977
 5600.5     71.79552   49.43694
 5601     71.81504   49.66888
 5601.5     69.4857   52.02046
 5602     70.13762   56.19335
 5602.5     70.79577   62.18702
 5603     70.8482   68.1807
 5603.5     70.78093   75.41038
 5604     74.87243   83.77951
 5604.5     74.40747   92.63333
 5605     71.31903   105.19745
 5605.5     69.70821   118.04829
 5606     71.4386   117.27146
 5606.5     74.69206   107.58597
 5607     77.93788   97.90047
 5607.5     72.88328   88.28361
 5608     66.38048   86.91862
 5608.5     62.46155   88.73912
 5609     64.64775   93.1318
 5609.5     67.89929   97.52448
 5610     67.76876   101.91715
 5610.5     67.63823   97.85819
 5611     68.57558   93.32462
 5611.5     70.26757   86.8768
 5612     67.80022   79.92349
 5612.5     65.33286   73.92791
 5613     64.80904   68.53993
 5613.5     65.21031   64.04082
 5614     65.61159   59.63687
 5614.5     66.01286   51.85683
 5615     63.6426   52.41106
 5615.5     61.43378   55.43365
 5616     64.66478   60.31124
 5616.5     65.04234   65.18883
 5617     64.98745   66.40484
 5617.5     64.93256   66.54324
 5618     66.84512   59.06835
 5618.5     66.08424   56.52566
 5619     64.94773   55.35092
 5619.5     66.59591   54.17618
 5620     66.90148   52.58175
 5620.5     67.00032   50.89545
 5621     66.23272   51.09455
 5621.5     64.4357   51.75945
 5622     64.09154   52.78999
 5622.5     64.87998   54.23139
 5623     65.6162   55.67278
 5623.5     66.28432   57.13906
 5624     66.99284   59.18243
 5624.5     67.79186   61.2258
 5625     68.59088   63.26916
 5625.5     68.67205   65.31253
 5626     68.72839   66.17062
 5626.5     69.01117   65.30048
 5627     68.95585   62.0739
 5627.5     68.25967   52.91135
 5628     68.46382   49.95791
 5628.5     65.89621   47.74581
 5629     63.27113   48.96044
 5629.5     65.46891   52.64464
 5630     65.90908   59.54401
 5630.5     66.20265   72.69765
 5631     66.05022   80.65466
 5631.5     66.18801   78.60354
 5632     67.71088   74.48772
 5632.5     68.34879   68.64719
 5633     68.82653   62.80665
 5633.5     68.43604   56.97936
 5634     68.04555   53.96465
 5634.5     67.28082   54.79197
 5635     66.44943   59.25961
 5635.5     64.98024   76.49579
 5636     61.70408   93.16152
 5636.5     62.5372   100.81267
 5637     66.51677   108.46382
 5637.5     72.23111   111.20827
 5638     70.52448   115.67341
 5638.5     67.41538   123.79032
 5639     67.97994   135.30241
 5639.5     70.86475   148.01365
 5640     74.94015   144.94276
 5640.5     77.5205   140.79804
 5641     75.91341   130.68234
 5641.5     75.43578   107.55
 5642     80.15416   88.28304
 5642.5     77.06122   73.59962
 5643     69.59545   67.78279
 5643.5     61.08925   70.1614
 5644     61.26782   76.55629
 5644.5     63.2557   76.12115
 5645     66.876   72.79363
 5645.5     69.51709   70.03527
 5646     69.62887   69.82063
 5646.5     69.74066   69.60598
 5647     69.59955   69.39134
 5647.5     69.4471   68.84125
 5648     70.92037   69.25332
 5648.5     70.98222   70.90491
