#--------------------------------------------------#
#-------------------ENVERUS, INC.------------------#
#------------------WWW.ENVERUS.COM-----------------#
#------------------COPYRIGHT 2020------------------#
#--------------------------------------------------#
#THIS FILE MAY BE USED ONLY IN ACCORDANCE WITH A CURRENT SUBSCRIPTION AGREEMENT BETWEEN
#THE USER AND ENVERUS, INC. NO PART OF THIS FILE MAY BE REPRODUCED, USED, COPIED,
#MODIFIED, PROPAGATED, OR DISTRIBUTED EXCEPT IN ACCORDANCE WITH THE SUBSCRIPTION
#AGREEMENT. UNAUTHORIZED USE OR DISTRIBUTION OF ALL OR ANY PART OF THIS FILE MAY VIOLATE
#COPYRIGHT, TRADEMARK, AND/OR OTHER LAWS AND IS SUBJECT TO CIVIL AS WELL AS CRIMINAL
#SANCTIONS.
#--------------------------------------------------#
#THIS FILE IS PROVIDED "AS-IS" AND ALL WARRANTIES ARE EXPRESSLY DISCLAIMED, WHETHER
#EXPRESS, ORAL, IMPLIED, STATUTORY OR OTHERWISE, INCLUDING ANY IMPLIED WARRANTY OF FITNESS
#FOR A PARTICULAR PURPOSE, MERCHANTABILITY, TITLE OR NON-INFRINGEMENT, AND ANY WARRANTIES
#ARISING BY VIRTUE OF CUSTOM OF TRADE OR COURSE OF DEALING.  FURTHER, ENVERUS, INC.
#AND ITS LICENSORS DO NOT REPRESENT OR WARRANT THAT THIS FILE WILL MEET USER'S
#REQUIREMENTS OR ARE SUITABLE FOR USER'S NEEDS OR THAT THE DATA OR RESULTS PROVIDED IN
#CONJUNCTION THEREWITH ARE CORRECT, ACCURATE, TIMELY OR RELIABLE. THESE DISCLAIMERS SHALL
#APPLY REGARDLESS OF ANY FAILURE OF ESSENTIAL PURPOSE OF ANY LIMITED REMEDY.  SOME
#JURISDICTIONS DO NOT ALLOW THE EXCLUSION OF CERTAIN WARRANTIES SO SOME OF THE ABOVE
#EXCLUSIONS MAY NOT APPLY. IN NO EVENT SHALL ENVERUS, INC. OR ANY OF ITS AFFILIATES
#BE LIABLE UNDER ANY LEGAL THEORY, WHETHER IN TORT (INCLUDING WITHOUT LIMITATION
#NEGLIGENCE), CONTRACT, STRICT LIABILITY, STATUTORY OR OTHERWISE, FOR ANY SPECIAL,
#INCIDENTAL, CONSEQUENTIAL, EXEMPLARY, PUNITIVE OR INDIRECT DAMAGE OF ANY KIND, INCLUDING
#WITHOUT LIMITATION LOSS OF REVENUE, PROFITS, GOODWILL, USE, AND/OR DATA OR THE COST OF
#PROCUREMENT OF SUBSTITUTE GOODS OR SERVICES, EVEN IF APPRISED OF THE POSSIBILITY OF SUCH
#DAMAGES IN ADVANCE.
#--------------------------------------------------#

~VERSION INFORMATION
VERS. 2.0 : CWLS LOG ASCII STANDARD - VERSION 2.0
WRAP.  NO : ONE LINE PER DEPTH STEP
~WELL INFORMATION
#MNEMONIC     .UNIT              VALUE :DESCRIPTION
STRT       .FT                101 :START DEPTH
STOP       .FT                5382 :STOP DEPTH
STEP       .FT                   0.500 :STEP
NULL       .                  -999.990 :NULL
UWI        .              42389007790000 :UNIQUE WELL ID
API        .              42389007790000 :API NUMBER
COMP       .         :COMPANY
WELL       .         1, :WELL
DATE       .                            :LOG DATE
~CURVE INFORMATION
#MNEMONIC     .UNIT      API CODE :CURVE DESCRIPTION
DEPTH       .FT                      :MEASURED DEPTH
DT.US/FT        UNKNOWN   :DT
GR.API        UNKNOWN   :GR
~A    DEPTH    DT    GR
# ...
 3097     67.666   3.389
 3097.5     67.371   3.913
 3098     67.076   4.734
 3098.5     67.069   5.555
 3099     67.481   6.376
 3099.5     67.894   7.197
 3100     68.307   7.945
 3100.5     68.261   6.607
 3101     68.14   5.269
 3101.5     68.019   5.113
 3102     67.898   6.059
 3102.5     67.777   7.004
 3103     67.656   7.949
 3103.5     67.535   6.345
 3104     67.414   4.603
 3104.5     67.449   2.862
 3105     67.531   1.941
 3105.5     67.613   2.093
 3106     67.695   2.245
 3106.5     67.777   2.397
 3107     67.859   2.717
 3107.5     67.941   3.321
 3108     68.023   3.924
 3108.5     68.105   4.528
 3109     68.187   5.131
 3109.5     68.269   5.734
 3110     68.166   5.671
 3110.5     67.955   5.417
 3111     67.743   5.162
 3111.5     67.532   4.907
 3112     67.32   4.652
 3112.5     67.109   4.398
 3113     67.084   4.143
 3113.5     67.204   3.888
 3114     67.324   3.634
 3114.5     67.444   3.379
 3115     67.565   3.124
 3115.5     67.685   2.869
 3116     67.805   2.615
 3116.5     68.208   2.929
 3117     68.618   3.608
 3117.5     68.786   4.286
 3118     68.654   4.964
 3118.5     68.522   5.071
 3119     68.39   4.687
 3119.5     68.259   4.303
 3120     68.127   3.919
 3120.5     66.849   3.535
 3121     65.415   3.151
 3121.5     65.203   3.682
 3122     67.085   4.239
 3122.5     68.452   4.796
 3123     68.753   5.354
 3123.5     69.054   5.911
 3124     69.354   6.468
 3124.5     69.41   6.744
 3125     68.805   6.518
 3125.5     68.2   6.293
 3126     67.761   6.067
 3126.5     67.841   5.842
 3127     67.922   5.616
 3127.5     68.002   5.391
 3128     68.082   5.165
 3128.5     68.162   4.94
 3129     68.242   4.714
 3129.5     68.322   4.489
 3130     68.337   4.263
 3130.5     68.317   4.038
 3131     68.296   3.812
 3131.5     68.276   3.587
 3132     68.256   3.361
 3132.5     68.235   3.262
 3133     68.215   3.865
 3133.5     68.195   4.469
 3134     68.174   5.072
 3134.5     68.316   5.676
 3135     68.597   6.279
 3135.5     68.878   6.883
 3136     69.036   7.45
 3136.5     69.072   6.845
 3137     69.108   6.241
 3137.5     69.144   5.636
 3138     69.18   5.031
 3138.5     69.147   4.925
 3139     69.026   5.357
 3139.5     68.906   5.789
 3140     68.785   6.221
 3140.5     68.664   5.415
 3141     68.614   4.506
 3141.5     68.682   4.565
 3142     68.749   4.727
 3142.5     68.817   4.89
 3143     68.884   5.052
 3143.5     68.952   5.214
 3144     69.02   5.377
 3144.5     69.087   5.539
 3145     68.434   5.447
 3145.5     65.922   4.731
 3146     63.41   4.016
 3146.5     58.843   3.301
 3147     49.253   2.586
 3147.5     39.664   1.871
 3148     50.789   1.918
 3148.5     63.524   2.244
 3149     68.813   2.571
 3149.5     68.749   2.897
 3150     68.685   3.223
 3150.5     68.621   3.549
 3151     68.557   3.855
 3151.5     68.492   4.029
 3152     68.428   4.203
 3152.5     68.364   4.377
 3153     57.913   4.55
 3153.5     64.88   4.724
 3154     68.022   4.898
 3154.5     68.322   5.072
 3155     68.471   5.246
 3155.5     68.492   5.42
 3156     68.514   5.594
 3156.5     68.536   5.56
 3157     68.557   5.293
 3157.5     68.579   5.026
 3158     68.508   4.758
 3158.5     68.434   4.491
 3159     68.36   4.223
 3159.5     68.286   3.956
 3160     68.213   3.689
 3160.5     68.139   3.421
 3161     68.065   3.885
 3161.5     67.991   5.682
 3162     67.918   7.478
 3162.5     67.844   7.312
 3163     67.77   6.64
 3163.5     67.784   5.969
 3164     67.964   5.297
 3164.5     68.144   4.874
 3165     68.325   5.215
 3165.5     68.505   5.555
 3166     68.686   5.896
 3166.5     68.866   6.237
 3167     68.963   6.577
 3167.5     68.809   6.918
 3168     68.655   7.259
 3168.5     68.501   7.604
 3169     68.347   7.982
 3169.5     68.193   8.36
 3170     68.211   8.738
 3170.5     68.308   9.036
 3171     68.404   7.934
 3171.5     68.5   6.831
 3172     68.596   5.729
 3172.5     68.692   4.626
 3173     68.788   3.524
 3173.5     68.854   3.153
 3174     68.612   3.499
 3174.5     68.37   3.845
 3175     68.128   4.191
 3175.5     67.903   3.865
 3176     68.004   3.504
 3176.5     68.106   3.143
 3177     68.208   2.781
 3177.5     68.309   2.42
 3178     68.411   2.855
 3178.5     68.513   3.392
 3179     68.539   3.929
 3179.5     68.479   4.466
 3180     68.418   4.696
 3180.5     68.357   4.243
 3181     68.297   3.791
 3181.5     68.236   3.338
 3182     68.175   2.886
 3182.5     68.159   2.434
 3183     68.214   1.981
 3183.5     68.27   1.529
 3184     68.325   1.316
 3184.5     68.38   1.987
 3185     68.436   2.657
 3185.5     68.491   3.327
 3186     68.396   3.998
 3186.5     68.262   4.024
 3187     68.129   3.68
 3187.5     67.996   3.336
 3188     67.863   3.159
 3188.5     68.023   4.66
 3189     68.283   6.162
 3189.5     68.544   7.592
 3190     68.591   6.481
 3190.5     68.548   5.369
 3191     68.505   4.258
 3191.5     68.461   3.147
 3192     68.418   2.036
 3192.5     68.374   0.924
 3193     68.331   1.272
 3193.5     68.336   1.661
 3194     68.37   2.05
 3194.5     68.404   2.439
 3195     68.438   2.828
 3195.5     68.472   3.217
 3196     68.506   3.606
 3196.5     68.54   3.662
 3197     68.575   3.664
 3197.5     68.609   3.666
 3198     68.643   3.667
 3198.5     68.677   7.376
 3199     68.634   6.637
 3199.5     68.59   5.899
 3200     68.545   5.16
 3200.5     68.501   4.421
 3201     68.457   3.682
 3201.5     68.455   2.943
 3202     68.51   2.205
 3202.5     68.565   1.466
 3203     68.621   1.713
 3203.5     68.676   2.417
 3204     68.731   3.121
 3204.5     68.787   3.824
 3205     68.708   4.528
 3205.5     68.603   5.232
 3206     68.498   5.038
 3206.5     68.393   4.191
 3207     68.288   3.392
 3207.5     68.183   3.449
 3208     68.078   3.505
 3208.5     68.038   3.562
 3209     68.188   3.618
 3209.5     68.338   3.675
 3210     68.488   3.731
 3210.5     68.577   3.787
 3211     68.415   3.844
 3211.5     68.254   3.9
 3212     68.092   3.957
 3212.5     67.931   4.013
 3213     67.992   3.938
 3213.5     68.172   3.847
 3214     68.353   3.755
 3214.5     68.533   3.664
 3215     68.713   3.573
 3215.5     68.735   3.482
 3216     68.641   3.51
 3216.5     68.547   3.813
 3217     68.454   4.116
 3217.5     68.36   4.419
 3218     68.266   4.723
 3218.5     68.173   4.917
 3219     68.079   4.738
 3219.5     67.985   4.558
 3220     67.892   4.378
 3220.5     67.798   4.198
 3221     67.802   4.152
 3221.5     67.922   4.822
 3222     68.042   5.493
 3222.5     68.162   6.164
 3223     68.283   6.834
 3223.5     68.403   6.943
 3224     68.523   6.642
 3224.5     68.643   6.342
 3225     68.483   6.041
 3225.5     68.275   5.741
 3226     68.068   5.44
 3226.5     67.975   5.485
 3227     68.125   5.874
 3227.5     68.275   6.263
 3228     68.425   6.652
 3228.5     68.504   7.042
 3229     68.383   7.431
 3229.5     68.262   7.82
 3230     68.14   7.664
 3230.5     68.019   6.656
 3231     67.898   5.647
 3231.5     67.815   4.639
 3232     67.886   3.63
 3232.5     67.956   3.982
 3233     68.027   4.586
 3233.5     68.097   5.19
 3234     68.168   5.794
 3234.5     68.239   5.858
 3235     68.309   5.767
 3235.5     68.38   5.676
 3236     68.37   5.584
 3236.5     68.304   5.493
 3237     68.238   5.402
 3237.5     68.171   5.397
 3238     68.105   5.77
 3238.5     68.045   6.142
 3239     68.205   6.515
 3239.5     68.365   6.888
 3240     68.525   7.26
 3240.5     68.685   7.633
 3241     68.744   7.501
 3241.5     68.683   7.008
 3242     68.623   6.515
 3242.5     68.562   6.022
 3243     68.501   5.528
 3243.5     68.44   5.039
 3244     68.38   4.799
 3244.5     68.319   4.559
 3245     68.325   4.319
 3245.5     68.445   4.079
 3246     68.565   3.839
 3246.5     68.685   3.599
 3247     68.805   3.359
 3247.5     68.925   3.504
 3248     68.97   4.194
 3248.5     68.826   4.884
 3249     68.683   5.574
 3249.5     68.539   6.264
 3250     68.395   6.953
 3250.5     68.251   7.643
 3251     68.107   7.869
 3251.5     67.963   6.985
