#--------------------------------------------------#
#-------------------ENVERUS, INC.------------------#
#------------------WWW.ENVERUS.COM-----------------#
#------------------COPYRIGHT 2020------------------#
#--------------------------------------------------#
#THIS FILE MAY BE USED ONLY IN ACCORDANCE WITH A CURRENT SUBSCRIPTION AGREEMENT BETWEEN
#THE USER AND ENVERUS, INC. NO PART OF THIS FILE MAY BE REPRODUCED, USED, COPIED,
#MODIFIED, PROPAGATED, OR DISTRIBUTED EXCEPT IN ACCORDANCE WITH THE SUBSCRIPTION
#AGREEMENT. UNAUTHORIZED USE OR DISTRIBUTION OF ALL OR ANY PART OF THIS FILE MAY VIOLATE
#COPYRIGHT, TRADEMARK, AND/OR OTHER LAWS AND IS SUBJECT TO CIVIL AS WELL AS CRIMINAL
#SANCTIONS.
#--------------------------------------------------#
#THIS FILE IS PROVIDED "AS-IS" AND ALL WARRANTIES ARE EXPRESSLY DISCLAIMED, WHETHER
#EXPRESS, ORAL, IMPLIED, STATUTORY OR OTHERWISE, INCLUDING ANY IMPLIED WARRANTY OF FITNESS
#FOR A PARTICULAR PURPOSE, MERCHANTABILITY, TITLE OR NON-INFRINGEMENT, AND ANY WARRANTIES
#ARISING BY VIRTUE OF CUSTOM OF TRADE OR COURSE OF DEALING.  FURTHER, ENVERUS, INC.
#AND ITS LICENSORS DO NOT REPRESENT OR WARRANT THAT THIS FILE WILL MEET USER'S
#REQUIREMENTS OR ARE SUITABLE FOR USER'S NEEDS OR THAT THE DATA OR RESULTS PROVIDED IN
#CONJUNCTION THEREWITH ARE CORRECT, ACCURATE, TIMELY OR RELIABLE. THESE DISCLAIMERS SHALL
#APPLY REGARDLESS OF ANY FAILURE OF ESSENTIAL PURPOSE OF ANY LIMITED REMEDY.  SOME
#JURISDICTIONS DO NOT ALLOW THE EXCLUSION OF CERTAIN WARRANTIES SO SOME OF THE ABOVE
#EXCLUSIONS MAY NOT APPLY. IN NO EVENT SHALL ENVERUS, INC. OR ANY OF ITS AFFILIATES
#BE LIABLE UNDER ANY LEGAL THEORY, WHETHER IN TORT (INCLUDING WITHOUT LIMITATION
#NEGLIGENCE), CONTRACT, STRICT LIABILITY, STATUTORY OR OTHERWISE, FOR ANY SPECIAL,
#INCIDENTAL, CONSEQUENTIAL, EXEMPLARY, PUNITIVE OR INDIRECT DAMAGE OF ANY KIND, INCLUDING
#WITHOUT LIMITATION LOSS OF REVENUE, PROFITS, GOODWILL, USE, AND/OR DATA OR THE COST OF
#PROCUREMENT OF SUBSTITUTE GOODS OR SERVICES, EVEN IF APPRISED OF THE POSSIBILITY OF SUCH
#DAMAGES IN ADVANCE.
#--------------------------------------------------#

~VERSION INFORMATION
VERS. 2.0 : CWLS LOG ASCII STANDARD - VERSION 2.0
WRAP.  NO : ONE LINE PER DEPTH STEP
~WELL INFORMATION
#MNEMONIC     .UNIT              VALUE :DESCRIPTION
STRT       .FT                101 :START DEPTH
STOP       .FT                5382 :STOP DEPTH
STEP       .FT                   0.500 :STEP
NULL       .                  -999.990 :NULL
UWI        .              42389007790000 :UNIQUE WELL ID
API        .              42389007790000 :API NUMBER
COMP       .         :COMPANY
WELL       .         1, :WELL
DATE       .                            :LOG DATE
~CURVE INFORMATION
#MNEMONIC     .UNIT      API CODE :CURVE DESCRIPTION
DEPTH       .FT                      :MEASURED DEPTH
DT.US/FT        UNKNOWN   :DT
GR.API        UNKNOWN   :GR
~A    DEPTH    DT    GR
# ...
 388.5     -999.990   58.824
 389     -999.990   60.257
 389.5     -999.990   60.107
 390     -999.990   58.646
 390.5     -999.990   57.185
 391     -999.990   55.723
 391.5     -999.990   54.262
 392     -999.990   52.801
 392.5     -999.990   51.34
 393     -999.990   51.677
 393.5     -999.990   53.861
 394     -999.990   56.045
 394.5     -999.990   58.228
 395     -999.990   57.454
 395.5     -999.990   56.313
 396     -999.990   55.172
 396.5     -999.990   54.031
 397     -999.990   52.89
 397.5     -999.990   52.791
 398     -999.990   52.889
 398.5     -999.990   52.987
 399     -999.990   53.085
 399.5     -999.990   53.182
 400     -999.990   53.28
 400.5     -999.990   52.378
 401     -999.990   51.121
 401.5     -999.990   49.865
 402     -999.990   48.608
 402.5     -999.990   47.351
 403     -999.990   46.575
 403.5     -999.990   47.855
 404     -999.990   49.135
 404.5     -999.990   49.893
 405     -999.990   46.682
 405.5     -999.990   43.471
 406     -999.990   40.259
 406.5     -999.990   40.342
 407     -999.990   42.401
 407.5     -999.990   44.46
 408     -999.990   46.519
 408.5     -999.990   48.331
 409     -999.990   49.904
 409.5     -999.990   51.477
 410     -999.990   51.593
 410.5     -999.990   49.785
 411     -999.990   47.977
 411.5     -999.990   46.168
 412     -999.990   44.36
 412.5     -999.990   42.552
 413     -999.990   42.176
 413.5     -999.990   43.983
 414     -999.990   45.79
 414.5     -999.990   47.597
 415     -999.990   49.404
 415.5     -999.990   51.211
 416     -999.990   53.018
 416.5     -999.990   54.825
 417     -999.990   54.342
 417.5     -999.990   52.837
 418     -999.990   51.333
 418.5     -999.990   49.829
 419     -999.990   49.763
 419.5     -999.990   50.435
 420     -999.990   51.106
 420.5     -999.990   51.778
 421     -999.990   52.45
 421.5     -999.990   53.121
 422     -999.990   53.793
 422.5     -999.990   54.467
 423     -999.990   55.453
 423.5     -999.990   56.439
 424     -999.990   57.425
 424.5     -999.990   58.412
 425     -999.990   57.757
 425.5     -999.990   54.724
 426     -999.990   51.691
 426.5     -999.990   49.137
 427     -999.990   46.63
 427.5     -999.990   44.124
 428     -999.990   42.845
 428.5     -999.990   43.372
 429     -999.990   43.899
 429.5     -999.990   44.426
 430     -999.990   44.952
 430.5     -999.990   42.065
 431     -999.990   38.411
 431.5     -999.990   34.757
 432     -999.990   35.957
 432.5     -999.990   38.14
 433     -999.990   40.324
 433.5     -999.990   41.738
 434     -999.990   40.536
 434.5     -999.990   39.334
 435     -999.990   38.133
 435.5     -999.990   39.265
 436     -999.990   41.423
 436.5     -999.990   43.58
 437     -999.990   44.201
 437.5     -999.990   43.832
 438     -999.990   43.464
 438.5     -999.990   43.095
 439     -999.990   42.726
 439.5     -999.990   42.357
 440     -999.990   42.005
 440.5     -999.990   42.745
 441     -999.990   43.486
 441.5     -999.990   44.227
 442     -999.990   44.967
 442.5     -999.990   45.708
 443     -999.990   46.448
 443.5     -999.990   47.189
 444     -999.990   47.929
 444.5     -999.990   47.375
 445     -999.990   46.591
 445.5     -999.990   45.806
 446     -999.990   45.022
 446.5     -999.990   44.238
 447     -999.990   43.453
 447.5     -999.990   43.312
 448     -999.990   44.885
 448.5     -999.990   46.459
 449     -999.990   48.033
 449.5     -999.990   49.607
 450     -999.990   51.181
 450.5     -999.990   52.426
 451     -999.990   51.224
 451.5     -999.990   50.196
 452     -999.990   50.735
 452.5     -999.990   51.274
 453     -999.990   51.813
 453.5     -999.990   52.352
 454     -999.990   52.89
 454.5     -999.990   52.349
 455     -999.990   50.693
 455.5     -999.990   50.226
 456     -999.990   51.056
 456.5     -999.990   51.885
 457     -999.990   52.714
 457.5     -999.990   53.544
 458     -999.990   54.373
 458.5     -999.990   55.203
 459     -999.990   56.032
 459.5     -999.990   53.861
 460     -999.990   51.032
 460.5     -999.990   48.204
 461     -999.990   48.182
 461.5     -999.990   48.774
 462     -999.990   49.367
 462.5     -999.990   49.248
 463     -999.990   48.906
 463.5     -999.990   48.563
 464     -999.990   48.22
 464.5     -999.990   47.878
 465     -999.990   47.535
 465.5     -999.990   47.193
 466     -999.990   46.85
 466.5     -999.990   46.508
 467     -999.990   46.165
 467.5     -999.990   45.984
 468     -999.990   47.118
 468.5     -999.990   48.252
 469     -999.990   49.386
 469.5     -999.990   50.52
 470     -999.990   51.654
 470.5     -999.990   52.788
 471     -999.990   49.668
 471.5     -999.990   48.323
 472     -999.990   49.064
 472.5     -999.990   49.805
 473     -999.990   50.545
 473.5     -999.990   50.435
 474     -999.990   49.013
 474.5     -999.990   47.591
 475     -999.990   46.169
 475.5     -999.990   44.748
 476     -999.990   43.326
 476.5     -999.990   43.928
 477     -999.990   44.89
 477.5     -999.990   45.853
 478     -999.990   46.815
 478.5     -999.990   44.499
 479     -999.990   41.158
 479.5     -999.990   37.817
 480     -999.990   39.787
 480.5     -999.990   43.356
 481     -999.990   46.925
 481.5     -999.990   50.493
 482     -999.990   53.447
 482.5     -999.990   50.967
 483     -999.990   48.487
 483.5     -999.990   46.007
 484     -999.990   43.527
 484.5     -999.990   41.5
 485     -999.990   44.01
 485.5     -999.990   46.52
 486     -999.990   49.03
 486.5     -999.990   51.54
 487     -999.990   54.05
 487.5     -999.990   54.69
 488     -999.990   52.76
 488.5     -999.990   50.83
 489     -999.990   48.901
 489.5     -999.990   46.971
 490     -999.990   45.97
 490.5     -999.990   46.393
 491     -999.990   46.817
 491.5     -999.990   47.241
 492     -999.990   46.483
 492.5     -999.990   45.482
 493     -999.990   44.482
 493.5     -999.990   44.61
 494     -999.990   45.025
 494.5     -999.990   45.44
 495     -999.990   45.856
 495.5     -999.990   46.271
 496     -999.990   45.905
 496.5     -999.990   45.214
 497     -999.990   44.522
 497.5     -999.990   43.83
 498     -999.990   43.138
 498.5     -999.990   42.446
 499     -999.990   42.406
 499.5     -999.990   46.939
 500     -999.990   51.471
 500.5     -999.990   52.925
 501     -999.990   51.522
 501.5     -999.990   50.118
 502     -999.990   48.715
 502.5     -999.990   47.312
 503     -999.990   46.781
 503.5     -999.990   46.267
 504     -999.990   45.753
 504.5     -999.990   45.926
 505     -999.990   46.991
 505.5     -999.990   48.057
 506     -999.990   49.122
 506.5     -999.990   50.188
 507     -999.990   50.813
 507.5     -999.990   50.513
 508     -999.990   50.213
 508.5     -999.990   49.913
 509     -999.990   49.613
 509.5     -999.990   49.313
 510     -999.990   48.829
 510.5     -999.990   47.748
 511     -999.990   46.667
 511.5     -999.990   45.586
 512     -999.990   44.505
 512.5     -999.990   43.717
 513     -999.990   44.211
 513.5     -999.990   44.705
 514     -999.990   45.003
 514.5     -999.990   43.973
 515     -999.990   42.944
 515.5     -999.990   41.915
 516     -999.990   42.138
 516.5     -999.990   43.224
 517     -999.990   44.309
 517.5     -999.990   45.395
 518     -999.990   46.48
 518.5     -999.990   47.566
 519     -999.990   46.874
 519.5     -999.990   44.088
 520     -999.990   41.303
 520.5     -999.990   42.595
 521     -999.990   44.073
 521.5     -999.990   45.551
 522     -999.990   47.028
 522.5     -999.990   48.506
 523     -999.990   46.934
 523.5     -999.990   44.761
 524     -999.990   42.588
 524.5     -999.990   40.415
 525     -999.990   38.241
 525.5     -999.990   39.004
 526     -999.990   40.44
 526.5     -999.990   41.876
 527     -999.990   42.858
 527.5     -999.990   42.319
 528     -999.990   41.779
 528.5     -999.990   41.24
 529     -999.990   40.7
 529.5     -999.990   39.934
 530     -999.990   38.004
 530.5     -999.990   36.074
 531     -999.990   36.478
 531.5     -999.990   38.139
