###############################################
##         ENVERUS                           ##
##         Petrophysical Curves              ##
##         PERMIAN / DELAWARE                ##
##         Jan 21 2022                       ##
##         42-371-36857-00-00                ##
###############################################
## Copyright 2017-2022  ENVERUS.  All Rights Reserved. 
## Confidential - Property of ENVERUS, use governed by terms and 
## conditions found within the existing Information Services Subscription Agreement 
## (as may be amended, the “ISSA”) between Customer and ENVERUS. 
## 
~VERSION INFORMATION
# MNEM.UNIT                               DATA : DESCRIPTION OF MNEMONIC
#-----.-----     ----------------------------- : -----------------------------
VERS.                                     2.00 : CWLS LOG ASCII STANDARD - VERSION 2.00
WRAP.                                       NO : MULTIPLE LINES PER DEPTH STEP
VEND.                                  ENVERUS : VENDOR
TYPE.                     PETROPHYSICAL CURVES : ENVERUS PETROPHYSICAL CURVES - ACCESSIBLE THROUGH ENVERUS CORE(TM)
#___________________________________________________________________________________________________ 
~WELL INFORMATION 
# uyaQ8P8kQDJ9DXFS5hR1PxmExEOYaAUkY5f3/tnOS+scoPAUWgXA1zCIHGRbWCuSuUcwDzaESCjqjWQ81XhadA== 
# MNEM.UNIT                                              DATA : DESCRIPTION OF MNEMONIC 
#-----.-----                    ----------------------------- : ----------------------------- 
CNTY.                                                   PECOS : COUNTY 
STATE.                                                  TEXAS : STATE 
CNTRY.                                                    USA : COUNTRY 
API.                                             42-371-36857 : API (10 Digit) 
API_14.                                    42-371-36857-00-00 : API (14 Digits) 
API_14_std.                                 42-371-36857-0000 : API (14 Digits Standard) 
UWI.                                           42371368570000 : UNIQUE WELL ID
STRT.FT                                                7870.0 : START DEPTH
STOP.FT                                               16592.5 : STOP DEPTH
STEP.FT                                                   0.5 : STEP BETWEEN DEPTHS
NULL.                                                 -999.25 : NULL VALUE
COMP.                                             DIAMONDBACK : COMPANY 
WELL.                                         MOORE-GILMORE 1 : WELL NAME 
FLD.                                               WAHA  WEST : FIELD NAME
#___________________________________________________________________________________________________ 
~CURVE INFORMATION 
#    Zone Description
#          1 = Upper Avalon
#          2 = Middle Avalon
#          3 = Lower Avalon
#          4 = 1st Bone Spring
#          5 = 2nd Bone Spring
#          6 = 2nd Bone Spring Sand
#          7 = 3rd Bone Spring
#          8 = 3rd Bone Spring Sand
#          9 = Wolfcamp XY
#          10 = Wolfcamp A Upper
#          11 = Wolfcamp A Lower
#          12 = Wolfcamp B Upper
#          13 = Wolfcamp B Lower
#          14 = Wolfcamp C
#          15 = Wolfcamp D
#          16 = Pennsylvanian Shale
#          17 = Lower Pennsylvanian Shale
#          18 = Barnett
#          19 = Barnett Lower
#          20 = Mississippian Lime
#          21 = Woodford
#          22 = Base Woodford 
# MNEM.UNIT           : CURVE DESCRIPTION 
#-----.-----          : ----------------------------- 
 DEPT.FT               : MEASURED DEPTH 
 TVD_I.FT              : ENVERUS TRUE VERTICAL DEPTH 
 ZONE_I.               : ENVERUS DEFINED ZONE CODE 
 GR_N_I.API            : ENVERUS NORMALIZED GAMMA RAY LEVERAGED IN GEOLOGICAL MODELLING 
 RESD_I.OHMM           : ENVERUS DEEP RESISTIVITY LEVERAGED IN GEOLOGICAL MODELLING 
 DPHI_I.V/V            : ENVERUS INTERPRETED DENSITY POROSITY USING A 2.71 G/CC MATRIX DENSITY 
 PHIE_I.V/V            : ENVERUS INTERPRETED EFFECTIVE POROSITY 
 SW_I.V/V              : ENVERUS INTERPRETED WATER SATURATION USING MODIFIED SIMANDOUX EQUATION 
 TOC_I.WT%             : ENVERUS INTERPRETED TOTAL ORGANIC CARBON USING MULTI-LINEAR REGRESSION 
 VCLAY_I.V/V           : ENVERUS INTERPRETED CLAY VOLUMES USING MULTI-LINEAR REGRESSION 
 NVCLAY_I.V/V          : ENVERUS INTERPRETED NON CLAY VOLUMES 
 HCPV_I.V/V            : ENVERUS INTERPRETED HYDROCARBON PORE VOLUME 
 OOIP_I.MMBBL/SEC      : ENVERUS INTERPRETED ORIGINAL OIL IN PLACE 
 OGIP_I.BCF/SEC        : ENVERUS INTERPRETED ORIGINAL GAS IN PLACE 
 TEMP_I.DEGF           : ENVERUS INTERPRETED TEMPERATURE DERIVED FROM BOTTOM HOLE TEMPERATURES 
 #___________________________________________________________________________________________________ 
~A         DEPT          TVD_I         ZONE_I         GR_N_I         RESD_I         DPHI_I         PHIE_I           SW_I          TOC_I        VCLAY_I       NVCLAY_I         HCPV_I         OOIP_I         OGIP_I         TEMP_I
# ...
        10696.0      10696.000        -999.25         87.257        14.2160        0.05280        0.03780        0.25010        2.22640        0.28310        0.67910        0.01250        0.07940      620.19140        468.518
        10696.5      10696.500        -999.25         89.712        13.5930        0.07400        0.05280        0.35980        2.70350        0.28690        0.66040        0.02590        0.09450      738.41110        468.537
        10697.0      10697.000        -999.25         92.167        12.9700        0.07410        0.05180        0.35720        2.79090        0.30120        0.64710        0.02630        0.09310      727.77800        468.556
        10697.5      10697.500        -999.25         93.883        12.3470        0.07570        0.05270        0.37420        2.85770        0.30380        0.64350        0.02620        0.09230      721.44480        468.575
        10698.0      10698.001        -999.25         94.343        11.7240        0.07940        0.05480        0.38880        2.96010        0.30980        0.63540        0.02740        0.09370      732.43840        468.594
        10698.5      10698.501        -999.25         94.802        11.4890        0.08490        0.05810        0.39150        3.09800        0.31540        0.62650        0.02980        0.09900      773.56450        468.613
        10699.0      10699.000        -999.25         95.262        11.8510        0.08860        0.06020        0.37500        3.19960        0.32110        0.61880        0.03130        0.10520      822.05400        468.632
        10699.5      10699.500        -999.25         94.439        12.2130        0.09060        0.06230        0.37250        3.20120        0.31290        0.62490        0.03240        0.10930      854.72600        468.651
        10700.0      10700.000        -999.25         90.463        12.5740        0.09050        0.06310        0.37190        3.10760        0.30310        0.63380        0.03280        0.11080      866.55760        468.670
        10700.5      10700.500        -999.25         86.488        12.9360        0.09210        0.06520        0.37170        3.04360        0.29180        0.64300        0.03380        0.11460      896.16230        468.689
        10701.0      10701.000        -999.25         83.071        13.2980        0.09400        0.06770        0.37110        2.99290        0.28000        0.65230        0.03520        0.11910      931.10210        468.708
        10701.5      10701.500        -999.25         81.839        13.6940        0.09630        0.07060        0.36960        2.97530        0.26700        0.66240        0.03690        0.12450      973.41380        468.727
        10702.0      10701.999        -999.25         80.607        14.2930        0.09720        0.07140        0.35750        2.97190        0.26580        0.66280        0.03790        0.12830     1002.80810        468.746
        10702.5      10702.500        -999.25         79.375        14.8920        0.09340        0.06820        0.34690        2.89350        0.27000        0.66180        0.03560        0.12460      973.91770        468.765
        10703.0      10703.000        -999.25         86.812        15.4910        0.09130        0.06530        0.32510        3.00790        0.28490        0.64980        0.03380        0.12320      963.55730        468.784
        10703.5      10703.500        -999.25         90.456        16.0900        0.09800        0.07080        0.31780        3.17150        0.27700        0.65220        0.03840        0.13520     1056.74120        468.803
        10704.0      10704.000        -999.25         93.509        16.6890        0.10020        0.07340        0.31330        3.23570        0.26760        0.65900        0.04060        0.14100     1102.78760        468.822
        10704.5      10704.500        -999.25         93.250        17.0990        0.10150        0.07350        0.30140        3.28230        0.27540        0.65110        0.04290        0.14370     1123.38220        468.840
        10705.0      10705.000        -999.25         90.549        16.5900        0.10160        0.07290        0.30420        3.26520        0.28240        0.64470        0.04440        0.14190     1109.49430        468.859
        10705.5      10705.500        -999.25         87.849        16.0810        0.10100        0.07220        0.31040        3.22230        0.28530        0.64250        0.04530        0.13920     1088.89270        468.878
        10706.0      10706.000        -999.25         85.149        15.5720        0.09940        0.07120        0.32050        3.14570        0.28380        0.64500        0.04350        0.13530     1058.25850        468.897
        10706.5      10706.501        -999.25         82.851        15.0620        0.09720        0.06970        0.33140        3.06490        0.28290        0.64740        0.04120        0.13040     1019.40200        468.916
        10707.0      10707.001        -999.25         85.605        14.5530        0.09500        0.06760        0.33860        3.07550        0.28780        0.64460        0.03860        0.12510      978.69050        468.935
        10707.5      10707.500        -999.25         88.359        14.0440        0.09360        0.06610        0.34490        3.10790        0.29370        0.64020        0.03750        0.12120      947.82710        468.954
        10708.0      10708.000        -999.25         91.113        13.5340        0.09290        0.06500        0.35020        3.15830        0.30090        0.63420        0.03710        0.11810      923.64340        468.973
        10708.5      10708.499        -999.25         96.471        13.3070        0.09350        0.06460        0.34830        3.27610        0.30890        0.62650        0.03740        0.11770      920.82210        468.992
        10709.0      10709.000        -999.25        102.379        13.6940        0.09250        0.06370        0.33800        3.35560        0.31120        0.62510        0.03640        0.11790      922.43980        469.011
        10709.5      10709.500        -999.25        100.211        14.0820        0.09060        0.06290        0.33460        3.26670        0.30580        0.63130        0.03520        0.11710      916.19710        469.030
        10710.0      10710.000        -999.25         97.833        14.4690        0.08780        0.06170        0.33440        3.14400        0.29720        0.64100        0.03320        0.11490      899.07890        469.049
        10710.5      10710.500        -999.25         97.517        14.8560        0.08530        0.06050        0.33260        3.06590        0.29060        0.64890        0.03130        0.11300      883.96000        469.068
        10711.0      10711.000        -999.25        100.688        15.2430        0.08510        0.06090        0.33060        3.09460        0.28480        0.65430        0.03040        0.11400      892.01330        469.087
        10711.5      10711.500        -999.25         99.844        15.6310        0.08630        0.06260        0.33380        3.06930        0.27380        0.66360        0.03200        0.11680      913.29670        469.106
        10712.0      10712.000        -999.25         95.848        16.0180        0.08740        0.06490        0.34130        2.97440        0.25710        0.67800        0.03320        0.11960      935.56390        469.125
        10712.5      10712.500        -999.25         91.851        16.4050        0.08800        0.06550        0.33590        2.91760        0.25520        0.67920        0.03460        0.12180      952.70340        469.144
        10713.0      10713.001        -999.25         91.416        16.7930        0.08920        0.06620        0.32670        2.94400        0.25770        0.67610        0.03620        0.12480      976.17320        469.163
        10713.5      10713.501        -999.25         91.024        17.1800        0.09220        0.06830        0.31810        3.00110        0.25860        0.67310        0.03780        0.13030     1019.70840        469.182
