###############################################
##         ENVERUS                           ##
##         Petrophysical Curves              ##
##         PERMIAN / DELAWARE                ##
##         Jan 21 2022                       ##
##         42-389-10508-00-00                ##
###############################################
## Copyright 2017-2022  ENVERUS.  All Rights Reserved. 
## Confidential - Property of ENVERUS, use governed by terms and 
## conditions found within the existing Information Services Subscription Agreement 
## (as may be amended, the “ISSA”) between Customer and ENVERUS. 
## 
~VERSION INFORMATION
# MNEM.UNIT                               DATA : DESCRIPTION OF MNEMONIC
#-----.-----     ----------------------------- : -----------------------------
VERS.                                     2.00 : CWLS LOG ASCII STANDARD - VERSION 2.00
WRAP.                                       NO : MULTIPLE LINES PER DEPTH STEP
VEND.                                  ENVERUS : VENDOR
TYPE.                     PETROPHYSICAL CURVES : ENVERUS PETROPHYSICAL CURVES - ACCESSIBLE THROUGH ENVERUS CORE(TM)
#___________________________________________________________________________________________________ 
~WELL INFORMATION 
# uyaQ8P8kQDJ9DXFS5hR1PxmExEOYaAUkY5f3/tnOS+scoPAUWgXA1zCIHGRbWCuSuUcwDzaESCjqjWQ81XhadA== 
# MNEM.UNIT                                              DATA : DESCRIPTION OF MNEMONIC 
#-----.-----                    ----------------------------- : ----------------------------- 
CNTY.                                                  REEVES : COUNTY 
STATE.                                                  TEXAS : STATE 
CNTRY.                                                    USA : COUNTRY 
API.                                             42-389-10508 : API (10 Digit) 
API_14.                                    42-389-10508-00-00 : API (14 Digits) 
API_14_std.                                 42-389-10508-0000 : API (14 Digits Standard) 
UWI.                                           42389105080000 : UNIQUE WELL ID
STRT.FT                                               11776.0 : START DEPTH
STOP.FT                                               33299.5 : STOP DEPTH
STEP.FT                                                   0.5 : STEP BETWEEN DEPTHS
NULL.                                                 -999.25 : NULL VALUE
COMP.                                                  SABINE : COMPANY 
WELL.                                                       1 : WELL NAME 
FLD.                                         ROJO CABALLOS W. : FIELD NAME
#___________________________________________________________________________________________________ 
~CURVE INFORMATION 
#    Zone Description
#          1 = Upper Avalon
#          2 = Middle Avalon
#          3 = Lower Avalon
#          4 = 1st Bone Spring
#          5 = 2nd Bone Spring
#          6 = 2nd Bone Spring Sand
#          7 = 3rd Bone Spring
#          8 = 3rd Bone Spring Sand
#          9 = Wolfcamp XY
#          10 = Wolfcamp A Upper
#          11 = Wolfcamp A Lower
#          12 = Wolfcamp B Upper
#          13 = Wolfcamp B Lower
#          14 = Wolfcamp C
#          15 = Wolfcamp D
#          16 = Pennsylvanian Shale
#          17 = Lower Pennsylvanian Shale
#          18 = Barnett
#          19 = Barnett Lower
#          20 = Mississippian Lime
#          21 = Woodford
#          22 = Base Woodford 
# MNEM.UNIT           : CURVE DESCRIPTION 
#-----.-----          : ----------------------------- 
 DEPT.FT               : MEASURED DEPTH 
 TVD_I.FT              : ENVERUS TRUE VERTICAL DEPTH 
 ZONE_I.               : ENVERUS DEFINED ZONE CODE 
 GR_N_I.API            : ENVERUS NORMALIZED GAMMA RAY LEVERAGED IN GEOLOGICAL MODELLING 
 TEMP_I.DEGF           : ENVERUS INTERPRETED TEMPERATURE DERIVED FROM BOTTOM HOLE TEMPERATURES 
 #___________________________________________________________________________________________________ 
~A         DEPT          TVD_I         ZONE_I         GR_N_I         TEMP_I
# ...
        30379.0      30379.002          22.00         16.638        268.767
        30379.5      30379.502          22.00         16.811        268.772
        30380.0      30380.002          22.00         16.783        268.778
        30380.5      30380.502          22.00         16.754        268.783
        30381.0      30381.002          22.00         16.726        268.789
        30381.5      30381.502          22.00         16.697        268.794
        30382.0      30382.000          22.00         16.669        268.800
        30382.5      30382.500          22.00         16.640        268.805
        30383.0      30383.000          22.00         16.612        268.811
        30383.5      30383.498          22.00         16.584        268.816
        30384.0      30383.998          22.00         16.713        268.822
        30384.5      30384.498          22.00         17.088        268.827
        30385.0      30384.998          22.00         17.462        268.833
        30385.5      30385.498          22.00         17.837        268.838
        30386.0      30385.998          22.00         18.211        268.844
        30386.5      30386.502          22.00         18.586        268.850
        30387.0      30387.000          22.00         18.960        268.855
        30387.5      30387.500          22.00         19.215        268.861
        30388.0      30388.000          22.00         19.339        268.866
        30388.5      30388.500          22.00         19.463        268.872
        30389.0      30389.000          22.00         19.465        268.877
        30389.5      30389.500          22.00         18.700        268.883
        30390.0      30390.000          22.00         17.936        268.888
        30390.5      30390.500          22.00         17.171        268.894
        30391.0      30391.000          22.00         16.406        268.899
        30391.5      30391.500          22.00         16.369        268.905
        30392.0      30392.000          22.00         16.414        268.910
        30392.5      30392.500          22.00         16.459        268.916
        30393.0      30393.000          22.00         16.504        268.921
        30393.5      30393.500          22.00         16.549        268.927
        30394.0      30394.000          22.00         16.594        268.933
        30394.5      30394.500          22.00         16.543        268.938
        30395.0      30395.002          22.00         16.405        268.944
        30395.5      30395.502          22.00         16.266        268.949
        30396.0      30396.002          22.00         16.128        268.955
        30396.5      30396.502          22.00         15.989        268.960
        30397.0      30397.002          22.00         15.850        268.966
        30397.5      30397.502          22.00         16.063        268.971
        30398.0      30398.000          22.00         16.394        268.977
        30398.5      30398.500          22.00         16.724        268.982
        30399.0      30399.000          22.00         17.055        268.988
        30399.5      30399.498          22.00         17.386        268.993
        30400.0      30399.998          22.00         17.370        268.999
        30400.5      30400.498          22.00         17.265        269.004
        30401.0      30400.998          22.00         17.161        269.010
        30401.5      30401.498          22.00         17.057        269.015
        30402.0      30401.998          22.00         16.952        269.021
        30402.5      30402.498          22.00         16.993        269.027
        30403.0      30402.998          22.00         17.092        269.032
        30403.5      30403.498          22.00         17.190        269.038
        30404.0      30404.002          22.00         17.289        269.043
        30404.5      30404.502          22.00         17.388        269.049
        30405.0      30405.000          22.00         17.486        269.054
        30405.5      30405.500          22.00         17.585        269.060
        30406.0      30406.000          22.00         18.046        269.065
        30406.5      30406.500          22.00         18.675        269.071
        30407.0      30407.000          22.00         19.303        269.076
        30407.5      30407.500          22.00         19.525        269.082
        30408.0      30408.000          22.00         19.231        269.087
        30408.5      30408.500          22.00         18.937        269.093
        30409.0      30409.000          22.00         18.399        269.098
        30409.5      30409.500          22.00         17.757        269.104
        30410.0      30410.000          22.00         17.115        269.110
        30410.5      30410.500          22.00         16.473        269.115
        30411.0      30411.000          22.00         15.831        269.121
        30411.5      30411.500          22.00         19.182        269.126
        30412.0      30412.000          22.00         18.122        269.132
        30412.5      30412.502          22.00         16.925        269.137
        30413.0      30413.002          22.00         15.729        269.143
        30413.5      30413.502          22.00         14.533        269.148
        30414.0      30414.002          22.00         13.336        269.154
        30414.5      30414.500          22.00         12.140        269.159
        30415.0      30415.000          22.00         10.944        269.165
        30415.5      30415.500          22.00          9.747        269.170
        30416.0      30416.000          22.00          8.551        269.176
        30416.5      30416.500          22.00          8.502        269.181
        30417.0      30417.000          22.00          9.286        269.187
        30417.5      30417.500          22.00         11.454        269.192
        30418.0      30418.000          22.00         16.478        269.198
        30418.5      30418.498          22.00         21.502        269.204
        30419.0      30418.998          22.00         22.581        269.209
        30419.5      30419.498          22.00         22.254        269.215
        30420.0      30419.998          22.00         20.791        269.220
        30420.5      30420.498          22.00         18.787        269.226
        30421.0      30420.998          22.00         16.782        269.231
        30421.5      30421.502          22.00         15.113        269.237
        30422.0      30422.002          22.00         14.533        269.242
        30422.5      30422.502          22.00         14.886        269.248
        30423.0      30423.002          22.00         15.417        269.253
        30423.5      30423.500          22.00         15.947        269.259
        30424.0      30424.000          22.00         16.345        269.264
        30424.5      30424.500          22.00         16.836        269.270
        30425.0      30425.000          22.00         17.555        269.275
        30425.5      30425.500          22.00         18.958        269.281
        30426.0      30426.000          22.00         19.463        269.287
        30426.5      30426.500          22.00         19.836        269.292
        30427.0      30427.000          22.00         20.208        269.298
        30427.5      30427.500          22.00         20.062        269.303
        30428.0      30428.000          22.00         19.212        269.309
        30428.5      30428.500          22.00         18.362        269.314
        30429.0      30428.998          22.00         17.512        269.320
        30429.5      30429.498          22.00         16.661        269.325
        30430.0      30430.000          22.00         16.546        269.331
        30430.5      30430.500          22.00         16.595        269.336
        30431.0      30431.000          22.00         16.645        269.342
        30431.5      30431.500          22.00         16.695        269.347
