###############################################
##         ENVERUS                           ##
##         ESS - Open Hole                   ##
##         PERMIAN / DELAWARE                ##
##         Nov 04 2023  V4.0                 ##
##         42-389-10116-00-00                ##
###############################################
## Copyright 2017-2023  ENVERUS.  All Rights Reserved. 
## Confidential - Property of ENVERUS, use governed by terms and 
## conditions found within the existing Information Services Subscription Agreement 
## (as may be amended, the “ISSA”) between Customer and ENVERUS. 
## 
~VERSION INFORMATION
# MNEM.UNIT                               DATA : DESCRIPTION OF MNEMONIC
#-----.-----     ----------------------------- : -----------------------------
VERS.                                     2.00 : CWLS LOG ASCII STANDARD - VERSION 2.00
WRAP.                                       NO : MULTIPLE LINES PER DEPTH STEP
VEND.                                  ENVERUS : VENDOR
TYPE.                          ESS - OPEN HOLE : ENVERUS ESSENTIAL CURVES – ACCESSIBLE THROUGH ENVERUS PRISM(TM)
DOC.                                  31818149 : ENVERUS HEADER RAW DOCUMENT ID
#___________________________________________________________________________________________________ 
~WELL INFORMATION 
# kxSJJvG4Ro99GqojvmaAoFb8nmZsGWyMBdB6Op61yYkHZj6VRdx+Ef4kBXz5Syac/VH6awax3Ll89xsC2rvs8g== 
# MNEM.UNIT                                              DATA : DESCRIPTION OF MNEMONIC 
#-----.-----                    ----------------------------- : ----------------------------- 
CNTY.                                                  REEVES : COUNTY 
STATE.                                                  TEXAS : STATE 
CNTRY.                                                    USA : COUNTRY 
API.                                             42-389-10116 : API (10 Digit) 
API_14.                                    42-389-10116-00-00 : API (14 Digits) 
API_14_std.                                 42-389-10116-0000 : API (14 Digits Standard) 
UWI.                                           42389101160000 : UNIQUE WELL ID 
WELL.                                            WOODS -A-  1 : WELL NAME
STRT.FT                                                 107.0 : START DEPTH
STOP.FT                                                5258.0 : STOP DEPTH
STEP.FT                                                   0.5 : STEP BETWEEN DEPTHS
NULL.                                                 -999.25 : NULL VALUE
COMP.                              PHILLIPS PETROLEUM COMPANY : COMPANY
#___________________________________________________________________________________________________ 
~CURVE INFORMATION 
# MNEM.UNIT           : CURVE DESCRIPTION 
#-----.-----          : ----------------------------- 
 DEPT.FT               : MEASURED DEPTH 
 GR.API                : GAMMA RAY (GR) 
 DT.US/FT              : SONIC DELTA TRANSIT TIME (DT) 
 #___________________________________________________________________________________________________ 
~A         DEPT             GR             DT
# ...
          803.0         13.355       -999.250
          803.5         11.989       -999.250
          804.0         10.623       -999.250
          804.5         11.052       -999.250
          805.0         11.556       -999.250
          805.5         12.061       -999.250
          806.0         12.511       -999.250
          806.5         12.404       -999.250
          807.0         12.296       -999.250
          807.5         12.189       -999.250
          808.0         12.082       -999.250
          808.5         11.974       -999.250
          809.0         11.867       -999.250
          809.5         11.760       -999.250
          810.0         11.653       -999.250
          810.5         11.878       -999.250
          811.0         12.835       -999.250
          811.5         13.792       -999.250
          812.0         14.748       -999.250
          812.5         15.705       -999.250
          813.0         15.394       -999.250
          813.5         15.066       -999.250
          814.0         14.739       -999.250
          814.5         14.412       -999.250
          815.0         14.084       -999.250
          815.5         13.757       -999.250
          816.0         13.429       -999.250
          816.5         13.102       -999.250
          817.0         12.775       -999.250
          817.5         12.447       -999.250
          818.0         12.672       -999.250
          818.5         13.114       -999.250
          819.0         13.556       -999.250
          819.5         13.998       -999.250
          820.0         13.885       -999.250
          820.5         13.671       -999.250
          821.0         13.457       -999.250
          821.5         13.243       -999.250
          822.0         13.029       -999.250
          822.5         12.815       -999.250
          823.0         12.601       -999.250
          823.5         12.403       -999.250
          824.0         12.692       -999.250
          824.5         12.982       -999.250
          825.0         13.271       -999.250
          825.5         13.560       -999.250
          826.0         13.850       -999.250
          826.5         14.139       -999.250
          827.0         14.282       -999.250
          827.5         13.970       -999.250
          828.0         13.657       -999.250
          828.5         13.345       -999.250
          829.0         13.033       -999.250
          829.5         12.721       -999.250
          830.0         12.870       -999.250
          830.5         13.092       -999.250
          831.0         13.314       -999.250
          831.5         13.536       -999.250
          832.0         13.758       -999.250
          832.5         13.980       -999.250
          833.0         14.202       -999.250
          833.5         14.307       -999.250
          834.0         13.329       -999.250
          834.5         13.397       -999.250
          835.0         14.119       -999.250
          835.5         14.842       -999.250
          836.0         15.342       -999.250
          836.5         15.144       -999.250
          837.0         14.947       -999.250
          837.5         14.749       -999.250
          838.0         14.551       -999.250
          838.5         14.354       -999.250
          839.0         14.156       -999.250
          839.5         13.959       -999.250
          840.0         13.761       -999.250
          840.5         13.564       -999.250
          841.0         13.366       -999.250
          841.5         13.169       -999.250
          842.0         12.971       -999.250
          842.5         12.774       -999.250
          843.0         12.576       -999.250
          843.5         12.378       -999.250
          844.0         12.181       -999.250
          844.5         11.983       -999.250
          845.0         11.786       -999.250
          845.5         11.588       -999.250
          846.0         11.391       -999.250
          846.5         11.932       -999.250
          847.0         12.742       -999.250
          847.5         13.552       -999.250
          848.0         14.362       -999.250
          848.5         15.172       -999.250
          849.0         16.238       -999.250
          849.5         17.326       -999.250
          850.0         18.414       -999.250
          850.5         18.981       -999.250
          851.0         19.151       -999.250
          851.5         19.321       -999.250
          852.0         19.491       -999.250
          852.5         19.661       -999.250
          853.0         19.831       -999.250
          853.5         21.227       -999.250
          854.0         23.057       -999.250
          854.5         24.887       -999.250
          855.0         28.656       -999.250
          855.5         35.116       -999.250
          856.0         41.576       -999.250
          856.5         45.698       -999.250
          857.0         49.048       -999.250
          857.5         50.737       -999.250
          858.0         50.246       -999.250
          858.5         49.754       -999.250
          859.0         49.046       -999.250
          859.5         48.111       -999.250
          860.0         47.176       -999.250
          860.5         46.242       -999.250
          861.0         45.307       -999.250
          861.5         44.466       -999.250
          862.0         45.067       -999.250
          862.5         45.667       -999.250
          863.0         46.268       -999.250
          863.5         46.869       -999.250
          864.0         47.469       -999.250
          864.5         48.070       -999.250
          865.0         48.670       -999.250
          865.5         48.507       -999.250
          866.0         46.875       -999.250
          866.5         45.244       -999.250
          867.0         43.612       -999.250
          867.5         41.981       -999.250
          868.0         40.349       -999.250
          868.5         39.276       -999.250
          869.0         38.297       -999.250
          869.5         37.319       -999.250
          870.0         37.336       -999.250
          870.5         38.868       -999.250
          871.0         40.401       -999.250
          871.5         41.808       -999.250
          872.0         41.410       -999.250
          872.5         41.013       -999.250
          873.0         40.616       -999.250
          873.5         40.219       -999.250
          874.0         39.821       -999.250
          874.5         39.424       -999.250
          875.0         39.027       -999.250
          875.5         38.630       -999.250
          876.0         38.233       -999.250
          876.5         37.835       -999.250
          877.0         38.313       -999.250
          877.5         39.036       -999.250
          878.0         39.759       -999.250
          878.5         39.923       -999.250
          879.0         39.281       -999.250
          879.5         38.640       -999.250
          880.0         37.998       -999.250
          880.5         37.357       -999.250
          881.0         36.716       -999.250
          881.5         36.088       -999.250
          882.0         36.171       -999.250
          882.5         36.253       -999.250
          883.0         36.336       -999.250
          883.5         36.418       -999.250
          884.0         36.501       -999.250
          884.5         36.583       -999.250
          885.0         36.666       -999.250
          885.5         36.748       -999.250
          886.0         36.831       -999.250
          886.5         37.455       -999.250
          887.0         38.229       -999.250
          887.5         39.004       -999.250
          888.0         39.779       -999.250
          888.5         40.553       -999.250
          889.0         41.328       -999.250
          889.5         42.103       -999.250
