###############################################
##         ENVERUS                           ##
##         Petrophysical Curves              ##
##         PERMIAN / DELAWARE                ##
##         Jan 21 2022                       ##
##         42-389-10491-00-00                ##
###############################################
## Copyright 2017-2022  ENVERUS.  All Rights Reserved. 
## Confidential - Property of ENVERUS, use governed by terms and 
## conditions found within the existing Information Services Subscription Agreement 
## (as may be amended, the “ISSA”) between Customer and ENVERUS. 
## 
~VERSION INFORMATION
# MNEM.UNIT                               DATA : DESCRIPTION OF MNEMONIC
#-----.-----     ----------------------------- : -----------------------------
VERS.                                     2.00 : CWLS LOG ASCII STANDARD - VERSION 2.00
WRAP.                                       NO : MULTIPLE LINES PER DEPTH STEP
VEND.                                  ENVERUS : VENDOR
TYPE.                     PETROPHYSICAL CURVES : ENVERUS PETROPHYSICAL CURVES - ACCESSIBLE THROUGH ENVERUS CORE(TM)
#___________________________________________________________________________________________________ 
~WELL INFORMATION 
# uyaQ8P8kQDJ9DXFS5hR1PxmExEOYaAUkY5f3/tnOS+scoPAUWgXA1zCIHGRbWCuSuUcwDzaESCjqjWQ81XhadA== 
# MNEM.UNIT                                              DATA : DESCRIPTION OF MNEMONIC 
#-----.-----                    ----------------------------- : ----------------------------- 
CNTY.                                                  REEVES : COUNTY 
STATE.                                                  TEXAS : STATE 
CNTRY.                                                    USA : COUNTRY 
API.                                             42-389-10491 : API (10 Digit) 
API_14.                                    42-389-10491-00-00 : API (14 Digits) 
API_14_std.                                 42-389-10491-0000 : API (14 Digits Standard) 
UWI.                                           42389104910000 : UNIQUE WELL ID
STRT.FT                                                 102.0 : START DEPTH
STOP.FT                                                9071.0 : STOP DEPTH
STEP.FT                                                   0.5 : STEP BETWEEN DEPTHS
NULL.                                                 -999.25 : NULL VALUE
COMP.                                FLAT CREEK RESOURCES LLC : COMPANY 
WELL.                                         REEVES-AW-FEE 1 : WELL NAME 
FLD.                                                     TORO : FIELD NAME
#___________________________________________________________________________________________________ 
~CURVE INFORMATION 
#    Zone Description
#          1 = Upper Avalon
#          2 = Middle Avalon
#          3 = Lower Avalon
#          4 = 1st Bone Spring
#          5 = 2nd Bone Spring
#          6 = 2nd Bone Spring Sand
#          7 = 3rd Bone Spring
#          8 = 3rd Bone Spring Sand
#          9 = Wolfcamp XY
#          10 = Wolfcamp A Upper
#          11 = Wolfcamp A Lower
#          12 = Wolfcamp B Upper
#          13 = Wolfcamp B Lower
#          14 = Wolfcamp C
#          15 = Wolfcamp D
#          16 = Pennsylvanian Shale
#          17 = Lower Pennsylvanian Shale
#          18 = Barnett
#          19 = Barnett Lower
#          20 = Mississippian Lime
#          21 = Woodford
#          22 = Base Woodford 
# MNEM.UNIT           : CURVE DESCRIPTION 
#-----.-----          : ----------------------------- 
 DEPT.FT               : MEASURED DEPTH 
 TVD_I.FT              : ENVERUS TRUE VERTICAL DEPTH 
 ZONE_I.               : ENVERUS DEFINED ZONE CODE 
 GR_N_I.API            : ENVERUS NORMALIZED GAMMA RAY LEVERAGED IN GEOLOGICAL MODELLING 
 TEMP_I.DEGF           : ENVERUS INTERPRETED TEMPERATURE DERIVED FROM BOTTOM HOLE TEMPERATURES 
 #___________________________________________________________________________________________________ 
~A         DEPT          TVD_I         ZONE_I         GR_N_I         TEMP_I
# ...
         1268.0       1268.000        -999.25         11.219         76.430
         1268.5       1268.500        -999.25         12.204         76.435
         1269.0       1269.000        -999.25         13.189         76.440
         1269.5       1269.500        -999.25         14.173         76.446
         1270.0       1270.000        -999.25         15.158         76.451
         1270.5       1270.500        -999.25         16.143         76.456
         1271.0       1271.000        -999.25         17.128         76.462
         1271.5       1271.500        -999.25         17.611         76.467
         1272.0       1272.000        -999.25         16.487         76.472
         1272.5       1272.500        -999.25         15.364         76.477
         1273.0       1273.000        -999.25         14.239         76.483
         1273.5       1273.500        -999.25         13.115         76.488
         1274.0       1274.000        -999.25         13.272         76.493
         1274.5       1274.500        -999.25         14.062         76.499
         1275.0       1275.000        -999.25         14.849         76.504
         1275.5       1275.500        -999.25         15.637         76.509
         1276.0       1276.000        -999.25         16.424         76.515
         1276.5       1276.500        -999.25         17.212         76.520
         1277.0       1277.000        -999.25         18.001         76.525
         1277.5       1277.500        -999.25         17.438         76.530
         1278.0       1278.000        -999.25         16.539         76.536
         1278.5       1278.500        -999.25         15.640         76.541
         1279.0       1279.000        -999.25         14.742         76.546
         1279.5       1279.500        -999.25         13.843         76.552
         1280.0       1280.000        -999.25         13.151         76.557
         1280.5       1280.500        -999.25         14.695         76.562
         1281.0       1281.000        -999.25         16.238         76.567
         1281.5       1281.500        -999.25         17.782         76.573
         1282.0       1282.000        -999.25         19.327         76.578
         1282.5       1282.500        -999.25         20.871         76.583
         1283.0       1283.000        -999.25         22.415         76.589
         1283.5       1283.500        -999.25         23.959         76.594
         1284.0       1284.000        -999.25         25.502         76.599
         1284.5       1284.500        -999.25         27.046         76.605
         1285.0       1285.000        -999.25         26.200         76.610
         1285.5       1285.500        -999.25         24.804         76.615
         1286.0       1286.000        -999.25         22.101         76.620
         1286.5       1286.500        -999.25         19.396         76.626
         1287.0       1287.000        -999.25         16.694         76.631
         1287.5       1287.500        -999.25         13.989         76.636
         1288.0       1288.000        -999.25         11.545         76.642
         1288.5       1288.500        -999.25         12.429         76.647
         1289.0       1289.000        -999.25         13.314         76.652
         1289.5       1289.500        -999.25         14.198         76.657
         1290.0       1290.000        -999.25         15.083         76.663
         1290.5       1290.500        -999.25         15.969         76.668
         1291.0       1291.000        -999.25         16.853         76.673
         1291.5       1291.500        -999.25         17.738         76.679
         1292.0       1292.000        -999.25         18.622         76.684
         1292.5       1292.500        -999.25         19.507         76.689
         1293.0       1293.000        -999.25         20.393         76.695
         1293.5       1293.500        -999.25         21.041         76.700
         1294.0       1294.000        -999.25         20.699         76.705
         1294.5       1294.500        -999.25         20.358         76.710
         1295.0       1295.000        -999.25         20.018         76.716
         1295.5       1295.500        -999.25         19.676         76.721
         1296.0       1296.000        -999.25         19.336         76.726
         1296.5       1296.500        -999.25         18.995         76.732
         1297.0       1297.000        -999.25         18.653         76.737
         1297.5       1297.500        -999.25         18.607         76.742
         1298.0       1298.000        -999.25         19.834         76.748
         1298.5       1298.500        -999.25         21.060         76.753
         1299.0       1299.000        -999.25         22.287         76.758
         1299.5       1299.500        -999.25         22.193         76.763
         1300.0       1300.000        -999.25         21.634         76.769
         1300.5       1300.500        -999.25         20.312         76.774
         1301.0       1301.000        -999.25         18.990         76.779
         1301.5       1301.500        -999.25         15.480         76.785
         1302.0       1302.000        -999.25         11.250         76.790
         1302.5       1302.500        -999.25          7.022         76.795
         1303.0       1303.000        -999.25          2.792         76.800
         1303.5       1303.500        -999.25          2.448         76.806
         1304.0       1304.000        -999.25         18.768         76.811
         1304.5       1304.500        -999.25         35.089         76.816
         1305.0       1305.000        -999.25         51.409         76.822
         1305.5       1305.500        -999.25         41.867         76.827
         1306.0       1306.000        -999.25         22.104         76.832
         1306.5       1306.500        -999.25         13.291         76.838
         1307.0       1307.000        -999.25         17.392         76.843
         1307.5       1307.500        -999.25         21.493         76.848
         1308.0       1308.000        -999.25         23.056         76.853
         1308.5       1308.500        -999.25         22.879         76.859
         1309.0       1309.000        -999.25         22.701         76.864
         1309.5       1309.500        -999.25         22.818         76.869
         1310.0       1310.000        -999.25         24.460         76.875
         1310.5       1310.500        -999.25         26.104         76.880
         1311.0       1311.000        -999.25         27.748         76.885
         1311.5       1311.500        -999.25         29.391         76.890
         1312.0       1312.000        -999.25         29.978         76.896
         1312.5       1312.500        -999.25         29.798         76.901
         1313.0       1313.000        -999.25         29.621         76.906
         1313.5       1313.500        -999.25         29.506         76.912
         1314.0       1314.000        -999.25         29.744         76.917
         1314.5       1314.500        -999.25         29.981         76.922
         1315.0       1315.000        -999.25         30.219         76.928
         1315.5       1315.500        -999.25         30.456         76.933
         1316.0       1316.000        -999.25         30.694         76.938
         1316.5       1316.500        -999.25         30.931         76.943
         1317.0       1317.000        -999.25         29.350         76.949
         1317.5       1317.500        -999.25         27.462         76.954
         1318.0       1318.000        -999.25         25.576         76.959
         1318.5       1318.500        -999.25         23.689         76.965
         1319.0       1319.000        -999.25         24.473         76.970
         1319.5       1319.500        -999.25         25.701         76.975
         1320.0       1320.000        -999.25         26.929         76.981
         1320.5       1320.500        -999.25         27.188         76.986
