#--------------------------------------------------#
#-------------------ENVERUS, INC.------------------#
#------------------WWW.ENVERUS.COM-----------------#
#------------------COPYRIGHT 2020------------------#
#--------------------------------------------------#
#THIS FILE MAY BE USED ONLY IN ACCORDANCE WITH A CURRENT SUBSCRIPTION AGREEMENT BETWEEN
#THE USER AND ENVERUS, INC. NO PART OF THIS FILE MAY BE REPRODUCED, USED, COPIED,
#MODIFIED, PROPAGATED, OR DISTRIBUTED EXCEPT IN ACCORDANCE WITH THE SUBSCRIPTION
#AGREEMENT. UNAUTHORIZED USE OR DISTRIBUTION OF ALL OR ANY PART OF THIS FILE MAY VIOLATE
#COPYRIGHT, TRADEMARK, AND/OR OTHER LAWS AND IS SUBJECT TO CIVIL AS WELL AS CRIMINAL
#SANCTIONS.
#--------------------------------------------------#
#THIS FILE IS PROVIDED "AS-IS" AND ALL WARRANTIES ARE EXPRESSLY DISCLAIMED, WHETHER
#EXPRESS, ORAL, IMPLIED, STATUTORY OR OTHERWISE, INCLUDING ANY IMPLIED WARRANTY OF FITNESS
#FOR A PARTICULAR PURPOSE, MERCHANTABILITY, TITLE OR NON-INFRINGEMENT, AND ANY WARRANTIES
#ARISING BY VIRTUE OF CUSTOM OF TRADE OR COURSE OF DEALING.  FURTHER, ENVERUS, INC.
#AND ITS LICENSORS DO NOT REPRESENT OR WARRANT THAT THIS FILE WILL MEET USER'S
#REQUIREMENTS OR ARE SUITABLE FOR USER'S NEEDS OR THAT THE DATA OR RESULTS PROVIDED IN
#CONJUNCTION THEREWITH ARE CORRECT, ACCURATE, TIMELY OR RELIABLE. THESE DISCLAIMERS SHALL
#APPLY REGARDLESS OF ANY FAILURE OF ESSENTIAL PURPOSE OF ANY LIMITED REMEDY.  SOME
#JURISDICTIONS DO NOT ALLOW THE EXCLUSION OF CERTAIN WARRANTIES SO SOME OF THE ABOVE
#EXCLUSIONS MAY NOT APPLY. IN NO EVENT SHALL ENVERUS, INC. OR ANY OF ITS AFFILIATES
#BE LIABLE UNDER ANY LEGAL THEORY, WHETHER IN TORT (INCLUDING WITHOUT LIMITATION
#NEGLIGENCE), CONTRACT, STRICT LIABILITY, STATUTORY OR OTHERWISE, FOR ANY SPECIAL,
#INCIDENTAL, CONSEQUENTIAL, EXEMPLARY, PUNITIVE OR INDIRECT DAMAGE OF ANY KIND, INCLUDING
#WITHOUT LIMITATION LOSS OF REVENUE, PROFITS, GOODWILL, USE, AND/OR DATA OR THE COST OF
#PROCUREMENT OF SUBSTITUTE GOODS OR SERVICES, EVEN IF APPRISED OF THE POSSIBILITY OF SUCH
#DAMAGES IN ADVANCE.
#--------------------------------------------------#

~VERSION INFORMATION
VERS. 2.0 : CWLS LOG ASCII STANDARD - VERSION 2.0
WRAP.  NO : ONE LINE PER DEPTH STEP
~WELL INFORMATION
#MNEMONIC     .UNIT              VALUE :DESCRIPTION
STRT       .FT                101 :START DEPTH
STOP       .FT                5382 :STOP DEPTH
STEP       .FT                   0.500 :STEP
NULL       .                  -999.990 :NULL
UWI        .              42389007790000 :UNIQUE WELL ID
API        .              42389007790000 :API NUMBER
COMP       .         :COMPANY
WELL       .         1, :WELL
DATE       .                            :LOG DATE
~CURVE INFORMATION
#MNEMONIC     .UNIT      API CODE :CURVE DESCRIPTION
DEPTH       .FT                      :MEASURED DEPTH
DT.US/FT        UNKNOWN   :DT
GR.API        UNKNOWN   :GR
~A    DEPTH    DT    GR
# ...
 2483.5     51.804   47.526
 2484     52.34   46.827
 2484.5     52.975   40.204
 2485     52.847   33.581
 2485.5     52.619   26.958
 2486     52.39   19.643
 2486.5     52.161   11.755
 2487     51.932   8.062
 2487.5     52.358   7.457
 2488     52.928   8.31
 2488.5     53.498   10.332
 2489     54.26   12.354
 2489.5     55.51   14.377
 2490     56.761   16.399
 2490.5     57.699   18.421
 2491     57.729   20.443
 2491.5     57.76   17.396
 2492     57.79   13.941
 2492.5     57.683   10.486
 2493     57.054   10.606
 2493.5     56.425   11.018
 2494     55.796   11.431
 2494.5     55.168   11.843
 2495     53.973   12.255
 2495.5     54.433   12.667
 2496     54.892   13.079
 2496.5     54.479   13.491
 2497     53.516   12.816
 2497.5     52.554   11.889
 2498     52.015   10.962
 2498.5     57.741   10.034
 2499     63.467   9.107
 2499.5     67.428   8.18
 2500     70.051   7.252
 2500.5     72.443   6.33
 2501     70.921   5.422
 2501.5     69.4   4.515
 2502     67.887   3.607
 2502.5     67.472   2.7
 2503     67.057   1.792
 2503.5     66.642   0.885
 2504     66.227   0.277
 2504.5     66.574   1.076
 2505     67.853   1.876
 2505.5     69.133   2.675
 2506     70.413   3.474
 2506.5     69.915   3.708
 2507     69.261   3.573
 2507.5     68.608   3.438
 2508     68.577   3.303
 2508.5     69.597   3.168
 2509     70.617   3.032
 2509.5     71.636   2.897
 2510     69.865   2.762
 2510.5     67.563   2.627
 2511     66.035   2.778
 2511.5     66.353   3.22
 2512     66.672   3.662
 2512.5     66.99   4.103
 2513     67.309   4.545
 2513.5     67.627   4.987
 2514     68.914   5.429
 2514.5     70.55   5.871
 2515     70.16   6.312
 2515.5     68.982   6.754
 2516     68.296   6.244
 2516.5     69.822   5.579
 2517     71.348   4.914
 2517.5     71.431   4.249
 2518     70.777   3.583
 2518.5     70.124   4.907
 2519     69.193   4.966
 2519.5     66.124   4.563
 2520     66.064   4.159
 2520.5     68.151   4.559
 2521     70.064   5.219
 2521.5     69.606   5.879
 2522     69.149   6.539
 2522.5     69.107   7.198
 2523     69.425   7.255
 2523.5     69.744   7.028
 2524     70.063   6.801
 2524.5     70.381   6.573
 2525     70.7   6.346
 2525.5     70.12   6.119
 2526     69.518   5.892
 2526.5     68.916   5.664
 2527     68.315   5.694
 2527.5     68.712   5.905
 2528     69.196   6.116
 2528.5     69.679   6.328
 2529     69.663   6.539
 2529.5     68.844   6.75
 2530     68.026   6.961
 2530.5     68.909   7.173
 2531     70.095   7.384
 2531.5     70.729   7.048
 2532     70.227   6.695
 2532.5     69.726   6.342
 2533     69.605   5.989
 2533.5     70.432   5.636
 2534     71.258   5.283
 2534.5     69.866   6.039
 2535     62.115   6.915
 2535.5     58.246   7.791
 2536     55.983   8.667
 2536.5     53.719   9.543
 2537     51.455   10.42
 2537.5     52.198   10.941
 2538     54.656   10.623
 2538.5     55.45   10.304
 2539     55.246   9.985
 2539.5     55.042   9.667
 2540     54.838   9.348
 2540.5     54.634   9.03
 2541     54.431   8.711
 2541.5     54.18   8.392
 2542     52.948   8.074
 2542.5     51.739   8.206
 2543     52.061   8.544
 2543.5     52.383   8.881
 2544     52.705   9.218
 2544.5     52.712   9.556
 2545     52.712   9.893
 2545.5     52.712   10.23
 2546     52.712   10.567
 2546.5     52.431   10.053
 2547     52.13   8.909
 2547.5     51.829   7.764
 2548     51.528   6.62
 2548.5     51.227   5.538
 2549     50.925   6.026
 2549.5     50.624   6.513
 2550     51.634   7
 2550.5     52.484   7.488
 2551     52.527   7.975
 2551.5     52.57   8.463
 2552     52.613   8.95
 2552.5     52.655   9.438
 2553     52.698   8.999
 2553.5     52.741   8.481
 2554     52.784   7.962
 2554.5     52.827   7.872
 2555     53.091   8.472
 2555.5     53.436   9.072
 2556     53.781   9.672
 2556.5     53.978   10.271
 2557     53.557   10.871
 2557.5     53.135   9.97
 2558     52.714   8.69
 2558.5     52.84   7.41
 2559     56.354   6.131
 2559.5     60.132   5.327
 2560     63.91   5.841
 2560.5     66.436   6.355
 2561     68.241   6.869
 2561.5     70.047   10.982
 2562     71.852   10.153
 2562.5     73.22   8.941
 2563     70.824   7.729
 2563.5     65.726   6.517
 2564     61.885   6.292
 2564.5     60.778   6.591
 2565     59.684   6.891
 2565.5     60.591   7.191
 2566     61.498   7.491
 2566.5     62.405   7.79
 2567     67.451   7.833
 2567.5     69.973   7.682
 2568     69.679   7.53
 2568.5     69.384   7.378
 2569     69.09   7.06
 2569.5     68.796   6.59
 2570     69.556   6.119
 2570.5     69.921   5.649
 2571     69.593   5.178
 2571.5     69.265   5.664
 2572     68.937   6.178
 2572.5     68.609   6.692
 2573     68.281   6.766
 2573.5     67.954   6.228
 2574     67.626   5.69
 2574.5     67.298   5.152
 2575     67.203   4.614
 2575.5     67.664   4.818
 2576     68.125   5.131
 2576.5     68.587   5.444
 2577     69.048   5.756
 2577.5     69.509   6.069
 2578     69.938   6.382
 2578.5     70.356   6.695
 2579     70.773   7.008
 2579.5     71.191   7.321
 2580     71.608   7.634
 2580.5     71.663   7.947
 2581     70.051   7.813
 2581.5     68.44   5.991
 2582     66.829   4.612
 2582.5     66.627   5.028
 2583     67.292   5.443
 2583.5     67.957   5.859
 2584     68.622   6.274
 2584.5     69.364   6.69
 2585     70.162   7.105
 2585.5     70.878   6.836
 2586     70.207   6.117
 2586.5     69.537   5.398
 2587     68.866   4.679
 2587.5     68.843   3.96
 2588     69.447   3.241
 2588.5     70.052   2.522
 2589     70.656   1.803
 2589.5     69.912   1.936
 2590     69.13   2.835
 2590.5     68.349   3.735
 2591     69.72   4.634
 2591.5     70.425   5.12
 2592     69.978   5.119
 2592.5     69.531   5.118
 2593     69.084   5.117
 2593.5     69.237   5.116
 2594     69.479   5.115
 2594.5     69.721   5.114
 2595     69.732   5.234
 2595.5     69.285   5.561
 2596     68.838   5.888
 2596.5     68.391   6.215
 2597     68.662   6.543
 2597.5     69.128   6.87
 2598     69.595   6.609
 2598.5     69.911   6.193
 2599     69.778   5.777
 2599.5     69.646   5.361
 2600     69.514   4.945
 2600.5     69.381   4.529
 2601     69.317   4.112
 2601.5     69.545   3.696
 2602     69.773   3.882
 2602.5     70.001   4.322
 2603     70.23   4.762
 2603.5     70.158   5.202
 2604     69.917   5.642
 2604.5     69.676   6.082
 2605     69.435   6.522
 2605.5     69.24   6.885
 2606     69.547   6.482
 2606.5     69.854   6.078
 2607     70.162   5.675
 2607.5     70.469   5.271
 2608     70.777   5.225
 2608.5     70.641   5.482
 2609     70.1   5.739
 2609.5     69.558   5.996
 2610     69.016   5.498
 2610.5     68.475   4.993
 2611     68.234   4.489
 2611.5     68.355   3.984
 2612     68.475   3.48
 2612.5     68.596   2.975
 2613     68.717   3.682
 2613.5     68.838   4.481
 2614     68.959   5.281
 2614.5     69.08   6.081
 2615     69.2   6.881
 2615.5     69.321   7.681
 2616     69.374   6.937
 2616.5     69.294   5.876
 2617     69.214   4.815
 2617.5     69.231   3.754
 2618     69.472   2.693
 2618.5     69.714   1.632
 2619     69.831   1.597
 2619.5     69.61   1.85
 2620     69.39   2.102
 2620.5     69.26   2.355
 2621     69.432   2.607
 2621.5     69.605   2.86
 2622     69.777   3.113
 2622.5     69.95   3.365
 2623     70.122   3.618
 2623.5     70.295   3.87
 2624     70.401   4.123
 2624.5     70.136   4.375
 2625     69.871   4.628
 2625.5     69.813   4.881
 2626     69.883   5.133
 2626.5     69.952   5.386
 2627     70.021   5.638
 2627.5     70.09   5.891
 2628     70.159   6.143
 2628.5     70.228   5.999
 2629     70.137   5.48
 2629.5     69.908   4.961
 2630     69.679   4.442
 2630.5     69.45   3.923
 2631     69.222   3.404
 2631.5     69.274   2.885
 2632     69.636   2.717
 2632.5     69.76   2.994
 2633     69.595   3.27
 2633.5     69.431   3.547
 2634     69.267   3.824
 2634.5     69.103   4.101
 2635     68.939   4.378
 2635.5     69.041   4.035
 2636     69.178   3.581
 2636.5     69.315   3.127
 2637     69.452   2.672
 2637.5     69.589   2.96
