###############################################
##         ENVERUS                           ##
##         Petrophysical Curves              ##
##         PERMIAN / DELAWARE                ##
##         Jan 21 2022                       ##
##         42-389-10508-00-00                ##
###############################################
## Copyright 2017-2022  ENVERUS.  All Rights Reserved. 
## Confidential - Property of ENVERUS, use governed by terms and 
## conditions found within the existing Information Services Subscription Agreement 
## (as may be amended, the “ISSA”) between Customer and ENVERUS. 
## 
~VERSION INFORMATION
# MNEM.UNIT                               DATA : DESCRIPTION OF MNEMONIC
#-----.-----     ----------------------------- : -----------------------------
VERS.                                     2.00 : CWLS LOG ASCII STANDARD - VERSION 2.00
WRAP.                                       NO : MULTIPLE LINES PER DEPTH STEP
VEND.                                  ENVERUS : VENDOR
TYPE.                     PETROPHYSICAL CURVES : ENVERUS PETROPHYSICAL CURVES - ACCESSIBLE THROUGH ENVERUS CORE(TM)
#___________________________________________________________________________________________________ 
~WELL INFORMATION 
# uyaQ8P8kQDJ9DXFS5hR1PxmExEOYaAUkY5f3/tnOS+scoPAUWgXA1zCIHGRbWCuSuUcwDzaESCjqjWQ81XhadA== 
# MNEM.UNIT                                              DATA : DESCRIPTION OF MNEMONIC 
#-----.-----                    ----------------------------- : ----------------------------- 
CNTY.                                                  REEVES : COUNTY 
STATE.                                                  TEXAS : STATE 
CNTRY.                                                    USA : COUNTRY 
API.                                             42-389-10508 : API (10 Digit) 
API_14.                                    42-389-10508-00-00 : API (14 Digits) 
API_14_std.                                 42-389-10508-0000 : API (14 Digits Standard) 
UWI.                                           42389105080000 : UNIQUE WELL ID
STRT.FT                                               11776.0 : START DEPTH
STOP.FT                                               33299.5 : STOP DEPTH
STEP.FT                                                   0.5 : STEP BETWEEN DEPTHS
NULL.                                                 -999.25 : NULL VALUE
COMP.                                                  SABINE : COMPANY 
WELL.                                                       1 : WELL NAME 
FLD.                                         ROJO CABALLOS W. : FIELD NAME
#___________________________________________________________________________________________________ 
~CURVE INFORMATION 
#    Zone Description
#          1 = Upper Avalon
#          2 = Middle Avalon
#          3 = Lower Avalon
#          4 = 1st Bone Spring
#          5 = 2nd Bone Spring
#          6 = 2nd Bone Spring Sand
#          7 = 3rd Bone Spring
#          8 = 3rd Bone Spring Sand
#          9 = Wolfcamp XY
#          10 = Wolfcamp A Upper
#          11 = Wolfcamp A Lower
#          12 = Wolfcamp B Upper
#          13 = Wolfcamp B Lower
#          14 = Wolfcamp C
#          15 = Wolfcamp D
#          16 = Pennsylvanian Shale
#          17 = Lower Pennsylvanian Shale
#          18 = Barnett
#          19 = Barnett Lower
#          20 = Mississippian Lime
#          21 = Woodford
#          22 = Base Woodford 
# MNEM.UNIT           : CURVE DESCRIPTION 
#-----.-----          : ----------------------------- 
 DEPT.FT               : MEASURED DEPTH 
 TVD_I.FT              : ENVERUS TRUE VERTICAL DEPTH 
 ZONE_I.               : ENVERUS DEFINED ZONE CODE 
 GR_N_I.API            : ENVERUS NORMALIZED GAMMA RAY LEVERAGED IN GEOLOGICAL MODELLING 
 TEMP_I.DEGF           : ENVERUS INTERPRETED TEMPERATURE DERIVED FROM BOTTOM HOLE TEMPERATURES 
 #___________________________________________________________________________________________________ 
~A         DEPT          TVD_I         ZONE_I         GR_N_I         TEMP_I
        11776.0      11776.000        -999.25         19.580       -999.250
        11776.5      11776.501        -999.25         19.812       -999.250
        11777.0      11777.000        -999.25         20.044         62.978
        11777.5      11777.500        -999.25         20.275         62.983
        11778.0      11777.999        -999.25         20.507         62.989
        11778.5      11778.500        -999.25         20.136         62.995
        11779.0      11779.000        -999.25         19.491         63.000
        11779.5      11779.500        -999.25         18.846         63.006
        11780.0      11780.000        -999.25         18.201         63.011
        11780.5      11780.500        -999.25         17.440         63.017
        11781.0      11781.000        -999.25         16.548         63.022
        11781.5      11781.500        -999.25         15.492         63.028
        11782.0      11782.000        -999.25         13.521         63.033
        11782.5      11782.500        -999.25         11.690         63.039
        11783.0      11783.001        -999.25          9.859         63.044
        11783.5      11783.500        -999.25          8.362         63.050
        11784.0      11784.000        -999.25          8.386         63.055
        11784.5      11784.500        -999.25          8.411         63.061
        11785.0      11785.001        -999.25          8.435         63.066
        11785.5      11785.500        -999.25          8.460         63.072
        11786.0      11786.000        -999.25          8.870         63.077
        11786.5      11786.499        -999.25          9.336         63.083
        11787.0      11786.999        -999.25          9.801         63.089
        11787.5      11787.500        -999.25         10.267         63.094
        11788.0      11788.000        -999.25         10.789         63.100
        11788.5      11788.500        -999.25         11.310         63.105
        11789.0      11789.000          15.00         11.832         63.111
        11789.5      11789.500          15.00         12.353         63.116
        11790.0      11790.000          15.00         12.875         63.122
        11790.5      11790.500          15.00         13.252         63.127
        11791.0      11791.000          15.00         13.395         63.133
        11791.5      11791.501          15.00         13.538         63.138
        11792.0      11792.000          15.00         13.657         63.144
        11792.5      11792.500          15.00         13.041         63.149
        11793.0      11792.999          15.00         12.426         63.155
        11793.5      11793.499          15.00         11.440         63.160
        11794.0      11794.000          15.00          9.985         63.166
        11794.5      11794.500          15.00          8.529         63.172
        11795.0      11795.000          15.00          8.038         63.177
        11795.5      11795.500          15.00          8.040         63.183
        11796.0      11796.000          15.00          8.043         63.188
        11796.5      11796.500          15.00          8.045         63.194
        11797.0      11797.000          15.00          7.690         63.199
        11797.5      11797.500          15.00          7.148         63.205
        11798.0      11798.001          15.00          6.695         63.210
        11798.5      11798.500          15.00          6.370         63.216
        11799.0      11799.000          15.00          6.044         63.221
        11799.5      11799.500          15.00          5.814         63.227
        11800.0      11800.000          15.00          5.878         63.232
        11800.5      11800.500          15.00          5.942         63.238
        11801.0      11801.000          15.00          6.080         63.243
        11801.5      11801.499          15.00          6.558         63.249
        11802.0      11801.999          15.00          7.036         63.254
        11802.5      11802.500          15.00          7.515         63.260
        11803.0      11803.000          15.00          7.291         63.266
        11803.5      11803.500          15.00          6.627         63.271
        11804.0      11804.000          15.00          5.963         63.277
        11804.5      11804.500          15.00          5.703         63.282
        11805.0      11805.000          15.00          6.148         63.288
        11805.5      11805.500          15.00          6.594         63.293
        11806.0      11806.000          15.00          7.004         63.299
        11806.5      11806.500          15.00          7.360         63.304
        11807.0      11807.001          15.00          7.716         63.310
        11807.5      11807.500          15.00          7.723         63.315
        11808.0      11808.000          15.00          7.725         63.321
        11808.5      11808.500          15.00          8.301         63.326
        11809.0      11809.000          15.00         10.952         63.332
        11809.5      11809.500          15.00         11.570         63.337
        11810.0      11810.000          15.00         12.048         63.343
        11810.5      11810.499          15.00         12.527         63.349
        11811.0      11811.000          15.00         13.005         63.354
        11811.5      11811.500          15.00         13.247         63.360
        11812.0      11812.000          15.00         13.422         63.365
        11812.5      11812.500          15.00         13.605         63.371
        11813.0      11813.000          15.00         13.991         63.376
        11813.5      11813.500          15.00         14.376         63.382
        11814.0      11814.000          15.00         14.761         63.387
        11814.5      11814.500          15.00         15.147         63.393
        11815.0      11815.000          15.00         15.532         63.398
        11815.5      11815.501          15.00         15.918         63.404
        11816.0      11816.001          15.00         16.303         63.409
        11816.5      11816.500          15.00         16.688         63.415
        11817.0      11817.000          15.00         17.074         63.420
        11817.5      11817.500          15.00         17.459         63.426
        11818.0      11818.000          15.00         17.845         63.431
        11818.5      11818.500          15.00         17.680         63.437
        11819.0      11819.000          15.00         17.498         63.443
        11819.5      11819.500          15.00         17.317         63.448
        11820.0      11820.000          15.00         17.135         63.454
        11820.5      11820.500          15.00         16.953         63.459
        11821.0      11821.000          15.00         17.040         63.465
        11821.5      11821.500          15.00         17.640         63.470
        11822.0      11822.001          15.00         18.239         63.476
        11822.5      11822.500          15.00         18.839         63.481
        11823.0      11823.000          15.00         19.439         63.487
        11823.5      11823.500          15.00         19.254         63.492
        11824.0      11824.000          15.00         19.000         63.498
        11824.5      11824.501          15.00         18.559         63.503
        11825.0      11825.000          15.00         18.118         63.509
        11825.5      11825.500          15.00         17.677         63.514
        11826.0      11825.999          15.00         17.354         63.520
        11826.5      11826.500          15.00         17.465         63.526
        11827.0      11827.000          15.00         17.576         63.531
        11827.5      11827.500          15.00         17.688         63.537
        11828.0      11828.000          15.00         17.799         63.542
        11828.5      11828.500          15.00         17.902         63.548
