###############################################
##         ENVERUS                           ##
##         Petrophysical Curves              ##
##         PERMIAN / DELAWARE                ##
##         Jan 21 2022                       ##
##         42-371-36857-00-00                ##
###############################################
## Copyright 2017-2022  ENVERUS.  All Rights Reserved. 
## Confidential - Property of ENVERUS, use governed by terms and 
## conditions found within the existing Information Services Subscription Agreement 
## (as may be amended, the “ISSA”) between Customer and ENVERUS. 
## 
~VERSION INFORMATION
# MNEM.UNIT                               DATA : DESCRIPTION OF MNEMONIC
#-----.-----     ----------------------------- : -----------------------------
VERS.                                     2.00 : CWLS LOG ASCII STANDARD - VERSION 2.00
WRAP.                                       NO : MULTIPLE LINES PER DEPTH STEP
VEND.                                  ENVERUS : VENDOR
TYPE.                     PETROPHYSICAL CURVES : ENVERUS PETROPHYSICAL CURVES - ACCESSIBLE THROUGH ENVERUS CORE(TM)
#___________________________________________________________________________________________________ 
~WELL INFORMATION 
# uyaQ8P8kQDJ9DXFS5hR1PxmExEOYaAUkY5f3/tnOS+scoPAUWgXA1zCIHGRbWCuSuUcwDzaESCjqjWQ81XhadA== 
# MNEM.UNIT                                              DATA : DESCRIPTION OF MNEMONIC 
#-----.-----                    ----------------------------- : ----------------------------- 
CNTY.                                                   PECOS : COUNTY 
STATE.                                                  TEXAS : STATE 
CNTRY.                                                    USA : COUNTRY 
API.                                             42-371-36857 : API (10 Digit) 
API_14.                                    42-371-36857-00-00 : API (14 Digits) 
API_14_std.                                 42-371-36857-0000 : API (14 Digits Standard) 
UWI.                                           42371368570000 : UNIQUE WELL ID
STRT.FT                                                7870.0 : START DEPTH
STOP.FT                                               16592.5 : STOP DEPTH
STEP.FT                                                   0.5 : STEP BETWEEN DEPTHS
NULL.                                                 -999.25 : NULL VALUE
COMP.                                             DIAMONDBACK : COMPANY 
WELL.                                         MOORE-GILMORE 1 : WELL NAME 
FLD.                                               WAHA  WEST : FIELD NAME
#___________________________________________________________________________________________________ 
~CURVE INFORMATION 
#    Zone Description
#          1 = Upper Avalon
#          2 = Middle Avalon
#          3 = Lower Avalon
#          4 = 1st Bone Spring
#          5 = 2nd Bone Spring
#          6 = 2nd Bone Spring Sand
#          7 = 3rd Bone Spring
#          8 = 3rd Bone Spring Sand
#          9 = Wolfcamp XY
#          10 = Wolfcamp A Upper
#          11 = Wolfcamp A Lower
#          12 = Wolfcamp B Upper
#          13 = Wolfcamp B Lower
#          14 = Wolfcamp C
#          15 = Wolfcamp D
#          16 = Pennsylvanian Shale
#          17 = Lower Pennsylvanian Shale
#          18 = Barnett
#          19 = Barnett Lower
#          20 = Mississippian Lime
#          21 = Woodford
#          22 = Base Woodford 
# MNEM.UNIT           : CURVE DESCRIPTION 
#-----.-----          : ----------------------------- 
 DEPT.FT               : MEASURED DEPTH 
 TVD_I.FT              : ENVERUS TRUE VERTICAL DEPTH 
 ZONE_I.               : ENVERUS DEFINED ZONE CODE 
 GR_N_I.API            : ENVERUS NORMALIZED GAMMA RAY LEVERAGED IN GEOLOGICAL MODELLING 
 RESD_I.OHMM           : ENVERUS DEEP RESISTIVITY LEVERAGED IN GEOLOGICAL MODELLING 
 DPHI_I.V/V            : ENVERUS INTERPRETED DENSITY POROSITY USING A 2.71 G/CC MATRIX DENSITY 
 PHIE_I.V/V            : ENVERUS INTERPRETED EFFECTIVE POROSITY 
 SW_I.V/V              : ENVERUS INTERPRETED WATER SATURATION USING MODIFIED SIMANDOUX EQUATION 
 TOC_I.WT%             : ENVERUS INTERPRETED TOTAL ORGANIC CARBON USING MULTI-LINEAR REGRESSION 
 VCLAY_I.V/V           : ENVERUS INTERPRETED CLAY VOLUMES USING MULTI-LINEAR REGRESSION 
 NVCLAY_I.V/V          : ENVERUS INTERPRETED NON CLAY VOLUMES 
 HCPV_I.V/V            : ENVERUS INTERPRETED HYDROCARBON PORE VOLUME 
 OOIP_I.MMBBL/SEC      : ENVERUS INTERPRETED ORIGINAL OIL IN PLACE 
 OGIP_I.BCF/SEC        : ENVERUS INTERPRETED ORIGINAL GAS IN PLACE 
 TEMP_I.DEGF           : ENVERUS INTERPRETED TEMPERATURE DERIVED FROM BOTTOM HOLE TEMPERATURES 
 #___________________________________________________________________________________________________ 
~A         DEPT          TVD_I         ZONE_I         GR_N_I         RESD_I         DPHI_I         PHIE_I           SW_I          TOC_I        VCLAY_I       NVCLAY_I         HCPV_I         OOIP_I         OGIP_I         TEMP_I
# ...
         8230.0       8230.000        -999.25         44.702      -999.2500        0.13870        0.11810        0.12500        2.90540        0.14860        0.73330        0.09150        0.48860     1900.03440        375.025
         8230.5       8230.501        -999.25         52.948      -999.2500        0.14650        0.11850        0.11680        3.33230        0.19130        0.69020        0.09390        0.49490     1924.48740        375.044
         8231.0       8231.000        -999.25         57.208      -999.2500        0.15420        0.12520        0.12380        3.53070        0.18820        0.68660        0.09720        0.51860     2016.75020        375.062
         8231.5       8231.500        -999.25         56.145      -999.2500        0.15930        0.13080        0.13320        3.58260        0.17890        0.69030        0.09970        0.53610     2085.00880        375.082
         8232.0       8231.999        -999.25         54.940      -999.2500        0.15010        0.12310        0.14640        3.38060        0.17970        0.69720        0.09090        0.49680     1932.27170        375.100
         8232.5       8232.500        -999.25         56.597      -999.2500        0.15490        0.12790        0.15560        3.47930        0.17410        0.69800        0.09240        0.51090     1986.91130        375.119
         8233.0       8233.000        -999.25         61.525      -999.2500        0.16210        0.13350        0.16220        3.70480        0.17640        0.69010        0.09730        0.52890     2057.08200        375.138
         8233.5       8233.500        -999.25         67.055      -999.2500        0.16960        0.13940        0.16870        3.94790        0.17800        0.68260        0.10100        0.54800     2131.29590        375.157
         8234.0       8234.000        -999.25         70.577      -999.2500        0.17160        0.13850        0.16960        4.09720        0.19320        0.66830        0.10140        0.54380     2115.06930        375.176
         8234.5       8234.500        -999.25         71.250      -999.2500        0.17200        0.13620        0.15620        4.16590        0.20790        0.65590        0.10310        0.54360     2114.54080        375.195
         8235.0       8235.000        -999.25         71.157      -999.2500        0.17870        0.14000        0.13150        4.33390        0.21660        0.64340        0.11140        0.57490     2236.57300        375.214
         8235.5       8235.500        -999.25         72.926      -999.2500        0.18490        0.14300        0.10800        4.52430        0.22620        0.63080        0.11890        0.60330     2347.14650        375.233
         8236.0       8236.000        -999.25         76.495      -999.2500        0.18500        0.14380        0.09130        4.57800        0.22240        0.63370        0.12250        0.61800     2404.23580        375.252
         8236.5       8236.500        -999.25         75.415      -999.2500        0.18350        0.14490        0.07850        4.49520        0.21010        0.64500        0.12540        0.63150     2456.75590        375.271
         8237.0       8237.001        -999.25         70.119      -999.2500        0.18190        0.14650        0.07040        4.33330        0.19470        0.65880        0.12780        0.64400     2505.46950        375.290
         8237.5       8237.501        -999.25         64.470      -999.2500        0.18050        0.14830        0.06880        4.16330        0.17870        0.67300        0.12920        0.65280     2540.07740        375.309
         8238.0       8238.000        -999.25         58.831      -999.2500        0.17770        0.14860        0.06740        3.96790        0.16360        0.68780        0.12970        0.65530     2549.89940        375.328
         8238.5       8238.500        -999.25         54.603      -999.2500        0.16320        0.13740        0.07020        3.59220        0.15830        0.70430        0.11850        0.60410     2350.51440        375.347
         8239.0       8239.000        -999.25         53.409      -999.2500        0.15270        0.12940        0.07610        3.34100        0.15300        0.71760        0.10970        0.56530     2199.61990        375.366
         8239.5       8239.500        -999.25         54.077      -999.2500        0.15490        0.13310        0.08240        3.34660        0.14070        0.72620        0.11120        0.57760     2247.64720        375.385
         8240.0       8240.000        -999.25         57.579      -999.2500        0.15680        0.13610        0.09460        3.39830        0.13200        0.73190        0.11020        0.58260     2267.44140        375.404
         8240.5       8240.500        -999.25         62.585      -999.2500        0.15780        0.13390        0.10430        3.55830        0.15130        0.71480        0.10690        0.56720     2207.45170        375.423
         8241.0       8240.999        -999.25         67.572      -999.2500        0.15680        0.12990        0.11580        3.68260        0.17170        0.69840        0.10240        0.54300     2113.35990        375.442
         8241.5       8241.500        -999.25         72.556      -999.2500        0.16230        0.13200        0.11270        3.92460        0.18650        0.68150        0.10580        0.55390     2155.73240        375.461
         8242.0       8242.000        -999.25         78.154      -999.2500        0.16770        0.13390        0.10860        4.17860        0.20160        0.66450        0.10920        0.56440     2196.94070        375.480
         8242.5       8242.500        -999.25         78.603      -999.2500        0.17120        0.13530        0.09380        4.28740        0.20960        0.65510        0.11350        0.57980     2256.82500        375.499
         8243.0       8243.000        -999.25         75.265      -999.2500        0.17080        0.13590        0.08910        4.21040        0.20440        0.65970        0.11470        0.58540     2278.59500        375.517
         8243.5       8243.501        -999.25         71.356      -999.2500        0.17090        0.13790        0.08760        4.11180        0.19300        0.66910        0.11630        0.59490     2315.87700        375.536
         8244.0       8244.000        -999.25         67.420      -999.2500        0.16390        0.13310        0.08670        3.88840        0.18750        0.67930        0.11180        0.57500     2238.52860        375.555
         8244.5       8244.500        -999.25         63.770      -999.2500        0.15610        0.12760        0.08680        3.65560        0.18220        0.69020        0.10650        0.55120     2145.97830        375.574
         8245.0       8245.000        -999.25         64.690      -999.2500        0.14770        0.12090        0.08540        3.49920        0.18190        0.69730        0.10030        0.52270     2034.97910        375.593
         8245.5       8245.500        -999.25         67.827      -999.2500        0.15260        0.12580        0.08420        3.62780        0.17590        0.69830        0.10480        0.54460     2120.60890        375.612
         8246.0       8246.000        -999.25         71.148      -999.2500        0.15880        0.12860        0.07980        3.85710        0.19050        0.68100        0.10880        0.55950     2178.47730        375.631
         8246.5       8246.500        -999.25         74.418      -999.2500        0.16510        0.13200        0.08580        4.06820        0.20060        0.66740        0.11140        0.57050     2221.32860        375.650
         8247.0       8246.999        -999.25         75.156      -999.2500        0.17130        0.13560        0.09220        4.23190        0.20870        0.65570        0.11400        0.58200     2266.35110        375.669
         8247.5       8247.499        -999.25         75.114      -999.2500        0.17190        0.13470        0.09000        4.26830        0.21660        0.64880        0.11380        0.57940     2256.41750        375.688
