#--------------------------------------------------#
#-------------------ENVERUS, INC.------------------#
#------------------WWW.ENVERUS.COM-----------------#
#------------------COPYRIGHT 2020------------------#
#--------------------------------------------------#
#THIS FILE MAY BE USED ONLY IN ACCORDANCE WITH A CURRENT SUBSCRIPTION AGREEMENT BETWEEN
#THE USER AND ENVERUS, INC. NO PART OF THIS FILE MAY BE REPRODUCED, USED, COPIED,
#MODIFIED, PROPAGATED, OR DISTRIBUTED EXCEPT IN ACCORDANCE WITH THE SUBSCRIPTION
#AGREEMENT. UNAUTHORIZED USE OR DISTRIBUTION OF ALL OR ANY PART OF THIS FILE MAY VIOLATE
#COPYRIGHT, TRADEMARK, AND/OR OTHER LAWS AND IS SUBJECT TO CIVIL AS WELL AS CRIMINAL
#SANCTIONS.
#--------------------------------------------------#
#THIS FILE IS PROVIDED "AS-IS" AND ALL WARRANTIES ARE EXPRESSLY DISCLAIMED, WHETHER
#EXPRESS, ORAL, IMPLIED, STATUTORY OR OTHERWISE, INCLUDING ANY IMPLIED WARRANTY OF FITNESS
#FOR A PARTICULAR PURPOSE, MERCHANTABILITY, TITLE OR NON-INFRINGEMENT, AND ANY WARRANTIES
#ARISING BY VIRTUE OF CUSTOM OF TRADE OR COURSE OF DEALING.  FURTHER, ENVERUS, INC.
#AND ITS LICENSORS DO NOT REPRESENT OR WARRANT THAT THIS FILE WILL MEET USER'S
#REQUIREMENTS OR ARE SUITABLE FOR USER'S NEEDS OR THAT THE DATA OR RESULTS PROVIDED IN
#CONJUNCTION THEREWITH ARE CORRECT, ACCURATE, TIMELY OR RELIABLE. THESE DISCLAIMERS SHALL
#APPLY REGARDLESS OF ANY FAILURE OF ESSENTIAL PURPOSE OF ANY LIMITED REMEDY.  SOME
#JURISDICTIONS DO NOT ALLOW THE EXCLUSION OF CERTAIN WARRANTIES SO SOME OF THE ABOVE
#EXCLUSIONS MAY NOT APPLY. IN NO EVENT SHALL ENVERUS, INC. OR ANY OF ITS AFFILIATES
#BE LIABLE UNDER ANY LEGAL THEORY, WHETHER IN TORT (INCLUDING WITHOUT LIMITATION
#NEGLIGENCE), CONTRACT, STRICT LIABILITY, STATUTORY OR OTHERWISE, FOR ANY SPECIAL,
#INCIDENTAL, CONSEQUENTIAL, EXEMPLARY, PUNITIVE OR INDIRECT DAMAGE OF ANY KIND, INCLUDING
#WITHOUT LIMITATION LOSS OF REVENUE, PROFITS, GOODWILL, USE, AND/OR DATA OR THE COST OF
#PROCUREMENT OF SUBSTITUTE GOODS OR SERVICES, EVEN IF APPRISED OF THE POSSIBILITY OF SUCH
#DAMAGES IN ADVANCE.
#--------------------------------------------------#

~VERSION INFORMATION
VERS. 2.0 : CWLS LOG ASCII STANDARD - VERSION 2.0
WRAP.  NO : ONE LINE PER DEPTH STEP
~WELL INFORMATION
#MNEMONIC     .UNIT              VALUE :DESCRIPTION
STRT       .FT                -3 :START DEPTH
STOP       .FT                21524 :STOP DEPTH
STEP       .FT                   0.500 :STEP
NULL       .                  -999.99 :NULL
UWI        .                42389105080000 :UNIQUE WELL ID
API        .                42389105080000 :API NUMBER
COMP       .         :COMPANY
WELL       .        :WELL
DATE       .                 :LOG DATE
FLD       .                 :FIELD NAME
LOC       .                  UNK :LOCATION
CNTY       .                 UNK :COUNTY
STAT       .                 UNK :STATE
CTRY       .                 UNK :COUNTY
SRVC       .                 UNK :SERVICE COMPANY
~CURVE INFORMATION
#MNEMONIC     .UNIT      API CODE :CURVE DESCRIPTION
DEPTH       .FT                      :MEASURED DEPTH
CAL.IN        UNKNOWN   :CAL
DT.MSEC/FT        UNKNOWN   :DT
GR.API        UNKNOWN   :GR
~A    DEPTH    CAL    DT    GR
# ...
 12401     12.17919   81.14863   26.09055
 12401.5     12.11467   80.01099   27.23681
 12402     12.05015   78.87335   28.8226
 12402.5     12.17681   82.2764   29.90504
 12403     12.41928   85.70635   29.82508
 12403.5     12.46829   89.13629   29.74512
 12404     12.49432   92.56624   29.66517
 12404.5     12.52035   90.39284   29.58521
 12405     12.54638   87.00547   29.50525
 12405.5     12.57241   83.61811   29.42529
 12406     12.59843   80.23074   30.15293
 12406.5     12.62446   76.84338   30.95517
 12407     12.69597   73.55994   31.74952
 12407.5     13.18765   86.50105   31.19831
 12408     12.98077   103.73121   30.6471
 12408.5     12.53556   108.33453   30.0959
 12409     12.31296   101.01937   29.54469
 12409.5     12.30724   94.39758   28.99348
 12410     12.30151   73.42941   29.51203
 12410.5     12.29579   63.59699   30.70742
 12411     12.29007   65.60806   31.90281
 12411.5     12.35577   67.61912   33.43933
 12412     12.48551   69.63019   35.58675
 12412.5     12.62986   72.59302   37.73417
 12413     12.95207   80.85579   39.88158
 12413.5     13.26873   89.11855   42.029
 12414     13.14823   97.38132   42.79028
 12414.5     13.07912   95.92224   41.55366
 12415     13.19832   91.67694   40.31703
 12415.5     13.31752   87.43163   39.25298
 12416     13.43671   83.82963   38.31207
 12416.5     13.55591   86.44509   37.37116
 12417     13.67511   89.06056   36.43024
 12417.5     13.7943   91.67602   35.48933
 12418     13.83333   80.80822   34.96626
 12418.5     13.80501   84.01673   35.91635
 12419     13.77669   87.22524   36.86644
 12419.5     13.74838   88.62045   37.30533
 12420     13.24919   88.77904   37.44114
 12420.5     12.99525   88.93764   37.57696
 12421     13.02248   89.09623   37.71278
 12421.5     13.04972   86.44916   37.8486
 12422     13.09889   83.41035   37.98441
 12422.5     13.20289   80.37154   38.12023
 12423     13.30689   77.84308   38.25605
 12423.5     13.41088   76.06357   38.39187
 12424     13.51488   76.78902   38.53546
 12424.5     13.61888   78.30205   38.67921
 12425     13.62217   79.9712   38.82297
 12425.5     13.39998   81.64036   38.96673
 12426     12.86612   83.30952   39.11049
 12426.5     13.01059   84.97868   39.28572
 12427     13.05295   86.64784   39.48874
 12427.5     13.04935   81.90634   39.69176
 12428     13.04576   82.98942   39.89479
 12428.5     13.04216   84.07249   39.82146
 12429     12.67303   84.4866   39.61957
 12429.5     12.61658   83.31711   39.41769
 12430     12.65031   82.14763   39.2158
 12430.5     12.7448   80.97815   39.01392
 12431     12.83929   79.80866   38.81203
 12431.5     12.90006   78.63918   38.70037
 12432     12.56658   79.08519   38.79134
 12432.5     12.46336   80.28956   38.8823
 12433     12.50935   81.49394   39.07284
 12433.5     12.55534   82.69832   39.39649
 12434     12.68846   83.90269   39.72013
 12434.5     12.84685   85.10707   40.04378
 12435     13.00524   81.15872   40.36742
 12435.5     13.16363   81.82007   40.61747
 12436     12.97418   82.48143   40.82041
 12436.5     12.53231   83.14278   41.02334
 12437     12.37714   83.80413   41.22628
 12437.5     12.33495   84.46549   41.42922
 12438     12.29276   85.03257   41.63215
 12438.5     12.25057   85.52557   41.94533
 12439     12.20838   86.01857   42.71018
 12439.5     12.16619   86.51156   43.47504
 12440     12.124   87.00456   44.2399
 12440.5     12.08181   79.08962   44.55082
 12441     11.78119   74.15754   44.60292
 12441.5     11.43988   75.0715   44.47729
 12442     11.21452   75.98547   42.24473
 12442.5     11.28   76.89943   39.57259
 12443     11.34548   77.76395   35.4387
 12443.5     11.41096   78.02972   34.2406
 12444     11.33466   78.2955   33.04249
 12444.5     11.21195   78.44687   31.84438
 12445     11.08925   78.51521   31.11186
 12445.5     10.96654   78.58355   30.73145
 12446     10.84383   78.65189   30.35104
 12446.5     10.72113   78.89301   29.97064
 12447     10.8264   79.59416   29.59023
 12447.5     10.93253   80.29531   28.65556
 12448     11.03866   80.99647   27.13689
 12448.5     11.14479   81.69762   25.61821
 12449     11.17177   77.87944   24.71492
 12449.5     11.17593   79.13674   24.10341
 12450     11.1801   81.31765   23.4919
 12450.5     11.15276   83.49856   23.34309
 12451     11.01679   85.67947   23.63561
 12451.5     10.88082   85.20536   23.92814
 12452     10.74485   81.84005   24.22066
 12452.5     10.72691   78.47474   24.51319
 12453     10.78149   75.10943   24.80572
 12453.5     10.83607   74.73771   23.84615
 12454     10.89064   76.58076   22.42902
 12454.5     10.92072   78.4238   21.68419
 12455     10.91072   76.68902   21.50127
 12455.5     10.90072   73.64137   21.31834
 12456     10.89073   70.59372   21.19749
 12456.5     10.89678   68.87445   22.60269
 12457     11.03404   71.29655   24.00789
 12457.5     11.1713   73.71865   25.41309
 12458     11.30856   76.88944   26.32118
 12458.5     11.44582   82.23885   26.61018
 12459     11.45956   87.58826   26.65907
 12459.5     11.45968   87.91246   25.73669
 12460     11.45979   84.2137   24.8143
 12460.5     11.45991   80.51495   25.29574
 12461     11.46003   76.8162   26.43909
 12461.5     11.47062   79.92384   27.58245
 12462     11.48913   88.61046   28.7258
 12462.5     11.50764   88.48384   29.86915
 12463     11.52615   85.90765   30.38144
 12463.5     11.54466   83.33146   30.17983
 12464     11.56317   80.75527   29.97822
 12464.5     11.58168   79.27455   29.72574
 12465     11.60018   83.12872   29.34579
 12465.5     11.61869   86.98288   28.96584
 12466     11.6372   90.83705   28.58589
 12466.5     11.65571   84.76085   28.20595
 12467     11.67422   74.90531   28.22203
 12467.5     11.69273   74.59913   29.80062
 12468     11.71124   78.82118   31.3792
 12468.5     11.72974   81.77512   32.95779
 12469     11.6956   82.49867   34.53638
 12469.5     11.63522   83.15396   34.98671
 12470     11.57483   83.80924   32.56515
 12470.5     11.51445   84.46453   30.03731
 12471     11.45406   83.68182   27.50948
 12471.5     11.39368   81.26157   24.98164
 12472     11.36803   78.84131   24.42882
 12472.5     11.45823   76.42106   23.906
 12473     11.54843   74.0008   24.39858
 12473.5     11.63862   72.71932   25.19857
 12474     11.68232   74.33703   25.99856
 12474.5     11.70683   75.95473   26.79856
 12475     11.73134   77.57244   27.59855
 12475.5     11.75586   79.19014   27.97435
 12476     11.78037   80.80785   26.57784
 12476.5     11.78671   79.04972   24.84588
 12477     11.76416   75.95064   23.11391
 12477.5     11.74161   72.85156   21.38195
 12478     11.71905   69.75248   20.57024
 12478.5     11.6965   67.55674   19.8556
 12479     11.67395   68.28019   19.69029
 12479.5     11.6514   68.94898   20.42425
 12480     11.62885   69.48883   21.02367
 12480.5     11.60629   70.23173   21.45071
 12481     11.63405   71.30084   21.87775
 12481.5     11.71596   72.36995   22.30479
 12482     11.79787   73.43905   22.73183
 12482.5     11.87977   74.50816   23.15887
 12483     11.89105   75.50335   23.70294
 12483.5     11.85551   75.4728   24.25103
 12484     11.81997   75.44224   24.79912
 12484.5     11.78442   75.41168   25.47801
 12485     11.74888   75.38113   26.33848
 12485.5     11.71333   75.47428   27.19894
 12486     11.69501   76.12443   28.05941
 12486.5     11.69162   76.77458   28.96446
 12487     11.68822   77.42473   30.04375
 12487.5     11.68483   78.59491   31.12304
 12488     11.68143   80.85416   32.20233
 12488.5     11.67804   83.11341   33.28162
 12489     11.67464   85.37266   33.09455
 12489.5     11.67125   87.6319   32.21673
 12490     11.66217   86.58121   30.91977
 12490.5     11.64288   85.21683   29.09684
 12491     11.62359   83.85246   27.27391
 12491.5     11.60431   82.48808   27.67638
 12492     11.58502   81.12371   28.15934
 12492.5     11.56573   79.75933   28.64231
 12493     11.54645   79.7664   27.46786
 12493.5     11.52716   80.11837   25.65172
 12494     11.50788   80.47034   23.56081
 12494.5     11.50247   80.75925   23.73309
