###############################################
##         ENVERUS                           ##
##         Petrophysical Curves              ##
##         PERMIAN / DELAWARE                ##
##         Jan 21 2022                       ##
##         42-389-10508-00-00                ##
###############################################
## Copyright 2017-2022  ENVERUS.  All Rights Reserved. 
## Confidential - Property of ENVERUS, use governed by terms and 
## conditions found within the existing Information Services Subscription Agreement 
## (as may be amended, the “ISSA”) between Customer and ENVERUS. 
## 
~VERSION INFORMATION
# MNEM.UNIT                               DATA : DESCRIPTION OF MNEMONIC
#-----.-----     ----------------------------- : -----------------------------
VERS.                                     2.00 : CWLS LOG ASCII STANDARD - VERSION 2.00
WRAP.                                       NO : MULTIPLE LINES PER DEPTH STEP
VEND.                                  ENVERUS : VENDOR
TYPE.                     PETROPHYSICAL CURVES : ENVERUS PETROPHYSICAL CURVES - ACCESSIBLE THROUGH ENVERUS CORE(TM)
#___________________________________________________________________________________________________ 
~WELL INFORMATION 
# uyaQ8P8kQDJ9DXFS5hR1PxmExEOYaAUkY5f3/tnOS+scoPAUWgXA1zCIHGRbWCuSuUcwDzaESCjqjWQ81XhadA== 
# MNEM.UNIT                                              DATA : DESCRIPTION OF MNEMONIC 
#-----.-----                    ----------------------------- : ----------------------------- 
CNTY.                                                  REEVES : COUNTY 
STATE.                                                  TEXAS : STATE 
CNTRY.                                                    USA : COUNTRY 
API.                                             42-389-10508 : API (10 Digit) 
API_14.                                    42-389-10508-00-00 : API (14 Digits) 
API_14_std.                                 42-389-10508-0000 : API (14 Digits Standard) 
UWI.                                           42389105080000 : UNIQUE WELL ID
STRT.FT                                               11776.0 : START DEPTH
STOP.FT                                               33299.5 : STOP DEPTH
STEP.FT                                                   0.5 : STEP BETWEEN DEPTHS
NULL.                                                 -999.25 : NULL VALUE
COMP.                                                  SABINE : COMPANY 
WELL.                                                       1 : WELL NAME 
FLD.                                         ROJO CABALLOS W. : FIELD NAME
#___________________________________________________________________________________________________ 
~CURVE INFORMATION 
#    Zone Description
#          1 = Upper Avalon
#          2 = Middle Avalon
#          3 = Lower Avalon
#          4 = 1st Bone Spring
#          5 = 2nd Bone Spring
#          6 = 2nd Bone Spring Sand
#          7 = 3rd Bone Spring
#          8 = 3rd Bone Spring Sand
#          9 = Wolfcamp XY
#          10 = Wolfcamp A Upper
#          11 = Wolfcamp A Lower
#          12 = Wolfcamp B Upper
#          13 = Wolfcamp B Lower
#          14 = Wolfcamp C
#          15 = Wolfcamp D
#          16 = Pennsylvanian Shale
#          17 = Lower Pennsylvanian Shale
#          18 = Barnett
#          19 = Barnett Lower
#          20 = Mississippian Lime
#          21 = Woodford
#          22 = Base Woodford 
# MNEM.UNIT           : CURVE DESCRIPTION 
#-----.-----          : ----------------------------- 
 DEPT.FT               : MEASURED DEPTH 
 TVD_I.FT              : ENVERUS TRUE VERTICAL DEPTH 
 ZONE_I.               : ENVERUS DEFINED ZONE CODE 
 GR_N_I.API            : ENVERUS NORMALIZED GAMMA RAY LEVERAGED IN GEOLOGICAL MODELLING 
 TEMP_I.DEGF           : ENVERUS INTERPRETED TEMPERATURE DERIVED FROM BOTTOM HOLE TEMPERATURES 
 #___________________________________________________________________________________________________ 
~A         DEPT          TVD_I         ZONE_I         GR_N_I         TEMP_I
# ...
        27517.0      27517.000          22.00         60.551        237.105
        27517.5      27517.500          22.00         61.723        237.111
        27518.0      27518.000          22.00         61.530        237.116
        27518.5      27518.500          22.00         60.712        237.122
        27519.0      27519.000          22.00         59.939        237.127
        27519.5      27519.500          22.00         59.180        237.133
        27520.0      27520.000          22.00         58.420        237.138
        27520.5      27520.500          22.00         57.661        237.144
        27521.0      27521.000          22.00         56.145        237.149
        27521.5      27521.500          22.00         52.729        237.155
        27522.0      27522.002          22.00         49.312        237.160
        27522.5      27522.502          22.00         47.228        237.166
        27523.0      27523.002          22.00         47.093        237.171
        27523.5      27523.502          22.00         46.958        237.177
        27524.0      27524.000          22.00         46.823        237.182
        27524.5      27524.500          22.00         47.416        237.188
        27525.0      27525.000          22.00         48.571        237.194
        27525.5      27525.500          22.00         49.726        237.199
        27526.0      27526.000          22.00         50.843        237.205
        27526.5      27526.500          22.00         51.057        237.210
        27527.0      27527.000          22.00         51.271        237.216
        27527.5      27527.498          22.00         51.485        237.221
        27528.0      27527.998          22.00         51.699        237.227
        27528.5      27528.498          22.00         51.912        237.232
        27529.0      27528.998          22.00         52.126        237.238
        27529.5      27529.498          22.00         52.340        237.243
        27530.0      27529.998          22.00         52.554        237.249
        27530.5      27530.502          22.00         52.232        237.254
        27531.0      27531.002          22.00         51.095        237.260
        27531.5      27531.502          22.00         49.957        237.265
        27532.0      27532.002          22.00         49.843        237.271
        27532.5      27532.500          22.00         50.684        237.277
        27533.0      27533.000          22.00         51.524        237.282
        27533.5      27533.500          22.00         52.365        237.288
        27534.0      27534.000          22.00         53.206        237.293
        27534.5      27534.500          22.00         54.047        237.299
        27535.0      27535.000          22.00         54.514        237.304
        27535.5      27535.500          22.00         51.970        237.310
        27536.0      27536.000          22.00         51.316        237.315
        27536.5      27536.500          22.00         52.459        237.321
        27537.0      27537.000          22.00         53.602        237.326
        27537.5      27537.500          22.00         54.745        237.332
        27538.0      27538.000          22.00         55.760        237.337
        27538.5      27538.498          22.00         52.645        237.343
        27539.0      27538.998          22.00         50.588        237.348
        27539.5      27539.500          22.00         49.933        237.354
        27540.0      27540.000          22.00         49.279        237.359
        27540.5      27540.500          22.00         48.624        237.365
        27541.0      27541.000          22.00         47.969        237.371
        27541.5      27541.500          22.00         47.875        237.376
        27542.0      27542.000          22.00         48.111        237.382
        27542.5      27542.500          22.00         48.346        237.387
        27543.0      27543.000          22.00         48.581        237.393
        27543.5      27543.500          22.00         48.817        237.398
        27544.0      27544.000          22.00         49.052        237.404
        27544.5      27544.500          22.00         49.288        237.409
        27545.0      27545.000          22.00         49.523        237.415
        27545.5      27545.500          22.00         49.759        237.420
        27546.0      27545.998          22.00         49.498        237.426
        27546.5      27546.498          22.00         48.987        237.431
        27547.0      27546.998          22.00         48.476        237.437
        27547.5      27547.498          22.00         47.964        237.443
        27548.0      27548.002          22.00         47.453        237.448
        27548.5      27548.502          22.00         48.017        237.454
        27549.0      27549.002          22.00         49.482        237.459
        27549.5      27549.502          22.00         50.947        237.465
        27550.0      27550.002          22.00         52.412        237.470
        27550.5      27550.502          22.00         53.878        237.476
        27551.0      27551.000          22.00         55.343        237.481
        27551.5      27551.500          22.00         56.808        237.487
        27552.0      27552.000          22.00         56.500        237.492
        27552.5      27552.500          22.00         55.802        237.498
        27553.0      27553.000          22.00         55.104        237.503
        27553.5      27553.500          22.00         54.405        237.509
        27554.0      27554.000          22.00         53.707        237.514
        27554.5      27554.500          22.00         53.070        237.520
        27555.0      27554.998          22.00         52.533        237.525
        27555.5      27555.498          22.00         51.996        237.531
        27556.0      27555.998          22.00         51.460        237.537
        27556.5      27556.500          22.00         50.923        237.542
        27557.0      27557.000          22.00         50.582        237.548
        27557.5      27557.500          22.00         50.814        237.553
        27558.0      27558.000          22.00         51.046        237.559
        27558.5      27558.500          22.00         51.278        237.564
        27559.0      27559.000          22.00         51.510        237.570
        27559.5      27559.500          22.00         51.728        237.575
        27560.0      27560.000          22.00         51.859        237.581
        27560.5      27560.500          22.00         51.990        237.586
        27561.0      27561.000          22.00         52.121        237.592
        27561.5      27561.500          22.00         52.252        237.597
        27562.0      27562.000          22.00         52.382        237.603
        27562.5      27562.500          22.00         52.530        237.608
        27563.0      27563.000          22.00         52.979        237.614
        27563.5      27563.500          22.00         53.427        237.620
        27564.0      27563.998          22.00         53.876        237.625
        27564.5      27564.498          22.00         53.690        237.631
        27565.0      27564.998          22.00         52.943        237.636
        27565.5      27565.502          22.00         52.196        237.642
        27566.0      27566.002          22.00         51.449        237.647
        27566.5      27566.502          22.00         50.701        237.653
        27567.0      27567.002          22.00         50.054        237.658
        27567.5      27567.502          22.00         50.392        237.664
        27568.0      27568.002          22.00         50.731        237.669
        27568.5      27568.502          22.00         51.069        237.675
        27569.0      27569.000          22.00         51.407        237.680
        27569.5      27569.500          22.00         51.746        237.686
