#--------------------------------------------------#
#-------------------ENVERUS, INC.------------------#
#------------------WWW.ENVERUS.COM-----------------#
#------------------COPYRIGHT 2020------------------#
#--------------------------------------------------#
#THIS FILE MAY BE USED ONLY IN ACCORDANCE WITH A CURRENT SUBSCRIPTION AGREEMENT BETWEEN
#THE USER AND ENVERUS, INC. NO PART OF THIS FILE MAY BE REPRODUCED, USED, COPIED,
#MODIFIED, PROPAGATED, OR DISTRIBUTED EXCEPT IN ACCORDANCE WITH THE SUBSCRIPTION
#AGREEMENT. UNAUTHORIZED USE OR DISTRIBUTION OF ALL OR ANY PART OF THIS FILE MAY VIOLATE
#COPYRIGHT, TRADEMARK, AND/OR OTHER LAWS AND IS SUBJECT TO CIVIL AS WELL AS CRIMINAL
#SANCTIONS.
#--------------------------------------------------#
#THIS FILE IS PROVIDED "AS-IS" AND ALL WARRANTIES ARE EXPRESSLY DISCLAIMED, WHETHER
#EXPRESS, ORAL, IMPLIED, STATUTORY OR OTHERWISE, INCLUDING ANY IMPLIED WARRANTY OF FITNESS
#FOR A PARTICULAR PURPOSE, MERCHANTABILITY, TITLE OR NON-INFRINGEMENT, AND ANY WARRANTIES
#ARISING BY VIRTUE OF CUSTOM OF TRADE OR COURSE OF DEALING.  FURTHER, ENVERUS, INC.
#AND ITS LICENSORS DO NOT REPRESENT OR WARRANT THAT THIS FILE WILL MEET USER'S
#REQUIREMENTS OR ARE SUITABLE FOR USER'S NEEDS OR THAT THE DATA OR RESULTS PROVIDED IN
#CONJUNCTION THEREWITH ARE CORRECT, ACCURATE, TIMELY OR RELIABLE. THESE DISCLAIMERS SHALL
#APPLY REGARDLESS OF ANY FAILURE OF ESSENTIAL PURPOSE OF ANY LIMITED REMEDY.  SOME
#JURISDICTIONS DO NOT ALLOW THE EXCLUSION OF CERTAIN WARRANTIES SO SOME OF THE ABOVE
#EXCLUSIONS MAY NOT APPLY. IN NO EVENT SHALL ENVERUS, INC. OR ANY OF ITS AFFILIATES
#BE LIABLE UNDER ANY LEGAL THEORY, WHETHER IN TORT (INCLUDING WITHOUT LIMITATION
#NEGLIGENCE), CONTRACT, STRICT LIABILITY, STATUTORY OR OTHERWISE, FOR ANY SPECIAL,
#INCIDENTAL, CONSEQUENTIAL, EXEMPLARY, PUNITIVE OR INDIRECT DAMAGE OF ANY KIND, INCLUDING
#WITHOUT LIMITATION LOSS OF REVENUE, PROFITS, GOODWILL, USE, AND/OR DATA OR THE COST OF
#PROCUREMENT OF SUBSTITUTE GOODS OR SERVICES, EVEN IF APPRISED OF THE POSSIBILITY OF SUCH
#DAMAGES IN ADVANCE.
#--------------------------------------------------#

~VERSION INFORMATION
VERS. 2.0 : CWLS LOG ASCII STANDARD - VERSION 2.0
WRAP.  NO : ONE LINE PER DEPTH STEP
~WELL INFORMATION
#MNEMONIC     .UNIT              VALUE :DESCRIPTION
STRT       .FT                102 :START DEPTH
STOP       .FT                9071 :STOP DEPTH
STEP       .FT                   0.500 :STEP
NULL       .                  -999.99 :NULL
UWI        .                42389104910000 :UNIQUE WELL ID
API        .                42389104910000 :API NUMBER
COMP       .         :COMPANY
WELL       .        :WELL
DATE       .                 :LOG DATE
FLD       .                 :FIELD NAME
LOC       .                  UNK :LOCATION
CNTY       .                 UNK :COUNTY
STAT       .                 UNK :STATE
CTRY       .                 UNK :COUNTY
SRVC       .                 UNK :SERVICE COMPANY
~CURVE INFORMATION
#MNEMONIC     .UNIT      API CODE :CURVE DESCRIPTION
DEPTH       .FT                      :MEASURED DEPTH
DT.MSEC/FT        UNKNOWN   :DT
GR.API        UNKNOWN   :GR
~A    DEPTH    DT    GR
# ...
 1282     81.41991   11.75553
 1282.5     79.81224   12.69459
 1283     80.29429   13.63364
 1283.5     86.58991   14.5727
 1284     92.88552   15.51175
 1284.5     99.18114   16.45081
 1285     105.47675   15.93565
 1285.5     111.77237   15.08695
 1286     105.89391   13.44258
 1286.5     99.44851   11.79822
 1287     93.00312   10.15385
 1287.5     86.55772   8.50949
 1288     80.68456   7.02175
 1288.5     81.59557   7.55993
 1289     82.50659   8.09812
 1289.5     83.41761   8.6363
 1290     84.32862   9.17449
 1290.5     85.23964   9.71268
 1291     86.15066   10.25086
 1291.5     86.8654   10.78905
 1292     87.30582   11.32723
 1292.5     87.74624   11.86542
 1293     88.18666   12.40361
 1293.5     89.04227   12.7977
 1294     90.35021   12.59038
 1294.5     91.65815   12.38306
 1295     91.15846   12.17574
 1295.5     90.00104   11.96842
 1296     88.84362   11.7611
 1296.5     87.68619   11.55378
 1297     86.58755   11.34646
 1297.5     87.45018   11.31767
 1298     88.31281   12.06385
 1298.5     89.17545   12.81003
 1299     90.03808   13.55621
 1299.5     89.21299   13.49914
 1300     87.1582   13.15943
 1300.5     85.73729   12.35534
 1301     87.42963   11.55125
 1301.5     89.12198   9.41633
 1302     90.81432   6.84349
 1302.5     92.50667   4.27066
 1303     94.19901   1.69782
 1303.5     95.89136   1.48943
 1304     97.5837   11.4164
 1304.5     99.27605   21.34337
 1305     100.96839   31.27034
 1305.5     101.71613   25.46635
 1306     100.8255   13.44527
 1306.5     99.93486   8.08401
 1307     99.04422   10.57859
 1307.5     98.15359   13.07317
 1308     97.26295   14.02388
 1308.5     90.61249   13.91575
 1309     90.47328   13.80761
 1309.5     95.10566   13.87877
 1310     99.73805   14.87841
 1310.5     104.37044   15.87804
 1311     109.00283   16.87767
 1311.5     113.63522   17.87731
 1312     112.91839   18.23356
 1312.5     108.86342   18.12542
 1313     104.80844   18.01728
 1313.5     100.75347   17.94696
 1314     96.6985   18.09155
 1314.5     97.5914   18.23613
 1315     103.08143   18.38072
 1315.5     108.57146   18.52531
 1316     114.0615   18.66989
 1316.5     114.42893   18.81448
 1317     110.20297   17.85191
 1317.5     105.97701   16.70425
 1318     101.75106   15.55659
 1318.5     97.5251   14.40893
 1319     93.29915   14.88635
 1319.5     91.08171   15.63294
 1320     100.99512   16.37953
 1320.5     110.90853   16.5366
 1321     120.82193   15.4665
 1321.5     130.73534   13.29731
 1322     136.47391   11.12812
 1322.5     115.39656   11.08755
 1323     94.31922   11.05442
 1323.5     89.53398   11.02129
 1324     91.8139   10.98816
 1324.5     94.09381   10.95503
 1325     96.37372   11.13332
 1325.5     98.65363   11.86941
 1326     100.93354   12.6055
 1326.5     103.21345   13.3416
 1327     100.18029   14.07769
 1327.5     94.78616   14.81378
 1328     89.39203   14.8573
 1328.5     87.39518   14.34319
 1329     90.26926   13.82908
 1329.5     93.14334   13.31497
 1330     96.01742   12.80085
 1330.5     98.8915   12.28674
 1331     101.76559   12.25383
 1331.5     104.63967   12.31689
 1332     107.51375   12.37995
 1332.5     106.1427   12.443
 1333     104.58887   12.50606
 1333.5     103.03504   12.66552
 1334     101.48121   13.56763
 1334.5     102.99613   14.46973
 1335     105.19837   15.37184
 1335.5     107.40061   16.27394
 1336     109.60286   17.17605
 1336.5     109.01405   18.07816
 1337     105.49604   18.28258
 1337.5     101.97803   18.33481
 1338     98.46002   18.38704
 1338.5     98.16994   18.10642
 1339     98.90737   17.30381
 1339.5     99.6448   16.50121
 1340     99.25924   15.6986
 1340.5     97.19084   14.89599
 1341     95.12245   15.37875
 1341.5     93.05405   16.15622
 1342     91.46027   16.9337
 1342.5     91.63558   17.71117
 1343     91.81089   18.48864
 1343.5     93.10691   19.26611
 1344     96.24051   20.04359
 1344.5     99.3741   20.82106
 1345     102.50769   20.05595
 1345.5     105.64128   18.91771
 1346     106.17966   17.77946
 1346.5     104.97559   16.64122
 1347     103.77152   15.50298
 1347.5     102.56745   14.36473
 1348     101.36339   13.57254
 1348.5     100.15932   13.10532
 1349     92.65469   12.63809
 1349.5     85.93248   12.17087
 1350     86.62293   11.70365
 1350.5     87.31338   11.23643
 1351     88.00383   11.07193
 1351.5     88.69428   11.96419
 1352     89.45225   12.85645
 1352.5     90.22683   13.74871
 1353     91.0014   14.64097
 1353.5     91.07245   15.53323
 1354     90.26557   16.42548
 1354.5     89.45869   17.31774
 1355     88.6518   18.21
 1355.5     87.84492   19.10226
 1356     87.6278   19.99452
 1356.5     89.37173   20.88678
 1357     91.11565   21.77904
 1357.5     92.85958   22.6713
 1358     94.6035   23.56355
 1358.5     96.34743   24.45581
 1359     97.53091   25.15911
 1359.5     96.41693   25.15805
 1360     95.30295   25.15698
 1360.5     94.18898   25.71966
 1361     93.075   27.32343
 1361.5     93.00762   28.9272
 1362     93.86912   30.53096
 1362.5     94.73062   32.13473
 1363     95.59212   33.42489
 1363.5     96.45361   33.53083
 1364     96.03294   33.63678
 1364.5     94.32091   33.74273
 1365     92.60888   34.54881
 1365.5     90.89685   35.55355
 1366     94.35837   36.5583
 1366.5     98.05778   37.56304
 1367     101.75719   38.56778
 1367.5     105.45659   39.57252
 1368     109.156   40.57726
 1368.5     113.78513   41.58201
 1369     118.87577   41.26208
 1369.5     123.96641   35.93799
 1370     119.72854   31.97582
 1370.5     108.7263   29.44997
 1371     97.72405   26.92412
 1371.5     86.72181   24.39827
 1372     79.18003   21.87242
 1372.5     88.65264   20.34498
 1373     98.12525   20.84823
 1373.5     107.59787   21.35149
 1374     115.84234   21.85474
 1374.5     123.82297   22.21458
 1375     131.80359   22.28226
 1375.5     139.78421   22.34993
 1376     139.52458   22.41761
 1376.5     127.77663   22.48528
 1377     118.58085   22.55296
 1377.5     122.51047   22.62063
 1378     126.44009   22.68831
 1378.5     130.36971   22.11625
 1379     134.29934   19.48065
 1379.5     138.22896   16.60183
 1380     142.15858   13.723
 1380.5     147.74476   10.84418
 1381     157.2977   10.40521
 1381.5     166.85064   10.85328
 1382     176.40357   11.30135
 1382.5     185.95651   13.46524
 1383     195.50945   15.87652
 1383.5     205.06239   18.2878
 1384     213.22539   20.69908
 1384.5     213.00985   23.11037
 1385     181.40414   25.52165
 1385.5     156.62652   27.93293
 1386     145.95341   30.34421
 1386.5     107.32057   32.75549
 1387     111.73714   33.35275
 1387.5     116.1537   33.35173
 1388     120.57027   31.59058
 1388.5     124.98684   27.78805
 1389     129.40341   23.98552
 1389.5     133.81997   20.183
 1390     122.15753   16.38047
 1390.5     107.36956   12.57794
 1391     100.33291   8.77541
 1391.5     102.40291   7.09123
 1392     104.4729   7.0369
 1392.5     106.11094   6.98258
 1393     105.63682   7.05286
 1393.5     105.16271   7.93476
 1394     102.34645   8.81665
 1394.5     94.04713   9.69855
 1395     101.85463   10.58045
 1395.5     110.3893   11.46235
 1396     100.41977   12.34425
 1396.5     104.66045   13.22615
 1397     108.90112   14.10805
 1397.5     113.1418   14.98995
 1398     117.38247   14.56788
 1398.5     120.31942   13.92202
 1399     121.70001   12.71233
 1399.5     123.08061   11.50264
 1400     115.07123   10.29295
 1400.5     102.55447   9.08326
 1401     90.0377   7.99201
 1401.5     78.02473   7.76218
 1402     84.91658   7.53234
 1402.5     88.16877   7.30251
 1403     87.76399   7.25098
 1403.5     87.35922   8.58902
 1404     86.95445   9.92705
 1404.5     86.54968   11.26509
 1405     94.13254   12.60313
 1405.5     102.45992   13.94117
 1406     110.78729   15.27921
 1406.5     119.11467   15.53684
 1407     86.63104   12.83383
 1407.5     70.07278   10.18867
 1408     71.56679   7.54351
 1408.5     73.06081   4.89834
 1409     74.55483   2.68292
 1409.5     76.04884   4.58954
 1410     77.54286   6.49615
 1410.5     81.31273   8.40276
