#--------------------------------------------------#
#-------------------ENVERUS, INC.------------------#
#------------------WWW.ENVERUS.COM-----------------#
#------------------COPYRIGHT 2020------------------#
#--------------------------------------------------#
#THIS FILE MAY BE USED ONLY IN ACCORDANCE WITH A CURRENT SUBSCRIPTION AGREEMENT BETWEEN
#THE USER AND ENVERUS, INC. NO PART OF THIS FILE MAY BE REPRODUCED, USED, COPIED,
#MODIFIED, PROPAGATED, OR DISTRIBUTED EXCEPT IN ACCORDANCE WITH THE SUBSCRIPTION
#AGREEMENT. UNAUTHORIZED USE OR DISTRIBUTION OF ALL OR ANY PART OF THIS FILE MAY VIOLATE
#COPYRIGHT, TRADEMARK, AND/OR OTHER LAWS AND IS SUBJECT TO CIVIL AS WELL AS CRIMINAL
#SANCTIONS.
#--------------------------------------------------#
#THIS FILE IS PROVIDED "AS-IS" AND ALL WARRANTIES ARE EXPRESSLY DISCLAIMED, WHETHER
#EXPRESS, ORAL, IMPLIED, STATUTORY OR OTHERWISE, INCLUDING ANY IMPLIED WARRANTY OF FITNESS
#FOR A PARTICULAR PURPOSE, MERCHANTABILITY, TITLE OR NON-INFRINGEMENT, AND ANY WARRANTIES
#ARISING BY VIRTUE OF CUSTOM OF TRADE OR COURSE OF DEALING.  FURTHER, ENVERUS, INC.
#AND ITS LICENSORS DO NOT REPRESENT OR WARRANT THAT THIS FILE WILL MEET USER'S
#REQUIREMENTS OR ARE SUITABLE FOR USER'S NEEDS OR THAT THE DATA OR RESULTS PROVIDED IN
#CONJUNCTION THEREWITH ARE CORRECT, ACCURATE, TIMELY OR RELIABLE. THESE DISCLAIMERS SHALL
#APPLY REGARDLESS OF ANY FAILURE OF ESSENTIAL PURPOSE OF ANY LIMITED REMEDY.  SOME
#JURISDICTIONS DO NOT ALLOW THE EXCLUSION OF CERTAIN WARRANTIES SO SOME OF THE ABOVE
#EXCLUSIONS MAY NOT APPLY. IN NO EVENT SHALL ENVERUS, INC. OR ANY OF ITS AFFILIATES
#BE LIABLE UNDER ANY LEGAL THEORY, WHETHER IN TORT (INCLUDING WITHOUT LIMITATION
#NEGLIGENCE), CONTRACT, STRICT LIABILITY, STATUTORY OR OTHERWISE, FOR ANY SPECIAL,
#INCIDENTAL, CONSEQUENTIAL, EXEMPLARY, PUNITIVE OR INDIRECT DAMAGE OF ANY KIND, INCLUDING
#WITHOUT LIMITATION LOSS OF REVENUE, PROFITS, GOODWILL, USE, AND/OR DATA OR THE COST OF
#PROCUREMENT OF SUBSTITUTE GOODS OR SERVICES, EVEN IF APPRISED OF THE POSSIBILITY OF SUCH
#DAMAGES IN ADVANCE.
#--------------------------------------------------#

~VERSION INFORMATION
VERS. 2.0 : CWLS LOG ASCII STANDARD - VERSION 2.0
WRAP.  NO : ONE LINE PER DEPTH STEP
~WELL INFORMATION
#MNEMONIC     .UNIT              VALUE :DESCRIPTION
STRT       .FT                101 :START DEPTH
STOP       .FT                5382 :STOP DEPTH
STEP       .FT                   0.500 :STEP
NULL       .                  -999.990 :NULL
UWI        .              42389007790000 :UNIQUE WELL ID
API        .              42389007790000 :API NUMBER
COMP       .         :COMPANY
WELL       .         1, :WELL
DATE       .                            :LOG DATE
~CURVE INFORMATION
#MNEMONIC     .UNIT      API CODE :CURVE DESCRIPTION
DEPTH       .FT                      :MEASURED DEPTH
DT.US/FT        UNKNOWN   :DT
GR.API        UNKNOWN   :GR
~A    DEPTH    DT    GR
# ...
 3562     66.755   6.072
 3562.5     66.552   6.376
 3563     66.836   6.68
 3563.5     67.119   6.984
 3564     67.403   7.288
 3564.5     67.687   7.592
 3565     67.184   7.896
 3565.5     66.957   6.666
 3566     67.077   5.223
 3566.5     67.197   4.318
 3567     67.317   4.462
 3567.5     67.437   4.606
 3568     67.21   4.751
 3568.5     66.94   4.895
 3569     66.671   5.039
 3569.5     66.402   5.183
 3570     66.133   5.328
 3570.5     66.377   5.472
 3571     66.691   5.419
 3571.5     67.006   5.287
 3572     67.321   5.156
 3572.5     67.635   5.024
 3573     67.833   4.947
 3573.5     67.671   5.176
 3574     67.508   5.404
 3574.5     67.346   5.633
 3575     67.183   5.861
 3575.5     67.282   6.09
 3576     67.486   6.318
 3576.5     67.69   6.547
 3577     67.894   6.757
 3577.5     68.098   6.494
 3578     68.303   6.232
 3578.5     68.507   5.969
 3579     68.711   5.706
 3579.5     68.894   5.443
 3580     68.525   5.18
 3580.5     68.157   4.918
 3581     67.789   4.655
 3581.5     67.421   4.392
 3582     67.053   4.129
 3582.5     66.685   3.867
 3583     66.701   3.604
 3583.5     67.04   3.61
 3584     67.379   4.109
 3584.5     67.718   4.608
 3585     68.057   5.107
 3585.5     68.397   5.606
 3586     68.736   6.106
 3586.5     68.388   6.605
 3587     67.942   7.104
 3587.5     67.496   7.603
 3588     67.05   7.263
 3588.5     67.319   6.62
 3589     67.676   5.977
 3589.5     68.034   5.334
 3590     67.579   4.691
 3590.5     66.935   4.048
 3591     66.568   3.406
 3591.5     66.744   3.302
 3592     66.921   3.52
 3592.5     67.098   3.738
 3593     67.274   3.956
 3593.5     67.451   4.174
 3594     67.627   4.391
 3594.5     67.804   4.609
 3595     67.98   4.676
 3595.5     68.157   4.607
 3596     67.866   4.539
 3596.5     67.326   4.47
 3597     66.785   4.402
 3597.5     66.245   4.334
 3598     66.538   4.265
 3598.5     67.221   4.197
 3599     67.827   4.128
 3599.5     67.583   4.499
 3600     67.338   4.916
 3600.5     67.094   5.333
 3601     66.849   5.75
 3601.5     66.604   6.167
 3602     66.397   6.584
 3602.5     66.754   7.001
 3603     67.111   7.418
 3603.5     67.468   7.219
 3604     67.825   6.86
 3604.5     67.913   6.501
 3605     67.658   6.142
 3605.5     67.402   5.783
 3606     67.146   5.424
 3606.5     66.89   5.065
 3607     66.634   4.82
 3607.5     66.89   5.09
 3608     67.188   5.361
 3608.5     67.486   5.631
 3609     67.785   5.902
 3609.5     68.083   5.985
 3610     68.381   5.952
 3610.5     68.679   5.919
 3611     68.518   5.886
 3611.5     68.203   5.853
 3612     67.888   5.82
 3612.5     67.572   5.787
 3613     67.257   5.754
 3613.5     66.942   5.721
 3614     66.626   5.688
 3614.5     66.888   5.655
 3615     67.347   5.622
 3615.5     67.805   5.589
 3616     68.264   5.556
 3616.5     68.722   5.523
 3617     69.181   5.49
 3617.5     69.639   5.457
 3618     70.044   5.214
 3618.5     64.847   4.614
 3619     62.665   4.015
 3619.5     60.484   3.415
 3620     54.997   3.187
 3620.5     51.671   3.793
 3621     49.94   4.398
 3621.5     48.964   5.004
 3622     50.156   5.61
 3622.5     51.348   6.216
 3623     52.448   6.821
 3623.5     52.397   7.427
 3624     52.346   8.033
 3624.5     52.295   7.862
 3625     52.244   7.348
 3625.5     52.192   6.834
 3626     52.137   6.462
 3626.5     51.748   6.958
 3627     51.359   7.454
 3627.5     50.862   7.95
 3628     48.789   8.446
 3628.5     49.12   8.942
 3629     49.451   8.478
 3629.5     49.783   7.278
 3630     50.114   6.965
 3630.5     50.023   7.432
 3631     49.929   7.898
 3631.5     49.835   8.364
 3632     49.741   8.831
 3632.5     49.647   9.297
 3633     49.553   9.763
 3633.5     49.608   7.525
 3634     49.855   6.338
 3634.5     50.101   6.851
 3635     50.348   7.364
 3635.5     50.594   7.877
 3636     50.841   8.39
 3636.5     51.087   8.903
 3637     51.334   9.416
 3637.5     51.486   8.51
 3638     51.363   7.31
 3638.5     51.241   6.11
 3639     51.119   5.443
 3639.5     50.997   6.221
 3640     50.875   6.999
 3640.5     50.753   7.778
 3641     50.631   7.955
 3641.5     50.811   7.903
 3642     51.122   7.85
 3642.5     51.432   7.798
 3643     51.742   7.746
 3643.5     52.052   7.744
 3644     52.023   8.048
 3644.5     51.742   8.352
 3645     51.462   8.656
 3645.5     51.182   8.96
 3646     50.902   9.264
 3646.5     50.621   9.568
 3647     50.341   9.832
 3647.5     50.019   9.29
 3648     49.666   8.748
 3648.5     49.312   8.206
 3649     48.959   7.664
 3649.5     48.814   7.122
 3650     48.824   6.58
 3650.5     48.833   6.037
 3651     48.843   5.495
 3651.5     48.852   4.953
 3652     48.862   4.411
 3652.5     49.218   4.286
 3653     49.923   4.835
 3653.5     50.627   5.383
 3654     51.332   5.931
 3654.5     51.161   6.48
 3655     50.837   7.028
 3655.5     50.512   7.576
 3656     50.187   8.124
 3656.5     49.863   8.673
 3657     49.538   9.221
 3657.5     49.214   9.769
 3658     49.559   9.667
 3658.5     50.016   9.341
 3659     50.474   9.015
 3659.5     50.837   8.689
 3660     50.913   8.364
 3660.5     50.989   8.09
 3661     51.064   8.093
 3661.5     51.14   8.095
 3662     51.216   8.098
 3662.5     51.291   8.1
 3663     51.367   8.103
 3663.5     51.443   8.105
 3664     51.518   8.108
 3664.5     51.41   8.11
 3665     51.177   8.112
 3665.5     50.944   8.115
 3666     50.712   8.117
 3666.5     50.479   8.12
 3667     50.469   8.122
 3667.5     50.619   8.145
 3668     50.573   8.19
 3668.5     50.363   8.236
 3669     50.153   8.281
 3669.5     49.956   8.327
 3670     50.142   8.372
 3670.5     50.329   8.418
 3671     50.515   8.588
 3671.5     50.701   8.974
 3672     50.465   9.36
 3672.5     49.694   9.746
 3673     48.923   10.132
 3673.5     51.64   10.519
 3674     57.847   10.059
 3674.5     64.054   9.374
 3675     66.552   8.689
 3675.5     67.725   8.004
 3676     68.897   7.319
 3676.5     70.069   6.634
 3677     71.241   5.949
 3677.5     67.812   5.264
 3678     64.037   4.579
 3678.5     60.261   3.895
 3679     56.326   3.467
 3679.5     47.783   4.949
 3680     46.027   6.43
 3680.5     45.917   7.911
 3681     47.654   9.392
 3681.5     49.391   10.067
 3682     50.929   10.139
 3682.5     51.633   10.211
 3683     52.247   10.283
 3683.5     52.091   10.355
 3684     51.936   10.427
 3684.5     51.78   10.499
 3685     51.625   10.571
 3685.5     51.469   10.643
 3686     51.017   10.715
 3686.5     50.344   10.787
 3687     49.716   10.859
 3687.5     49.44   10.931
 3688     49.164   10.802
 3688.5     48.887   10.353
 3689     49.534   9.904
 3689.5     54.758   9.455
 3690     54.167   8.473
 3690.5     53.577   6.379
 3691     52.987   4.284
 3691.5     51.933   3.542
 3692     50.126   6.582
 3692.5     48.32   9.622
 3693     47.997   12.662
 3693.5     48.813   15.702
 3694     49.629   18.671
 3694.5     49.617   21.406
 3695     48.439   24.14
 3695.5     49.426   25.667
 3696     52.668   22.732
 3696.5     55.91   19.797
 3697     59.152   16.862
 3697.5     62.788   13.927
 3698     67.152   10.992
 3698.5     68.816   8.21
 3699     67.261   7.311
 3699.5     65.707   6.412
 3700     64.152   5.513
 3700.5     63.477   4.619
 3701     63.231   4.444
 3701.5     62.986   4.27
 3702     62.741   4.095
 3702.5     62.896   3.92
 3703     63.252   3.746
 3703.5     63.609   3.571
 3704     63.965   3.396
 3704.5     64.322   3.222
 3705     64.678   3.432
 3705.5     65.035   4.271
 3706     65.167   5.11
 3706.5     65.032   5.948
 3707     64.897   6.787
 3707.5     64.762   7.626
 3708     64.627   8.464
 3708.5     64.492   8.23
 3709     64.357   7.732
 3709.5     64.222   7.233
 3710     64.087   6.734
 3710.5     63.952   6.235
 3711     64.881   5.736
 3711.5     64.774   5.238
 3712     64.667   4.739
 3712.5     64.56   4.24
 3713     64.938   4.916
 3713.5     66.403   6.203
 3714     67.868   7.491
 3714.5     68.523   8.779
 3715     68.616   8.65
 3715.5     68.709   7.636
 3716     68.803   6.622
