###############################################
##         ENVERUS                           ##
##         Petrophysical Curves              ##
##         PERMIAN / DELAWARE                ##
##         Jan 21 2022                       ##
##         42-389-10491-00-00                ##
###############################################
## Copyright 2017-2022  ENVERUS.  All Rights Reserved. 
## Confidential - Property of ENVERUS, use governed by terms and 
## conditions found within the existing Information Services Subscription Agreement 
## (as may be amended, the “ISSA”) between Customer and ENVERUS. 
## 
~VERSION INFORMATION
# MNEM.UNIT                               DATA : DESCRIPTION OF MNEMONIC
#-----.-----     ----------------------------- : -----------------------------
VERS.                                     2.00 : CWLS LOG ASCII STANDARD - VERSION 2.00
WRAP.                                       NO : MULTIPLE LINES PER DEPTH STEP
VEND.                                  ENVERUS : VENDOR
TYPE.                     PETROPHYSICAL CURVES : ENVERUS PETROPHYSICAL CURVES - ACCESSIBLE THROUGH ENVERUS CORE(TM)
#___________________________________________________________________________________________________ 
~WELL INFORMATION 
# uyaQ8P8kQDJ9DXFS5hR1PxmExEOYaAUkY5f3/tnOS+scoPAUWgXA1zCIHGRbWCuSuUcwDzaESCjqjWQ81XhadA== 
# MNEM.UNIT                                              DATA : DESCRIPTION OF MNEMONIC 
#-----.-----                    ----------------------------- : ----------------------------- 
CNTY.                                                  REEVES : COUNTY 
STATE.                                                  TEXAS : STATE 
CNTRY.                                                    USA : COUNTRY 
API.                                             42-389-10491 : API (10 Digit) 
API_14.                                    42-389-10491-00-00 : API (14 Digits) 
API_14_std.                                 42-389-10491-0000 : API (14 Digits Standard) 
UWI.                                           42389104910000 : UNIQUE WELL ID
STRT.FT                                                 102.0 : START DEPTH
STOP.FT                                                9071.0 : STOP DEPTH
STEP.FT                                                   0.5 : STEP BETWEEN DEPTHS
NULL.                                                 -999.25 : NULL VALUE
COMP.                                FLAT CREEK RESOURCES LLC : COMPANY 
WELL.                                         REEVES-AW-FEE 1 : WELL NAME 
FLD.                                                     TORO : FIELD NAME
#___________________________________________________________________________________________________ 
~CURVE INFORMATION 
#    Zone Description
#          1 = Upper Avalon
#          2 = Middle Avalon
#          3 = Lower Avalon
#          4 = 1st Bone Spring
#          5 = 2nd Bone Spring
#          6 = 2nd Bone Spring Sand
#          7 = 3rd Bone Spring
#          8 = 3rd Bone Spring Sand
#          9 = Wolfcamp XY
#          10 = Wolfcamp A Upper
#          11 = Wolfcamp A Lower
#          12 = Wolfcamp B Upper
#          13 = Wolfcamp B Lower
#          14 = Wolfcamp C
#          15 = Wolfcamp D
#          16 = Pennsylvanian Shale
#          17 = Lower Pennsylvanian Shale
#          18 = Barnett
#          19 = Barnett Lower
#          20 = Mississippian Lime
#          21 = Woodford
#          22 = Base Woodford 
# MNEM.UNIT           : CURVE DESCRIPTION 
#-----.-----          : ----------------------------- 
 DEPT.FT               : MEASURED DEPTH 
 TVD_I.FT              : ENVERUS TRUE VERTICAL DEPTH 
 ZONE_I.               : ENVERUS DEFINED ZONE CODE 
 GR_N_I.API            : ENVERUS NORMALIZED GAMMA RAY LEVERAGED IN GEOLOGICAL MODELLING 
 TEMP_I.DEGF           : ENVERUS INTERPRETED TEMPERATURE DERIVED FROM BOTTOM HOLE TEMPERATURES 
 #___________________________________________________________________________________________________ 
~A         DEPT          TVD_I         ZONE_I         GR_N_I         TEMP_I
# ...
         6621.0       6621.000        -999.25         62.464        133.125
         6621.5       6621.500        -999.25         65.201        133.130
         6622.0       6622.000        -999.25         67.940        133.135
         6622.5       6622.500        -999.25         68.667        133.141
         6623.0       6623.000        -999.25         67.378        133.146
         6623.5       6623.500        -999.25         66.089        133.151
         6624.0       6624.000        -999.25         65.772        133.157
         6624.5       6624.500        -999.25         65.763        133.162
         6625.0       6625.000        -999.25         63.334        133.167
         6625.5       6625.500        -999.25         60.738        133.172
         6626.0       6626.000        -999.25         59.496        133.178
         6626.5       6626.500        -999.25         60.151        133.183
         6627.0       6627.000        -999.25         60.669        133.188
         6627.5       6627.500        -999.25         60.361        133.194
         6628.0       6628.000        -999.25         60.054        133.199
         6628.5       6628.500        -999.25         59.746        133.204
         6629.0       6629.000        -999.25         59.439        133.210
         6629.5       6629.500        -999.25         59.705        133.215
         6630.0       6630.000        -999.25         63.828        133.220
         6630.5       6630.501        -999.25         75.810        133.225
         6631.0       6631.000        -999.25         91.582        133.231
         6631.5       6631.500        -999.25         99.119        133.236
         6632.0       6632.000        -999.25        106.657        133.241
         6632.5       6632.500        -999.25        108.301        133.247
         6633.0       6633.000        -999.25        108.295        133.252
         6633.5       6633.500        -999.25        108.288        133.257
         6634.0       6634.000        -999.25        110.662        133.262
         6634.5       6634.500        -999.25        113.556        133.268
         6635.0       6635.000        -999.25        116.451        133.273
         6635.5       6635.500        -999.25        111.057        133.278
         6636.0       6636.000        -999.25        104.542        133.284
         6636.5       6636.500        -999.25        105.415        133.289
         6637.0       6637.000        -999.25        108.149        133.294
         6637.5       6637.500        -999.25        110.883        133.300
         6638.0       6638.000        -999.25        113.617        133.305
         6638.5       6638.500        -999.25        113.735        133.310
         6639.0       6639.000        -999.25        113.201        133.315
         6639.5       6639.500        -999.25        109.191        133.321
         6640.0       6640.000        -999.25         97.253        133.326
         6640.5       6640.500        -999.25         87.762        133.331
         6641.0       6641.000        -999.25         88.195        133.337
         6641.5       6641.500        -999.25         88.221        133.342
         6642.0       6642.000        -999.25         82.094        133.347
         6642.5       6642.500        -999.25         75.968        133.352
         6643.0       6643.000        -999.25         71.884        133.358
         6643.5       6643.500        -999.25         69.546        133.363
         6644.0       6644.000        -999.25         66.413        133.368
         6644.5       6644.500        -999.25         64.208        133.374
         6645.0       6645.000        -999.25         62.789        133.379
         6645.5       6645.500        -999.25         61.371        133.384
         6646.0       6646.000        -999.25         61.387        133.390
         6646.5       6646.500        -999.25         64.151        133.395
         6647.0       6647.000        -999.25         65.438        133.400
         6647.5       6647.500        -999.25         65.431        133.405
         6648.0       6648.000        -999.25         65.423        133.411
         6648.5       6648.500        -999.25         65.417        133.416
         6649.0       6649.000        -999.25         65.408        133.421
         6649.5       6649.500        -999.25         62.418        133.427
         6650.0       6650.001        -999.25         58.443        133.432
         6650.5       6650.500        -999.25         55.506        133.437
         6651.0       6651.001        -999.25         56.177        133.443
         6651.5       6651.500        -999.25         56.849        133.448
         6652.0       6652.000        -999.25         57.520        133.453
         6652.5       6652.500        -999.25         58.193        133.458
         6653.0       6653.000        -999.25         58.863        133.464
         6653.5       6653.500        -999.25         59.209        133.469
         6654.0       6654.000        -999.25         58.834        133.474
         6654.5       6654.500        -999.25         56.475        133.480
         6655.0       6655.000        -999.25         53.492        133.485
         6655.5       6655.500        -999.25         46.586        133.490
         6656.0       6656.000        -999.25         39.681        133.495
         6656.5       6656.500        -999.25         39.235        133.501
         6657.0       6657.000        -999.25         43.681        133.506
         6657.5       6657.500        -999.25         48.128        133.511
         6658.0       6658.000        -999.25         52.573        133.517
         6658.5       6658.500        -999.25         56.665        133.522
         6659.0       6659.000        -999.25         55.403        133.527
         6659.5       6659.500        -999.25         53.938        133.533
         6660.0       6660.000        -999.25         52.243        133.538
         6660.5       6660.500        -999.25         50.546        133.543
         6661.0       6661.000        -999.25         50.198        133.548
         6661.5       6661.500        -999.25         51.237        133.554
         6662.0       6662.001        -999.25         52.276        133.559
         6662.5       6662.500        -999.25         53.315        133.564
         6663.0       6663.000        -999.25         54.102        133.570
         6663.5       6663.500        -999.25         53.714        133.575
         6664.0       6664.000        -999.25         53.328        133.580
         6664.5       6664.500        -999.25         52.942        133.585
         6665.0       6665.000        -999.25         52.554        133.591
         6665.5       6665.500        -999.25         52.167        133.596
         6666.0       6666.000        -999.25         51.781        133.601
         6666.5       6666.500        -999.25         53.629        133.607
         6667.0       6667.000        -999.25         57.177        133.612
         6667.5       6667.500        -999.25         60.726        133.617
         6668.0       6668.000        -999.25         63.897        133.623
         6668.5       6668.500        -999.25         64.764        133.628
         6669.0       6669.000        -999.25         65.034        133.633
         6669.5       6669.500        -999.25         60.624        133.638
         6670.0       6670.000        -999.25         55.554        133.644
         6670.5       6670.500        -999.25         53.394        133.649
         6671.0       6671.000        -999.25         51.990        133.654
         6671.5       6671.500        -999.25         49.527        133.660
         6672.0       6672.000        -999.25         44.846        133.665
         6672.5       6672.500        -999.25         43.681        133.670
         6673.0       6673.000        -999.25         43.932        133.676
         6673.5       6673.500        -999.25         44.184        133.681
