#--------------------------------------------------#
#-------------------ENVERUS, INC.------------------#
#------------------WWW.ENVERUS.COM-----------------#
#------------------COPYRIGHT 2020------------------#
#--------------------------------------------------#
#THIS FILE MAY BE USED ONLY IN ACCORDANCE WITH A CURRENT SUBSCRIPTION AGREEMENT BETWEEN
#THE USER AND ENVERUS, INC. NO PART OF THIS FILE MAY BE REPRODUCED, USED, COPIED,
#MODIFIED, PROPAGATED, OR DISTRIBUTED EXCEPT IN ACCORDANCE WITH THE SUBSCRIPTION
#AGREEMENT. UNAUTHORIZED USE OR DISTRIBUTION OF ALL OR ANY PART OF THIS FILE MAY VIOLATE
#COPYRIGHT, TRADEMARK, AND/OR OTHER LAWS AND IS SUBJECT TO CIVIL AS WELL AS CRIMINAL
#SANCTIONS.
#--------------------------------------------------#
#THIS FILE IS PROVIDED "AS-IS" AND ALL WARRANTIES ARE EXPRESSLY DISCLAIMED, WHETHER
#EXPRESS, ORAL, IMPLIED, STATUTORY OR OTHERWISE, INCLUDING ANY IMPLIED WARRANTY OF FITNESS
#FOR A PARTICULAR PURPOSE, MERCHANTABILITY, TITLE OR NON-INFRINGEMENT, AND ANY WARRANTIES
#ARISING BY VIRTUE OF CUSTOM OF TRADE OR COURSE OF DEALING.  FURTHER, ENVERUS, INC.
#AND ITS LICENSORS DO NOT REPRESENT OR WARRANT THAT THIS FILE WILL MEET USER'S
#REQUIREMENTS OR ARE SUITABLE FOR USER'S NEEDS OR THAT THE DATA OR RESULTS PROVIDED IN
#CONJUNCTION THEREWITH ARE CORRECT, ACCURATE, TIMELY OR RELIABLE. THESE DISCLAIMERS SHALL
#APPLY REGARDLESS OF ANY FAILURE OF ESSENTIAL PURPOSE OF ANY LIMITED REMEDY.  SOME
#JURISDICTIONS DO NOT ALLOW THE EXCLUSION OF CERTAIN WARRANTIES SO SOME OF THE ABOVE
#EXCLUSIONS MAY NOT APPLY. IN NO EVENT SHALL ENVERUS, INC. OR ANY OF ITS AFFILIATES
#BE LIABLE UNDER ANY LEGAL THEORY, WHETHER IN TORT (INCLUDING WITHOUT LIMITATION
#NEGLIGENCE), CONTRACT, STRICT LIABILITY, STATUTORY OR OTHERWISE, FOR ANY SPECIAL,
#INCIDENTAL, CONSEQUENTIAL, EXEMPLARY, PUNITIVE OR INDIRECT DAMAGE OF ANY KIND, INCLUDING
#WITHOUT LIMITATION LOSS OF REVENUE, PROFITS, GOODWILL, USE, AND/OR DATA OR THE COST OF
#PROCUREMENT OF SUBSTITUTE GOODS OR SERVICES, EVEN IF APPRISED OF THE POSSIBILITY OF SUCH
#DAMAGES IN ADVANCE.
#--------------------------------------------------#

~VERSION INFORMATION
VERS. 2.0 : CWLS LOG ASCII STANDARD - VERSION 2.0
WRAP.  NO : ONE LINE PER DEPTH STEP
~WELL INFORMATION
#MNEMONIC     .UNIT              VALUE :DESCRIPTION
STRT       .FT                102 :START DEPTH
STOP       .FT                9071 :STOP DEPTH
STEP       .FT                   0.500 :STEP
NULL       .                  -999.99 :NULL
UWI        .                42389104910000 :UNIQUE WELL ID
API        .                42389104910000 :API NUMBER
COMP       .         :COMPANY
WELL       .        :WELL
DATE       .                 :LOG DATE
FLD       .                 :FIELD NAME
LOC       .                  UNK :LOCATION
CNTY       .                 UNK :COUNTY
STAT       .                 UNK :STATE
CTRY       .                 UNK :COUNTY
SRVC       .                 UNK :SERVICE COMPANY
~CURVE INFORMATION
#MNEMONIC     .UNIT      API CODE :CURVE DESCRIPTION
DEPTH       .FT                      :MEASURED DEPTH
DT.MSEC/FT        UNKNOWN   :DT
GR.API        UNKNOWN   :GR
~A    DEPTH    DT    GR
# ...
 4923     64.31893   4.58984
 4923.5     64.36876   4.52534
 4924     64.41858   4.46084
 4924.5     64.46841   4.39635
 4925     64.51823   4.33185
 4925.5     64.56806   4.26735
 4926     64.61788   4.20285
 4926.5     64.66771   4.13836
 4927     64.71753   4.406
 4927.5     64.76736   4.67598
 4928     64.81719   4.94596
 4928.5     64.86701   5.21594
 4929     64.91684   5.13698
 4929.5     64.96666   5.01339
 4930     65.01649   4.8898
 4930.5     65.06631   4.76621
 4931     65.12691   4.64262
 4931.5     65.19306   4.51904
 4932     65.2592   4.39545
 4932.5     65.32535   4.27186
 4933     65.3915   4.16307
 4933.5     65.45764   4.35976
 4934     65.52379   4.55645
 4934.5     65.56231   4.75314
 4935     65.53643   4.94983
 4935.5     65.51055   5.14652
 4936     65.48466   5.34321
 4936.5     65.45878   5.5399
 4937     65.44859   5.73659
 4937.5     65.49788   5.93328
 4938     65.54718   5.84611
 4938.5     65.59648   5.59815
 4939     65.64577   5.35019
 4939.5     65.69507   5.10223
 4940     65.74436   4.85427
 4940.5     65.79366   4.60631
 4941     65.48677   4.61688
 4941.5     65.11804   4.72217
 4942     64.74931   4.82745
 4942.5     64.38058   4.93274
 4943     64.01185   5.03802
 4943.5     64.04619   5.14331
 4944     64.20169   5.24859
 4944.5     64.35719   5.35388
 4945     64.51269   5.45916
 4945.5     64.66819   6.59982
 4946     64.82369   7.86366
 4946.5     64.97919   9.12749
 4947     65.13468   8.80579
 4947.5     65.29018   8.45193
 4948     65.44568   8.09807
 4948.5     65.60118   7.74422
 4949     65.75668   7.60881
 4949.5     65.67912   7.51656
 4950     65.56767   7.42431
 4950.5     65.45622   7.33205
 4951     65.34478   7.2398
 4951.5     65.23333   7.14755
 4952     65.12189   6.85359
 4952.5     65.01044   6.54418
 4953     64.89899   6.23477
 4953.5     64.78755   5.92536
 4954     64.80937   5.61595
 4954.5     64.85974   5.30654
 4955     64.91011   4.99712
 4955.5     64.96047   4.68771
 4956     65.01084   4.77453
 4956.5     65.06121   5.08796
 4957     65.11157   5.40139
 4957.5     65.16194   5.71482
 4958     65.21231   6.02825
 4958.5     65.21966   6.17459
 4959     65.0534   5.98936
 4959.5     64.88713   5.80413
 4960     64.72087   5.86401
 4960.5     64.55461   6.33411
 4961     64.38834   6.80421
 4961.5     64.22208   7.27431
 4962     64.05582   7.74442
 4962.5     63.88956   8.21452
 4963     63.72329   8.0849
 4963.5     63.55703   7.32798
 4964     63.39077   6.57106
 4964.5     63.69307   5.81414
 4965     64.05743   5.05722
 4965.5     64.42179   4.3003
 4966     64.98998   3.54338
 4966.5     65.77714   3.4956
 4967     66.56429   3.49669
 4967.5     70.86446   3.49778
 4968     77.12066   3.49887
 4968.5     83.37685   3.49995
 4969     88.89642   3.2176
 4969.5     89.11474   2.75464
 4970     89.33305   2.29167
 4970.5     89.85708   1.85264
 4971     91.12106   1.94946
 4971.5     92.38503   2.04628
 4972     92.57571   2.14311
 4972.5     91.40219   2.23993
 4973     90.22867   2.33676
 4973.5     89.05514   2.43358
 4974     88.28223   2.53041
 4974.5     87.89435   2.58571
 4975     87.50646   2.56449
 4975.5     87.11857   2.54327
 4976     86.73069   2.52205
 4976.5     87.68893   2.50083
 4977     88.64982   2.47961
 4977.5     89.45458   2.45839
 4978     89.39781   2.43716
 4978.5     89.34103   2.41044
 4979     89.28426   2.29522
 4979.5     89.22748   2.18
 4980     91.78405   2.06479
 4980.5     93.95086   1.94957
 4981     93.98863   1.83435
 4981.5     94.0264   1.71913
 4982     94.06417   1.60391
 4982.5     94.10194   1.4887
 4983     94.13971   1.37348
 4983.5     94.17749   1.46311
 4984     94.21526   1.71302
 4984.5     94.25303   1.96294
 4985     94.2908   2.21286
 4985.5     94.32857   2.46278
 4986     94.36634   2.7127
 4986.5     94.40411   2.52718
 4987     94.44189   2.10363
 4987.5     94.47966   1.68007
 4988     94.51743   1.25651
 4988.5     94.5552   .83295
 4989     94.59297   .98076
 4989.5     94.63074   1.20773
 4990     94.66851   1.4347
 4990.5     94.70628   1.66168
 4991     94.74406   1.88865
 4991.5     94.78183   2.11562
 4992     94.8196   2.27645
 4992.5     94.85737   2.32162
 4993     94.89514   2.3668
 4993.5     94.93291   2.41197
 4994     94.97068   2.71163
 4994.5     93.71387   3.96565
 4995     87.31972   5.21967
 4995.5     80.92558   6.47369
 4996     74.53143   7.72771
 4996.5     68.13728   8.15113
 4997     66.55198   7.78171
 4997.5     66.59063   7.41228
 4998     66.62927   7.04286
 4998.5     66.66792   6.67343
 4999     66.70656   6.30401
 4999.5     66.7452   5.93459
 5000     66.68024   5.56516
 5000.5     66.51757   5.19574
 5001     66.3549   5.30262
 5001.5     66.19223   5.76972
 5002     66.02956   6.23682
 5002.5     65.86689   6.6946
 5003     65.70422   6.6184
 5003.5     65.54155   6.5422
 5004     65.37887   6.73673
 5004.5     65.2162   7.08684
 5005     65.05353   7.43695
 5005.5     65.01152   7.78706
 5006     65.01045   8.13717
 5006.5     65.00937   8.07203
 5007     65.0083   7.95707
 5007.5     65.00723   7.84212
 5008     65.05327   7.72717
 5008.5     65.63717   7.65668
 5009     66.22107   7.88983
 5009.5     66.80497   8.12298
 5010     67.38887   8.35612
 5010.5     67.97277   8.58927
 5011     67.8904   8.66119
 5011.5     67.79705   8.46371
 5012     67.70369   8.26623
 5012.5     67.61033   8.06876
 5013     67.51698   7.87128
 5013.5     67.42362   7.6738
 5014     67.33026   7.47632
 5014.5     67.23691   7.27885
 5015     67.14355   7.08213
 5015.5     67.05019   6.91584
 5016     66.97652   6.74954
 5016.5     66.97546   6.58325
 5017     66.97439   6.41695
 5017.5     66.97333   6.25066
 5018     66.97227   6.08437
 5018.5     66.9712   5.91807
 5019     66.97014   5.75178
 5019.5     66.83288   5.58549
 5020     66.69254   5.41919
 5020.5     66.55221   5.2529
 5021     66.41188   5.08661
 5021.5     66.27155   4.92031
 5022     66.13122   4.75402
 5022.5     65.99089   4.90658
 5023     65.85056   5.19303
 5023.5     65.71022   5.47948
 5024     65.56989   5.76593
 5024.5     65.42956   6.05238
 5025     65.28923   6.33883
 5025.5     65.28179   6.62528
 5026     65.40583   6.91174
 5026.5     65.52988   6.65427
 5027     65.65392   6.38153
 5027.5     65.65662   6.10879
 5028     65.55359   5.83605
 5028.5     65.45056   5.56331
 5029     65.34753   5.29057
 5029.5     65.2445   5.01783
 5030     65.14148   4.74509
 5030.5     65.03845   4.47235
 5031     64.93542   4.19961
 5031.5     64.83638   4.02284
 5032     64.88593   4.21474
 5032.5     64.93549   4.40664
 5033     64.98504   4.59853
 5033.5     65.03459   4.79043
 5034     65.08414   4.98233
 5034.5     65.13369   5.17423
 5035     65.18324   5.36613
 5035.5     65.26506   5.55802
 5036     65.3636   5.74992
 5036.5     65.46215   5.94182
 5037     65.56069   6.13372
 5037.5     65.65924   6.32562
 5038     65.75778   6.17373
 5038.5     65.80476   5.86704
 5039     65.78184   5.56036
 5039.5     65.75893   5.25367
 5040     65.73601   4.94698
 5040.5     65.71309   4.6403
 5041     65.69018   4.33361
 5041.5     65.81816   4.2705
 5042     65.99509   4.44751
 5042.5     66.17202   4.62453
 5043     66.34895   4.80154
 5043.5     66.52588   4.97856
 5044     66.70282   5.15557
 5044.5     66.87975   5.33258
 5045     67.05668   5.5096
 5045.5     67.23361   5.61499
 5046     66.88432   5.30847
 5046.5     66.30285   5.00194
 5047     65.72137   4.79299
 5047.5     65.31856   5.13339
 5048     65.38323   5.47378
 5048.5     65.44789   5.81418
 5049     65.51256   6.15457
 5049.5     65.57722   6.49497
 5050     65.64189   6.70407
 5050.5     65.47644   6.34658
 5051     65.1643   5.9891
 5051.5     64.85216   5.63161
 5052     64.54001   5.27412
 5052.5     64.22787   4.91664
 5053     63.91572   4.55915
 5053.5     63.60358   4.20166
 5054     63.29144   4.45733
 5054.5     63.35661   4.71886
 5055     63.62626   4.98039
 5055.5     63.8959   5.24192
 5056     64.16554   5.50345
 5056.5     64.43518   5.76499
 5057     64.70482   6.02652
