#--------------------------------------------------#
#-------------------ENVERUS, INC.------------------#
#------------------WWW.ENVERUS.COM-----------------#
#------------------COPYRIGHT 2020------------------#
#--------------------------------------------------#
#THIS FILE MAY BE USED ONLY IN ACCORDANCE WITH A CURRENT SUBSCRIPTION AGREEMENT BETWEEN
#THE USER AND ENVERUS, INC. NO PART OF THIS FILE MAY BE REPRODUCED, USED, COPIED,
#MODIFIED, PROPAGATED, OR DISTRIBUTED EXCEPT IN ACCORDANCE WITH THE SUBSCRIPTION
#AGREEMENT. UNAUTHORIZED USE OR DISTRIBUTION OF ALL OR ANY PART OF THIS FILE MAY VIOLATE
#COPYRIGHT, TRADEMARK, AND/OR OTHER LAWS AND IS SUBJECT TO CIVIL AS WELL AS CRIMINAL
#SANCTIONS.
#--------------------------------------------------#
#THIS FILE IS PROVIDED "AS-IS" AND ALL WARRANTIES ARE EXPRESSLY DISCLAIMED, WHETHER
#EXPRESS, ORAL, IMPLIED, STATUTORY OR OTHERWISE, INCLUDING ANY IMPLIED WARRANTY OF FITNESS
#FOR A PARTICULAR PURPOSE, MERCHANTABILITY, TITLE OR NON-INFRINGEMENT, AND ANY WARRANTIES
#ARISING BY VIRTUE OF CUSTOM OF TRADE OR COURSE OF DEALING.  FURTHER, ENVERUS, INC.
#AND ITS LICENSORS DO NOT REPRESENT OR WARRANT THAT THIS FILE WILL MEET USER'S
#REQUIREMENTS OR ARE SUITABLE FOR USER'S NEEDS OR THAT THE DATA OR RESULTS PROVIDED IN
#CONJUNCTION THEREWITH ARE CORRECT, ACCURATE, TIMELY OR RELIABLE. THESE DISCLAIMERS SHALL
#APPLY REGARDLESS OF ANY FAILURE OF ESSENTIAL PURPOSE OF ANY LIMITED REMEDY.  SOME
#JURISDICTIONS DO NOT ALLOW THE EXCLUSION OF CERTAIN WARRANTIES SO SOME OF THE ABOVE
#EXCLUSIONS MAY NOT APPLY. IN NO EVENT SHALL ENVERUS, INC. OR ANY OF ITS AFFILIATES
#BE LIABLE UNDER ANY LEGAL THEORY, WHETHER IN TORT (INCLUDING WITHOUT LIMITATION
#NEGLIGENCE), CONTRACT, STRICT LIABILITY, STATUTORY OR OTHERWISE, FOR ANY SPECIAL,
#INCIDENTAL, CONSEQUENTIAL, EXEMPLARY, PUNITIVE OR INDIRECT DAMAGE OF ANY KIND, INCLUDING
#WITHOUT LIMITATION LOSS OF REVENUE, PROFITS, GOODWILL, USE, AND/OR DATA OR THE COST OF
#PROCUREMENT OF SUBSTITUTE GOODS OR SERVICES, EVEN IF APPRISED OF THE POSSIBILITY OF SUCH
#DAMAGES IN ADVANCE.
#--------------------------------------------------#

~VERSION INFORMATION
VERS. 2.0 : CWLS LOG ASCII STANDARD - VERSION 2.0
WRAP.  NO : ONE LINE PER DEPTH STEP
~WELL INFORMATION
#MNEMONIC     .UNIT              VALUE :DESCRIPTION
STRT       .FT                429 :START DEPTH
STOP       .FT                6365 :STOP DEPTH
STEP       .FT                   0.500 :STEP
NULL       .                  -999.99 :NULL
UWI        .                42371100750000 :UNIQUE WELL ID
API        .                42371100750000 :API NUMBER
COMP       .         :COMPANY
WELL       .        :WELL
DATE       .                 :LOG DATE
FLD       .                 :FIELD NAME
LOC       .                  UNK :LOCATION
CNTY       .                 UNK :COUNTY
STAT       .                 UNK :STATE
CTRY       .                 UNK :COUNTY
SRVC       .                 UNK :SERVICE COMPANY
~CURVE INFORMATION
#MNEMONIC     .UNIT      API CODE :CURVE DESCRIPTION
DEPTH       .FT                      :MEASURED DEPTH
DT.MSEC/FT        UNKNOWN   :DT
GR.API        UNKNOWN   :GR
~A    DEPTH    DT    GR
# ...
 4348.5     49.0311   15.60911
 4349     49.00798   16.1538
 4349.5     49.15634   16.69849
 4350     49.30469   17.24318
 4350.5     49.45305   17.78787
 4351     49.60141   18.31808
 4351.5     49.74976   18.78891
 4352     49.97375   19.25973
 4352.5     50.23841   19.73056
 4353     50.50308   20.20138
 4353.5     50.76774   20.69972
 4354     51.0324   21.21008
 4354.5     51.29706   20.46656
 4355     51.17781   19.67945
 4355.5     50.36859   18.89235
 4356     49.59586   17.97452
 4356.5     50.59785   17.02731
 4357     51.59984   16.07597
 4357.5     52.60183   14.76649
 4358     55.54037   13.70317
 4358.5     59.32175   13.36384
 4359     63.10313   13.33041
 4359.5     66.88451   14.86051
 4360     70.6659   16.27635
 4360.5     74.44728   17.69218
 4361     74.12973   18.06084
 4361.5     72.33159   16.76606
 4362     70.27823   15.47127
 4362.5     68.22487   14.78834
 4363     67.6678   14.39873
 4363.5     69.07491   14.22843
 4364     70.48202   14.05812
 4364.5     64.49087   13.81185
 4365     59.51471   13.44843
 4365.5     54.8031   13.08501
 4366     50.09149   13.00639
 4366.5     45.37988   12.94209
 4367     45.74726   13.10407
 4367.5     47.52225   14.36595
 4368     49.29723   15.62784
 4368.5     50.63827   16.88972
 4369     50.6384   17.57331
 4369.5     50.63853   17.34682
 4370     50.63865   17.12033
 4370.5     50.63878   16.6849
 4371     52.05217   15.63669
 4371.5     51.83445   14.58849
 4372     51.61673   13.54028
 4372.5     51.399   12.49207
 4373     51.18128   12.43093
 4373.5     55.03199   12.80632
 4374     59.12448   13.1817
 4374.5     62.7993   13.55709
 4375     65.57822   13.93248
 4375.5     68.35714   14.30787
 4376     71.13606   14.60765
 4376.5     73.91498   14.3024
 4377     76.6939   13.77498
 4377.5     73.99097   12.86529
 4378     70.8431   11.9556
 4378.5     67.69522   11.04592
 4379     59.2842   11.27394
 4379.5     50.53731   11.68191
 4380     52.40202   12.08988
 4380.5     54.26673   12.7756
 4381     56.13144   13.87551
 4381.5     59.56328   14.97543
 4382     64.8794   16.72578
 4382.5     64.89862   18.48183
 4383     58.35465   20.23787
 4383.5     48.60327   20.21709
 4384     43.76839   18.84518
 4384.5     45.82458   17.47326
 4385     47.88077   16.10134
 4385.5     49.17688   15.58407
 4386     49.29852   15.43776
 4386.5     49.42015   15.41813
 4387     49.54179   15.75753
 4387.5     49.67186   16.09694
 4388     50.05314   16.43634
 4388.5     50.43442   16.77574
 4389     50.81569   17.02227
 4389.5     50.547   15.88779
 4390     50.16929   14.75331
 4390.5     49.79159   13.61883
 4391     49.5357   12.48435
 4391.5     49.64225   11.34987
 4392     49.7488   11.05281
 4392.5     49.85535   11.79699
 4393     49.96191   12.54116
 4393.5     50.01493   13.28534
 4394     49.92534   14.28903
 4394.5     49.83575   15.43462
 4395     49.74616   16.58022
 4395.5     49.65657   17.72581
 4396     49.56699   18.56842
 4396.5     49.4774   17.96002
 4397     49.44571   17.35161
 4397.5     49.46621   16.7432
 4398     49.48672   16.89346
 4398.5     49.50722   17.40385
 4399     49.39551   17.91423
 4399.5     49.25418   18.42462
 4400     49.11284   17.8731
 4400.5     48.97151   16.36492
 4401     49.0995   13.95771
 4401.5     49.45757   11.27531
 4402     49.81468   11.23431
 4402.5     49.81482   11.23343
 4403     49.81496   11.23254
 4403.5     49.81509   11.23166
 4404     49.81523   11.75159
 4404.5     49.81537   12.39015
 4405     49.81551   13.02872
 4405.5     49.80699   13.66729
 4406     49.76615   14.30585
 4406.5     49.72531   14.67499
 4407     49.68447   14.3653
 4407.5     49.64362   14.05562
 4408     49.60278   13.74594
 4408.5     49.56194   13.43625
 4409     49.5211   13.12657
 4409.5     49.48026   12.81688
 4410     49.43941   12.5072
 4410.5     49.38392   12.40337
 4411     49.32812   12.86215
 4411.5     49.27231   13.32094
 4412     49.21651   13.77972
 4412.5     49.16071   14.53506
 4413     49.1049   15.36187
 4413.5     49.12618   16.18868
 4414     49.42587   17.01548
 4414.5     49.72556   17.74123
 4415     49.77576   18.25182
 4415.5     49.71433   18.1617
 4416     49.6529   17.65428
 4416.5     49.59111   17.14685
 4417     49.42995   16.63942
 4417.5     49.26878   16.65825
 4418     49.10762   16.85336
 4418.5     48.94645   17.04847
 4419     48.78529   17.24358
 4419.5     48.62413   17.43869
 4420     49.44814   17.6338
 4420.5     49.40097   17.8289
 4421     49.3538   18.02401
 4421.5     49.30663   18.21912
 4422     49.25946   17.77411
 4422.5     49.2123   17.08905
 4423     49.16513   16.40399
 4423.5     49.17798   15.71892
 4424     49.26186   15.03386
 4424.5     49.34574   14.34879
 4425     49.42961   14.8229
 4425.5     49.51349   15.61902
 4426     49.59737   16.41514
 4426.5     49.68125   16.67227
 4427     49.76512   16.67137
 4427.5     49.849   16.67047
 4428     49.93288   15.89471
 4428.5     49.9387   15.02792
 4429     49.87163   14.70503
 4429.5     49.80456   15.06137
 4430     49.7375   15.4177
 4430.5     49.67043   15.77404
 4431     49.60337   16.64099
 4431.5     49.5363   17.51863
 4432     49.55145   17.63201
 4432.5     49.59235   17.15608
 4433     49.63324   16.68014
 4433.5     49.67414   16.2042
 4434     49.71504   15.72827
 4434.5     49.75593   15.25233
 4435     49.79683   15.32545
 4435.5     49.81404   15.40953
 4436     49.78346   16.23442
 4436.5     49.75288   17.14464
 4437     49.72231   18.05485
 4437.5     49.69173   18.08281
 4438     49.66115   17.87882
 4438.5     49.63058   17.67483
 4439     49.6   17.47084
 4439.5     49.7025   17.26685
 4440     49.81312   17.06286
 4440.5     49.92374   16.85887
 4441     50.03436   16.95439
 4441.5     50.14498   17.11156
 4442     50.2556   17.26872
 4442.5     50.3432   17.42588
 4443     50.20705   17.58305
 4443.5     50.07091   17.74021
 4444     49.93476   17.89738
 4444.5     49.79862   18.05454
 4445     49.66248   18.2117
 4445.5     49.52633   18.36887
 4446     49.56843   18.05089
 4446.5     49.61302   17.58567
 4447     49.6576   17.12045
 4447.5     49.70219   16.65523
 4448     49.74678   16.19001
 4448.5     49.79137   15.72479
 4449     49.81337   15.25957
 4449.5     49.72713   14.79435
 4450     49.64089   14.427
 4450.5     49.55466   14.21445
 4451     49.46842   14.0019
 4451.5     49.38218   13.78935
 4452     49.3022   13.9868
 4452.5     49.36336   15.73348
 4453     49.42452   17.48016
 4453.5     49.48567   19.22684
 4454     49.54683   20.97352
 4454.5     49.60798   21.7394
 4455     49.66914   22.19205
 4455.5     49.679   22.6447
 4456     49.67916   22.66729
 4456.5     49.67931   22.44872
 4457     49.69062   21.87722
 4457.5     49.77198   19.93235
 4458     49.85335   17.98747
 4458.5     49.93472   16.09496
 4459     50.01609   16.55843
 4459.5     50.09746   17.02189
 4460     50.17883   17.48535
 4460.5     50.26019   17.80372
 4461     50.2014   17.59118
 4461.5     50.07768   17.37864
 4462     49.95397   17.1661
 4462.5     49.96745   16.9725
 4463     50.06225   17.27739
 4463.5     50.15706   17.85251
 4464     50.25186   19.05082
 4464.5     50.34666   20.07376
 4465     50.4336   20.53699
 4465.5     50.26807   21.00023
 4466     50.10255   21.46346
 4466.5     49.93702   21.63369
 4467     49.7715   21.41529
 4467.5     49.60598   21.19688
 4468     49.56869   19.82297
 4468.5     49.63658   18.43979
 4469     49.70447   17.0878
 4469.5     49.77236   15.87903
 4470     49.84025   14.67026
 4470.5     49.90814   13.46149
 4471     49.91984   13.52048
 4471.5     49.92943   14.21383
 4472     49.93903   14.90717
 4472.5     49.94862   15.60051
 4473     49.95822   16.29385
 4473.5     49.96781   16.11151
 4474     49.97741   15.74847
 4474.5     49.987   15.19887
 4475     49.90696   14.35707
 4475.5     49.82071   13.73283
 4476     49.73445   13.64715
 4476.5     49.6482   13.68119
 4477     49.56194   14.19109
 4477.5     49.47568   14.70098
 4478     47.38715   15.21088
 4478.5     44.82015   15.72078
