###############################################
##         ENVERUS                           ##
##         Petrophysical Curves              ##
##         PERMIAN / DELAWARE                ##
##         Jan 21 2022                       ##
##         42-371-36857-00-00                ##
###############################################
## Copyright 2017-2022  ENVERUS.  All Rights Reserved. 
## Confidential - Property of ENVERUS, use governed by terms and 
## conditions found within the existing Information Services Subscription Agreement 
## (as may be amended, the “ISSA”) between Customer and ENVERUS. 
## 
~VERSION INFORMATION
# MNEM.UNIT                               DATA : DESCRIPTION OF MNEMONIC
#-----.-----     ----------------------------- : -----------------------------
VERS.                                     2.00 : CWLS LOG ASCII STANDARD - VERSION 2.00
WRAP.                                       NO : MULTIPLE LINES PER DEPTH STEP
VEND.                                  ENVERUS : VENDOR
TYPE.                     PETROPHYSICAL CURVES : ENVERUS PETROPHYSICAL CURVES - ACCESSIBLE THROUGH ENVERUS CORE(TM)
#___________________________________________________________________________________________________ 
~WELL INFORMATION 
# uyaQ8P8kQDJ9DXFS5hR1PxmExEOYaAUkY5f3/tnOS+scoPAUWgXA1zCIHGRbWCuSuUcwDzaESCjqjWQ81XhadA== 
# MNEM.UNIT                                              DATA : DESCRIPTION OF MNEMONIC 
#-----.-----                    ----------------------------- : ----------------------------- 
CNTY.                                                   PECOS : COUNTY 
STATE.                                                  TEXAS : STATE 
CNTRY.                                                    USA : COUNTRY 
API.                                             42-371-36857 : API (10 Digit) 
API_14.                                    42-371-36857-00-00 : API (14 Digits) 
API_14_std.                                 42-371-36857-0000 : API (14 Digits Standard) 
UWI.                                           42371368570000 : UNIQUE WELL ID
STRT.FT                                                7870.0 : START DEPTH
STOP.FT                                               16592.5 : STOP DEPTH
STEP.FT                                                   0.5 : STEP BETWEEN DEPTHS
NULL.                                                 -999.25 : NULL VALUE
COMP.                                             DIAMONDBACK : COMPANY 
WELL.                                         MOORE-GILMORE 1 : WELL NAME 
FLD.                                               WAHA  WEST : FIELD NAME
#___________________________________________________________________________________________________ 
~CURVE INFORMATION 
#    Zone Description
#          1 = Upper Avalon
#          2 = Middle Avalon
#          3 = Lower Avalon
#          4 = 1st Bone Spring
#          5 = 2nd Bone Spring
#          6 = 2nd Bone Spring Sand
#          7 = 3rd Bone Spring
#          8 = 3rd Bone Spring Sand
#          9 = Wolfcamp XY
#          10 = Wolfcamp A Upper
#          11 = Wolfcamp A Lower
#          12 = Wolfcamp B Upper
#          13 = Wolfcamp B Lower
#          14 = Wolfcamp C
#          15 = Wolfcamp D
#          16 = Pennsylvanian Shale
#          17 = Lower Pennsylvanian Shale
#          18 = Barnett
#          19 = Barnett Lower
#          20 = Mississippian Lime
#          21 = Woodford
#          22 = Base Woodford 
# MNEM.UNIT           : CURVE DESCRIPTION 
#-----.-----          : ----------------------------- 
 DEPT.FT               : MEASURED DEPTH 
 TVD_I.FT              : ENVERUS TRUE VERTICAL DEPTH 
 ZONE_I.               : ENVERUS DEFINED ZONE CODE 
 GR_N_I.API            : ENVERUS NORMALIZED GAMMA RAY LEVERAGED IN GEOLOGICAL MODELLING 
 RESD_I.OHMM           : ENVERUS DEEP RESISTIVITY LEVERAGED IN GEOLOGICAL MODELLING 
 DPHI_I.V/V            : ENVERUS INTERPRETED DENSITY POROSITY USING A 2.71 G/CC MATRIX DENSITY 
 PHIE_I.V/V            : ENVERUS INTERPRETED EFFECTIVE POROSITY 
 SW_I.V/V              : ENVERUS INTERPRETED WATER SATURATION USING MODIFIED SIMANDOUX EQUATION 
 TOC_I.WT%             : ENVERUS INTERPRETED TOTAL ORGANIC CARBON USING MULTI-LINEAR REGRESSION 
 VCLAY_I.V/V           : ENVERUS INTERPRETED CLAY VOLUMES USING MULTI-LINEAR REGRESSION 
 NVCLAY_I.V/V          : ENVERUS INTERPRETED NON CLAY VOLUMES 
 HCPV_I.V/V            : ENVERUS INTERPRETED HYDROCARBON PORE VOLUME 
 OOIP_I.MMBBL/SEC      : ENVERUS INTERPRETED ORIGINAL OIL IN PLACE 
 OGIP_I.BCF/SEC        : ENVERUS INTERPRETED ORIGINAL GAS IN PLACE 
 TEMP_I.DEGF           : ENVERUS INTERPRETED TEMPERATURE DERIVED FROM BOTTOM HOLE TEMPERATURES 
 #___________________________________________________________________________________________________ 
~A         DEPT          TVD_I         ZONE_I         GR_N_I         RESD_I         DPHI_I         PHIE_I           SW_I          TOC_I        VCLAY_I       NVCLAY_I         HCPV_I         OOIP_I         OGIP_I         TEMP_I
# ...
         8932.0       8932.000        -999.25         44.160      -999.2500        0.12730        0.11160        0.07660        2.59760        0.12330        0.76520        0.09330        0.48710     2003.86170        401.640
         8932.5       8932.500        -999.25         42.639      -999.2500        0.13560        0.11920        0.08650        2.72440        0.12030        0.76040        0.09840        0.51510     2119.04320        401.659
         8933.0       8933.000        -999.25         47.705      -999.2500        0.13240        0.11420        0.09350        2.78650        0.13720        0.74860        0.09240        0.48970     2014.61410        401.677
         8933.5       8933.500        -999.25         56.174      -999.2500        0.12730        0.10690        0.09920        2.88320        0.16080        0.73240        0.08460        0.45510     1872.58190        401.696
         8934.0       8934.000        -999.25         65.086      -999.2500        0.12230        0.09970        0.10520        2.98940        0.18440        0.71590        0.07790        0.42200     1736.38130        401.715
         8934.5       8934.500        -999.25         74.167      -999.2500        0.12640        0.10100        0.11110        3.26650        0.20140        0.69770        0.07870        0.42440     1746.23560        401.734
         8935.0       8934.999        -999.25         86.204      -999.2500        0.13340        0.10290        0.11030        3.68960        0.22840        0.66870        0.08170        0.43310     1781.95910        401.753
         8935.5       8935.499        -999.25         99.444      -999.2500        0.14040        0.10140        0.09180        4.21060        0.27760        0.62100        0.08410        0.43540     1791.76750        401.772
         8936.0       8936.000        -999.25        112.840      -999.2500        0.14730        0.10770        0.09220        4.56630        0.26830        0.62390        0.09070        0.46250     1903.12490        401.791
         8936.5       8936.500        -999.25        126.216      -999.2500        0.14980        0.11150        0.09330        4.83610        0.25560        0.63290        0.09450        0.47820     1967.96890        401.810
         8937.0       8937.000        -999.25        139.588      -999.2500        0.15250        0.11590        0.09500        5.10630        0.23970        0.64440        0.09830        0.49610     2041.50610        401.829
         8937.5       8937.500        -999.25        148.499      -999.2500        0.15480        0.12010        0.09610        5.28780        0.22440        0.65550        0.10190        0.51320     2112.06760        401.848
         8938.0       8938.000        -999.25        143.491      -999.2500        0.15490        0.12100        0.09720        5.17150        0.21870        0.66030        0.10240        0.51650     2125.94970        401.867
         8938.5       8938.500        -999.25        138.635      -999.2500        0.15440        0.11890        0.09700        5.09860        0.22960        0.65140        0.10060        0.50780     2090.23320        401.886
         8939.0       8939.000        -999.25        134.410      -999.2500        0.15340        0.11650        0.09600        5.02600        0.24030        0.64310        0.09870        0.49810     2050.28340        401.905
         8939.5       8939.500        -999.25        136.690      -999.2500        0.14850        0.11070        0.09170        5.00980        0.25470        0.63460        0.09570        0.47550     1957.32980        401.924
         8940.0       8940.001        -999.25        139.119      -999.2500        0.14250        0.10380        0.06830        4.98080        0.27130        0.62490        0.09150        0.45740     1882.92790        401.943
         8940.5       8940.500        -999.25        122.647      -999.2500        0.13740        0.10220        0.06020        4.51730        0.25590        0.64180        0.09050        0.45430     1870.05970        401.962
         8941.0       8941.000        -999.25        101.681      -999.2500        0.12530        0.09560        0.05180        3.83120        0.23750        0.66700        0.08370        0.42850     1763.96580        401.981
         8941.5       8941.500        -999.25         78.056      -999.2500        0.10060        0.07870        0.03960        2.86950        0.21790        0.70340        0.06670        0.35720     1470.73840        402.000
         8942.0       8941.999        -999.25         79.961      -999.2500        0.07910        0.06250        0.02560        2.42540        0.20990        0.72760        0.05020        0.28800     1185.85390        402.019
         8942.5       8942.500        -999.25         85.185      -999.2500        0.09400        0.07340        0.07300        2.83320        0.21850        0.70810        0.05830        0.32190     1325.13890        402.038
         8943.0       8943.000        -999.25         90.604      -999.2500        0.10870        0.08360        0.09570        3.26030        0.23060        0.68580        0.06690        0.35760     1472.53450        402.057
         8943.5       8943.500        -999.25         95.323      -999.2500        0.12360        0.09410        0.10460        3.67070        0.23830        0.66760        0.07670        0.39850     1640.95410        402.076
         8944.0       8944.000        -999.25         93.298      -999.2500        0.12220        0.09400        0.10400        3.58490        0.23050        0.67540        0.07650        0.39850     1640.81290        402.095
         8944.5       8944.500        -999.25         90.888      -999.2500        0.12530        0.09760        0.10100        3.58040        0.22120        0.68120        0.08000        0.41490     1708.49480        402.113
         8945.0       8945.000        -999.25         88.703      -999.2500        0.13050        0.10100        0.09390        3.66530        0.22550        0.67350        0.08420        0.43290     1782.76650        402.132
         8945.5       8945.500        -999.25         98.662      -999.2500        0.13380        0.10290        0.09230        3.92190        0.23080        0.66620        0.08660        0.44170     1819.17660        402.151
         8946.0       8946.000        -999.25        108.764      -999.2500        0.13390        0.10370        0.09910        4.08760        0.22570        0.67060        0.08690        0.44170     1819.23440        402.170
         8946.5       8946.501        -999.25        118.997      -999.2500        0.13360        0.10330        0.10340        4.27240        0.22690        0.66980        0.08670        0.43800     1803.83750        402.189
         8947.0       8947.000        -999.25        122.834      -999.2500        0.13090        0.09950        0.10290        4.32460        0.23980        0.66070        0.08330        0.42210     1738.43480        402.208
         8947.5       8947.500        -999.25        123.527      -999.2500        0.12650        0.09390        0.09910        4.29820        0.25770        0.64840        0.07850        0.40020     1648.42330        402.227
         8948.0       8948.000        -999.25        124.205      -999.2500        0.12220        0.08980        0.09940        4.23760        0.26470        0.64550        0.07440        0.38260     1575.69250        402.246
         8948.5       8948.500        -999.25        132.382      -999.2500        0.12030        0.08910        0.10600        4.33600        0.25890        0.65200        0.07310        0.37690     1552.41540        402.265
         8949.0       8949.000        -999.25        139.326      -999.2500        0.11020        0.08140        0.09800        4.26640        0.26200        0.65660        0.06610        0.34700     1429.51270        402.284
         8949.5       8949.500        -999.25        129.975      -999.2500        0.10010        0.07340        0.06930        3.88970        0.26710        0.65950        0.05990        0.32290     1330.16670        402.303
