###############################################
##         ENVERUS                           ##
##         ESS - Open Hole                   ##
##         PERMIAN / DELAWARE                ##
##         Nov 04 2023  V4.0                 ##
##         42-389-10116-00-00                ##
###############################################
## Copyright 2017-2023  ENVERUS.  All Rights Reserved. 
## Confidential - Property of ENVERUS, use governed by terms and 
## conditions found within the existing Information Services Subscription Agreement 
## (as may be amended, the “ISSA”) between Customer and ENVERUS. 
## 
~VERSION INFORMATION
# MNEM.UNIT                               DATA : DESCRIPTION OF MNEMONIC
#-----.-----     ----------------------------- : -----------------------------
VERS.                                     2.00 : CWLS LOG ASCII STANDARD - VERSION 2.00
WRAP.                                       NO : MULTIPLE LINES PER DEPTH STEP
VEND.                                  ENVERUS : VENDOR
TYPE.                          ESS - OPEN HOLE : ENVERUS ESSENTIAL CURVES – ACCESSIBLE THROUGH ENVERUS PRISM(TM)
DOC.                                  31818149 : ENVERUS HEADER RAW DOCUMENT ID
#___________________________________________________________________________________________________ 
~WELL INFORMATION 
# kxSJJvG4Ro99GqojvmaAoFb8nmZsGWyMBdB6Op61yYkHZj6VRdx+Ef4kBXz5Syac/VH6awax3Ll89xsC2rvs8g== 
# MNEM.UNIT                                              DATA : DESCRIPTION OF MNEMONIC 
#-----.-----                    ----------------------------- : ----------------------------- 
CNTY.                                                  REEVES : COUNTY 
STATE.                                                  TEXAS : STATE 
CNTRY.                                                    USA : COUNTRY 
API.                                             42-389-10116 : API (10 Digit) 
API_14.                                    42-389-10116-00-00 : API (14 Digits) 
API_14_std.                                 42-389-10116-0000 : API (14 Digits Standard) 
UWI.                                           42389101160000 : UNIQUE WELL ID 
WELL.                                            WOODS -A-  1 : WELL NAME
STRT.FT                                                 107.0 : START DEPTH
STOP.FT                                                5258.0 : STOP DEPTH
STEP.FT                                                   0.5 : STEP BETWEEN DEPTHS
NULL.                                                 -999.25 : NULL VALUE
COMP.                              PHILLIPS PETROLEUM COMPANY : COMPANY
#___________________________________________________________________________________________________ 
~CURVE INFORMATION 
# MNEM.UNIT           : CURVE DESCRIPTION 
#-----.-----          : ----------------------------- 
 DEPT.FT               : MEASURED DEPTH 
 GR.API                : GAMMA RAY (GR) 
 DT.US/FT              : SONIC DELTA TRANSIT TIME (DT) 
 #___________________________________________________________________________________________________ 
~A         DEPT             GR             DT
# ...
         2456.0         11.656         53.259
         2456.5         10.015         54.366
         2457.0          8.374         53.649
         2457.5          6.733         52.340
         2458.0          6.343         51.461
         2458.5          6.975         51.137
         2459.0          7.607         50.813
         2459.5          8.239         50.681
         2460.0          8.872         50.708
         2460.5          9.504         50.735
         2461.0          9.585         50.762
         2461.5          9.508         50.789
         2462.0          9.432         50.816
         2462.5          9.355         50.811
         2463.0          9.279         50.680
         2463.5          9.202         50.549
         2464.0          9.126         50.418
         2464.5          9.049         50.287
         2465.0          8.973         50.156
         2465.5          9.613         50.088
         2466.0         10.858         50.121
         2466.5         12.104         50.155
         2467.0         13.349         50.188
         2467.5         14.843         50.222
         2468.0         17.080         50.255
         2468.5         19.317         50.289
         2469.0         20.686         50.379
         2469.5         20.911         50.518
         2470.0         21.136         50.656
         2470.5         21.361         50.794
         2471.0         16.510         50.932
         2471.5         12.532         51.071
         2472.0         12.202         51.209
         2472.5         11.873         51.347
         2473.0         11.544         51.485
         2473.5         11.602         51.624
         2474.0         11.969         51.762
         2474.5         12.336         51.900
         2475.0         12.703         52.038
         2475.5         13.071         52.176
         2476.0         13.250         52.315
         2476.5         12.838         52.756
         2477.0         12.427         53.254
         2477.5         12.214         55.985
         2478.0         12.439         59.099
         2478.5         12.664         56.219
         2479.0         12.888         52.087
         2479.5         13.113         56.071
         2480.0         11.497         53.923
         2480.5         11.631         54.106
         2481.0         11.841         55.165
         2481.5         12.052         54.319
         2482.0         12.263         53.167
         2482.5         12.474         53.885
         2483.0         12.586         54.602
         2483.5         12.138         55.128
         2484.0         11.689         54.024
         2484.5         11.240         52.919
         2485.0         10.792         51.815
         2485.5         10.343         51.543
         2486.0         10.632         51.443
         2486.5         11.137         51.344
         2487.0         11.642         51.244
         2487.5         12.147         51.144
         2488.0         12.370         51.045
         2488.5         12.225         50.945
         2489.0         12.081         50.846
         2489.5         11.937         51.151
         2490.0         11.793         51.761
         2490.5         11.648         52.371
         2491.0         11.504         52.981
         2491.5         11.360         54.015
         2492.0         11.012         59.908
         2492.5          9.629         65.801
         2493.0          8.245         68.084
         2493.5          7.101         67.091
         2494.0          6.979         66.097
         2494.5          6.857         66.180
         2495.0          6.734         66.621
         2495.5          6.612         67.062
         2496.0          6.489         67.503
         2496.5          6.357         67.327
         2497.0          6.206         66.983
         2497.5          6.055         66.639
         2498.0          5.904         67.384
         2498.5          5.753         67.214
         2499.0          5.601         66.918
         2499.5          5.478         66.621
         2500.0          6.300         66.325
         2500.5          7.123         66.688
         2501.0          7.946         67.585
         2501.5          8.315         67.833
         2502.0          6.732         67.523
         2502.5          5.514         67.213
         2503.0          5.743         66.903
         2503.5          5.973         66.749
         2504.0          6.203         67.219
         2504.5          6.433         67.690
         2505.0          6.663         67.789
         2505.5          6.613         67.745
         2506.0          6.524         67.701
         2506.5          6.436         67.656
         2507.0          6.347         67.612
         2507.5          6.259         67.404
         2508.0          6.170         66.917
         2508.5          6.082         66.429
         2509.0          5.993         66.343
         2509.5          5.905         66.668
         2510.0          5.816         66.304
         2510.5          5.828         65.311
         2511.0          6.287         64.622
         2511.5          6.746         65.410
         2512.0          7.205         66.197
         2512.5          7.664         66.985
         2513.0          8.123         67.773
         2513.5          7.905         67.916
         2514.0          7.590         67.721
         2514.5          7.276         67.525
         2515.0          6.962         67.330
         2515.5          6.648         67.135
         2516.0          6.729         66.939
         2516.5          7.188         63.493
         2517.0          7.647         58.828
         2517.5          8.106         56.798
         2518.0          8.565         55.578
         2518.5          9.033         55.815
         2519.0          9.538         55.496
         2519.5         10.043         54.310
         2520.0         10.548         58.597
         2520.5         11.052         67.488
         2521.0         11.557         69.123
         2521.5         12.062         70.758
         2522.0         11.673         68.717
         2522.5         10.208         66.634
         2523.0          8.743         66.144
         2523.5          8.640         66.276
         2524.0          8.571         66.408
         2524.5          8.502         66.539
         2525.0          8.653         54.114
         2525.5          8.969         56.770
         2526.0          9.284         59.427
         2526.5          9.599         62.084
         2527.0          9.418         64.740
         2527.5          9.030         67.397
         2528.0          8.642         68.400
         2528.5          8.254         67.986
         2529.0          7.866         67.573
         2529.5          7.478         67.159
         2530.0          7.090         67.141
         2530.5          6.903         67.442
         2531.0          6.745         67.743
         2531.5          6.587         68.044
         2532.0          6.428         68.345
         2532.5          6.270         68.603
         2533.0          6.112         68.586
         2533.5          5.954         68.570
         2534.0          5.796         68.553
         2534.5          5.638         68.537
         2535.0          5.480         68.520
         2535.5          5.322         68.503
         2536.0          5.164         68.487
         2536.5          5.006         68.405
         2537.0          4.971         68.310
         2537.5          5.307         68.215
         2538.0          5.644         68.120
         2538.5          5.980         68.025
         2539.0          6.317         67.930
         2539.5          6.315         67.848
         2540.0          6.274         68.179
         2540.5          6.233         68.509
         2541.0          6.193         68.840
         2541.5          6.152         69.171
         2542.0          6.111         69.421
         2542.5          6.071         68.933
