#--------------------------------------------------#
#-------------------ENVERUS, INC.------------------#
#------------------WWW.ENVERUS.COM-----------------#
#------------------COPYRIGHT 2020------------------#
#--------------------------------------------------#
#THIS FILE MAY BE USED ONLY IN ACCORDANCE WITH A CURRENT SUBSCRIPTION AGREEMENT BETWEEN
#THE USER AND ENVERUS, INC. NO PART OF THIS FILE MAY BE REPRODUCED, USED, COPIED,
#MODIFIED, PROPAGATED, OR DISTRIBUTED EXCEPT IN ACCORDANCE WITH THE SUBSCRIPTION
#AGREEMENT. UNAUTHORIZED USE OR DISTRIBUTION OF ALL OR ANY PART OF THIS FILE MAY VIOLATE
#COPYRIGHT, TRADEMARK, AND/OR OTHER LAWS AND IS SUBJECT TO CIVIL AS WELL AS CRIMINAL
#SANCTIONS.
#--------------------------------------------------#
#THIS FILE IS PROVIDED "AS-IS" AND ALL WARRANTIES ARE EXPRESSLY DISCLAIMED, WHETHER
#EXPRESS, ORAL, IMPLIED, STATUTORY OR OTHERWISE, INCLUDING ANY IMPLIED WARRANTY OF FITNESS
#FOR A PARTICULAR PURPOSE, MERCHANTABILITY, TITLE OR NON-INFRINGEMENT, AND ANY WARRANTIES
#ARISING BY VIRTUE OF CUSTOM OF TRADE OR COURSE OF DEALING.  FURTHER, ENVERUS, INC.
#AND ITS LICENSORS DO NOT REPRESENT OR WARRANT THAT THIS FILE WILL MEET USER'S
#REQUIREMENTS OR ARE SUITABLE FOR USER'S NEEDS OR THAT THE DATA OR RESULTS PROVIDED IN
#CONJUNCTION THEREWITH ARE CORRECT, ACCURATE, TIMELY OR RELIABLE. THESE DISCLAIMERS SHALL
#APPLY REGARDLESS OF ANY FAILURE OF ESSENTIAL PURPOSE OF ANY LIMITED REMEDY.  SOME
#JURISDICTIONS DO NOT ALLOW THE EXCLUSION OF CERTAIN WARRANTIES SO SOME OF THE ABOVE
#EXCLUSIONS MAY NOT APPLY. IN NO EVENT SHALL ENVERUS, INC. OR ANY OF ITS AFFILIATES
#BE LIABLE UNDER ANY LEGAL THEORY, WHETHER IN TORT (INCLUDING WITHOUT LIMITATION
#NEGLIGENCE), CONTRACT, STRICT LIABILITY, STATUTORY OR OTHERWISE, FOR ANY SPECIAL,
#INCIDENTAL, CONSEQUENTIAL, EXEMPLARY, PUNITIVE OR INDIRECT DAMAGE OF ANY KIND, INCLUDING
#WITHOUT LIMITATION LOSS OF REVENUE, PROFITS, GOODWILL, USE, AND/OR DATA OR THE COST OF
#PROCUREMENT OF SUBSTITUTE GOODS OR SERVICES, EVEN IF APPRISED OF THE POSSIBILITY OF SUCH
#DAMAGES IN ADVANCE.
#--------------------------------------------------#

~VERSION INFORMATION
VERS. 2.0 : CWLS LOG ASCII STANDARD - VERSION 2.0
WRAP.  NO : ONE LINE PER DEPTH STEP
~WELL INFORMATION
#MNEMONIC     .UNIT              VALUE :DESCRIPTION
STRT       .FT                102 :START DEPTH
STOP       .FT                9071 :STOP DEPTH
STEP       .FT                   0.500 :STEP
NULL       .                  -999.99 :NULL
UWI        .                42389104910000 :UNIQUE WELL ID
API        .                42389104910000 :API NUMBER
COMP       .         :COMPANY
WELL       .        :WELL
DATE       .                 :LOG DATE
FLD       .                 :FIELD NAME
LOC       .                  UNK :LOCATION
CNTY       .                 UNK :COUNTY
STAT       .                 UNK :STATE
CTRY       .                 UNK :COUNTY
SRVC       .                 UNK :SERVICE COMPANY
~CURVE INFORMATION
#MNEMONIC     .UNIT      API CODE :CURVE DESCRIPTION
DEPTH       .FT                      :MEASURED DEPTH
DT.MSEC/FT        UNKNOWN   :DT
GR.API        UNKNOWN   :GR
~A    DEPTH    DT    GR
# ...
 3710     79.63411   2.46943
 3710.5     75.4461   2.26393
 3711     71.25809   2.05843
 3711.5     67.69134   1.95603
 3712     67.82963   2.56268
 3712.5     67.96792   3.16934
 3713     68.10621   3.77599
 3713.5     68.2445   4.2334
 3714     68.40069   4.07959
 3714.5     68.5666   3.92578
 3715     68.7325   3.77197
 3715.5     68.89841   3.61817
 3716     69.00142   3.46436
 3716.5     68.76427   3.31055
 3717     68.52712   3.15674
 3717.5     68.28996   3.00293
 3718     68.05281   3.1427
 3718.5     67.81566   3.37238
 3719     67.57851   3.60207
 3719.5     68.71437   3.83175
 3720     69.98907   4.06143
 3720.5     71.26376   4.29111
 3721     72.53846   4.5208
 3721.5     73.81315   4.75048
 3722     73.0564   4.98016
 3722.5     69.98918   5.09043
 3723     68.98905   4.76235
 3723.5     69.2994   4.43426
 3724     69.60975   4.10618
 3724.5     69.21722   3.77809
 3725     68.66587   3.45001
 3725.5     68.11452   3.12193
 3726     67.56317   3.48574
 3726.5     67.01182   4.63034
 3727     71.31379   5.77495
 3727.5     78.14825   6.91956
 3728     84.98271   8.06416
 3728.5     91.81717   7.40979
 3729     96.16628   6.71648
 3729.5     96.77423   6.02318
 3730     96.75732   5.32988
 3730.5     96.74041   4.63658
 3731     96.7235   3.94327
 3731.5     96.70659   3.24997
 3732     96.68968   2.55667
 3732.5     96.67277   1.86337
 3733     96.65586   1.43917
 3733.5     96.63895   1.38351
 3734     96.62204   1.32785
 3734.5     96.60513   1.27219
 3735     96.58822   1.21653
 3735.5     96.57131   1.16087
 3736     96.55441   1.10522
 3736.5     96.53969   1.04956
 3737     96.53295   .9939
 3737.5     96.52622   .93824
 3738     96.51948   .88258
 3738.5     96.51275   .82692
 3739     96.50601   .77126
 3739.5     96.49928   .71561
 3740     96.49254   .65995
 3740.5     96.48581   .60429
 3741     96.47907   .54863
 3741.5     96.47234   .54219
 3742     96.4656   .57276
 3742.5     96.45887   .60332
 3743     96.45213   .63389
 3743.5     96.4454   .66446
 3744     96.43866   .69502
 3744.5     96.43192   .72559
 3745     96.42733   .75616
 3745.5     96.42793   .78672
 3746     96.42852   .81729
 3746.5     96.42912   .84785
 3747     96.42972   .87842
 3747.5     96.43032   .90899
 3748     96.43533   .93955
 3748.5     96.48481   .97012
 3749     96.53429   1.00069
 3749.5     96.58376   1.03125
 3750     96.63324   1.05366
 3750.5     96.67935   1.03333
 3751     96.57697   1.01299
 3751.5     96.47458   .99265
 3752     96.3722   .97232
 3752.5     96.26981   .95198
 3753     96.16743   .93164
 3753.5     96.06504   .9113
 3754     95.96265   .89097
 3754.5     95.86027   .87063
 3755     95.75788   .85029
 3755.5     95.7328   .82995
 3756     95.8214   .80962
 3756.5     95.91   .78928
 3757     95.9986   .76894
 3757.5     96.0872   .74861
 3758     96.1758   .72827
 3758.5     96.2644   .70793
 3759     96.35299   .68759
 3759.5     96.44159   .67646
 3760     96.41861   .7849
 3760.5     96.39184   .86677
 3761     96.36507   .90665
 3761.5     96.33829   .94652
 3762     96.31804   .98639
 3762.5     96.30574   1.02626
 3763     96.29344   1.06613
 3763.5     96.28114   1.106
 3764     96.26883   1.14587
 3764.5     96.25653   1.18574
 3765     96.24423   1.22561
 3765.5     96.23193   1.26548
 3766     96.21963   1.30536
 3766.5     96.20733   1.34523
 3767     96.32414   1.3851
 3767.5     96.46231   1.53694
 3768     96.60048   1.69954
 3768.5     96.73865   1.86213
 3769     96.75477   2.02473
 3769.5     96.55709   2.18732
 3770     96.35941   2.25147
 3770.5     96.16173   2.08674
 3771     95.96404   1.92202
 3771.5     95.76636   1.75729
 3772     95.57285   1.59256
 3772.5     95.40957   1.42784
 3773     95.24629   1.26311
 3773.5     95.08301   1.09839
 3774     94.91973   .93366
 3774.5     90.01057   .76894
 3775     84.04247   .73891
 3775.5     78.5165   1.25257
 3776     72.99052   1.76623
 3776.5     69.85152   2.27989
 3777     69.58596   2.79355
 3777.5     69.32041   3.30721
 3778     69.05486   3.82086
 3778.5     68.78931   4.33452
 3779     69.40974   4.74692
 3779.5     71.79132   4.96433
 3780     74.17291   5.18175
 3780.5     76.5545   5.39916
 3781     79.78313   5.61658
 3781.5     89.05123   5.834
 3782     94.98488   6.05141
 3782.5     94.98544   5.41341
 3783     94.986   4.22545
 3783.5     94.98655   3.03749
 3784     94.98711   1.84953
 3784.5     94.98767   .80042
 3785     95.04585   .78337
 3785.5     95.12645   .76631
 3786     95.20705   .74925
 3786.5     95.28765   .7322
 3787     95.36825   .71514
 3787.5     95.44885   .69808
 3788     95.47317   .68103
 3788.5     95.44741   .66397
 3789     95.42164   .64692
 3789.5     95.39588   .62986
 3790     95.37011   .6128
 3790.5     95.34435   .59575
 3791     95.31858   .57869
 3791.5     95.29282   .56163
 3792     95.26705   .54458
 3792.5     95.24129   .52752
 3793     95.21552   .51047
 3793.5     95.18976   .49341
 3794     95.16399   .47635
 3794.5     95.13823   .4593
 3795     95.12036   .44224
 3795.5     95.11356   .42518
 3796     95.10676   .40813
 3796.5     95.09996   .39107
 3797     95.09316   .37401
 3797.5     95.08636   .35696
 3798     95.07957   .3399
 3798.5     95.07277   .32285
 3799     95.06597   .30579
 3799.5     95.05917   .28873
 3800     95.05237   .27168
 3800.5     95.04557   .25462
 3801     95.03878   .23756
 3801.5     95.03198   .22051
 3802     95.02518   .32519
 3802.5     95.01838   .44338
 3803     95.01158   .56158
 3803.5     95.01278   .67977
 3804     95.02246   .79797
 3804.5     95.03214   .91616
 3805     95.04181   1.03436
 3805.5     95.05149   1.15255
 3806     95.06117   1.27075
 3806.5     95.07085   1.38894
 3807     95.08053   1.50714
 3807.5     95.0902   1.62533
 3808     95.09988   1.66875
 3808.5     95.10956   1.65365
 3809     95.11924   1.63854
 3809.5     95.12892   1.62343
 3810     95.13859   1.60833
 3810.5     95.14827   1.59322
 3811     95.15795   1.57811
 3811.5     95.16763   1.56301
 3812     95.17731   1.5479
 3812.5     95.18698   1.5328
 3813     95.19666   1.51769
 3813.5     95.20634   1.50258
 3814     95.21602   1.48748
 3814.5     95.2257   1.51298
 3815     95.23538   1.55899
 3815.5     95.24505   1.60499
 3816     95.25473   1.65099
 3816.5     95.26441   1.69699
 3817     94.68984   1.74299
 3817.5     93.28242   1.78899
 3818     91.875   1.83499
 3818.5     90.46759   1.88099
 3819     89.5717   1.92699
 3819.5     89.99462   1.97299
 3820     90.41753   2.01899
 3820.5     90.84044   2.06499
 3821     91.26335   2.11099
 3821.5     91.68626   2.15699
 3822     84.71388   2.203
 3822.5     74.74168   2.249
 3823     67.28435   2.295
 3823.5     67.24834   2.341
 3824     67.21234   2.41221
 3824.5     67.17634   3.03072
 3825     66.67597   3.64922
 3825.5     66.10179   4.26773
 3826     65.52761   4.88623
 3826.5     64.95343   5.50474
 3827     64.37925   4.74026
 3827.5     64.39298   3.9739
 3828     64.66958   3.20754
 3828.5     64.80534   3.05428
 3829     64.76933   3.25027
 3829.5     64.73331   3.44626
 3830     64.72113   3.64225
 3830.5     65.08195   3.83824
 3831     65.44277   4.02762
 3831.5     65.80358   4.02682
 3832     66.1644   4.02602
 3832.5     66.08258   4.02522
 3833     65.69771   4.02443
 3833.5     65.31285   4.02363
 3834     64.92798   3.97283
 3834.5     64.54311   3.92155
 3835     64.35226   3.87026
 3835.5     64.39668   3.81898
 3836     64.4411   3.7677
 3836.5     64.48552   3.71641
 3837     64.52994   3.66513
 3837.5     64.57435   4.19841
 3838     64.74797   4.9767
 3838.5     64.95072   5.75499
 3839     65.15346   6.53327
 3839.5     65.3562   7.31156
 3840     65.55894   8.08984
 3840.5     65.76168   8.86813
 3841     65.89248   9.64641
 3841.5     65.24856   10.4247
 3842     64.60463   10.12393
 3842.5     65.63866   9.44171
 3843     67.14951   8.7595
 3843.5     68.66037   8.07728
 3844     70.16063   7.39507
 3844.5     70.16106   6.71285
 3845     70.16149   6.03064
 3845.5     70.85749   5.50214
