###############################################
##         ENVERUS                           ##
##         Petrophysical Curves              ##
##         PERMIAN / DELAWARE                ##
##         Jan 21 2022                       ##
##         42-389-10491-00-00                ##
###############################################
## Copyright 2017-2022  ENVERUS.  All Rights Reserved. 
## Confidential - Property of ENVERUS, use governed by terms and 
## conditions found within the existing Information Services Subscription Agreement 
## (as may be amended, the “ISSA”) between Customer and ENVERUS. 
## 
~VERSION INFORMATION
# MNEM.UNIT                               DATA : DESCRIPTION OF MNEMONIC
#-----.-----     ----------------------------- : -----------------------------
VERS.                                     2.00 : CWLS LOG ASCII STANDARD - VERSION 2.00
WRAP.                                       NO : MULTIPLE LINES PER DEPTH STEP
VEND.                                  ENVERUS : VENDOR
TYPE.                     PETROPHYSICAL CURVES : ENVERUS PETROPHYSICAL CURVES - ACCESSIBLE THROUGH ENVERUS CORE(TM)
#___________________________________________________________________________________________________ 
~WELL INFORMATION 
# uyaQ8P8kQDJ9DXFS5hR1PxmExEOYaAUkY5f3/tnOS+scoPAUWgXA1zCIHGRbWCuSuUcwDzaESCjqjWQ81XhadA== 
# MNEM.UNIT                                              DATA : DESCRIPTION OF MNEMONIC 
#-----.-----                    ----------------------------- : ----------------------------- 
CNTY.                                                  REEVES : COUNTY 
STATE.                                                  TEXAS : STATE 
CNTRY.                                                    USA : COUNTRY 
API.                                             42-389-10491 : API (10 Digit) 
API_14.                                    42-389-10491-00-00 : API (14 Digits) 
API_14_std.                                 42-389-10491-0000 : API (14 Digits Standard) 
UWI.                                           42389104910000 : UNIQUE WELL ID
STRT.FT                                                 102.0 : START DEPTH
STOP.FT                                                9071.0 : STOP DEPTH
STEP.FT                                                   0.5 : STEP BETWEEN DEPTHS
NULL.                                                 -999.25 : NULL VALUE
COMP.                                FLAT CREEK RESOURCES LLC : COMPANY 
WELL.                                         REEVES-AW-FEE 1 : WELL NAME 
FLD.                                                     TORO : FIELD NAME
#___________________________________________________________________________________________________ 
~CURVE INFORMATION 
#    Zone Description
#          1 = Upper Avalon
#          2 = Middle Avalon
#          3 = Lower Avalon
#          4 = 1st Bone Spring
#          5 = 2nd Bone Spring
#          6 = 2nd Bone Spring Sand
#          7 = 3rd Bone Spring
#          8 = 3rd Bone Spring Sand
#          9 = Wolfcamp XY
#          10 = Wolfcamp A Upper
#          11 = Wolfcamp A Lower
#          12 = Wolfcamp B Upper
#          13 = Wolfcamp B Lower
#          14 = Wolfcamp C
#          15 = Wolfcamp D
#          16 = Pennsylvanian Shale
#          17 = Lower Pennsylvanian Shale
#          18 = Barnett
#          19 = Barnett Lower
#          20 = Mississippian Lime
#          21 = Woodford
#          22 = Base Woodford 
# MNEM.UNIT           : CURVE DESCRIPTION 
#-----.-----          : ----------------------------- 
 DEPT.FT               : MEASURED DEPTH 
 TVD_I.FT              : ENVERUS TRUE VERTICAL DEPTH 
 ZONE_I.               : ENVERUS DEFINED ZONE CODE 
 GR_N_I.API            : ENVERUS NORMALIZED GAMMA RAY LEVERAGED IN GEOLOGICAL MODELLING 
 TEMP_I.DEGF           : ENVERUS INTERPRETED TEMPERATURE DERIVED FROM BOTTOM HOLE TEMPERATURES 
 #___________________________________________________________________________________________________ 
~A         DEPT          TVD_I         ZONE_I         GR_N_I         TEMP_I
# ...
         1904.0       1904.000        -999.25          3.092         83.166
         1904.5       1904.500        -999.25          2.889         83.171
         1905.0       1905.000        -999.25          2.686         83.176
         1905.5       1905.500        -999.25          2.483         83.182
         1906.0       1906.000        -999.25          2.321         83.187
         1906.5       1906.500        -999.25          2.774         83.192
         1907.0       1907.000        -999.25          3.224         83.198
         1907.5       1907.500        -999.25          3.676         83.203
         1908.0       1908.000        -999.25          4.127         83.208
         1908.5       1908.500        -999.25          4.577         83.213
         1909.0       1909.000        -999.25          5.029         83.219
         1909.5       1909.500        -999.25          5.480         83.224
         1910.0       1910.000        -999.25          5.595         83.229
         1910.5       1910.500        -999.25          5.572         83.235
         1911.0       1911.000        -999.25          5.547         83.240
         1911.5       1911.500        -999.25          5.524         83.245
         1912.0       1912.000        -999.25          5.499         83.251
         1912.5       1912.500        -999.25          5.476         83.256
         1913.0       1913.000        -999.25          5.452         83.261
         1913.5       1913.500        -999.25          5.429         83.266
         1914.0       1914.000        -999.25          5.406         83.272
         1914.5       1914.500        -999.25          5.381         83.277
         1915.0       1915.000        -999.25          5.358         83.282
         1915.5       1915.500        -999.25          5.333         83.288
         1916.0       1916.000        -999.25          6.589         83.293
         1916.5       1916.500        -999.25         12.776         83.298
         1917.0       1917.000        -999.25         14.463         83.303
         1917.5       1917.500        -999.25         13.124         83.309
         1918.0       1918.000        -999.25         11.786         83.314
         1918.5       1918.500        -999.25         10.450         83.319
         1919.0       1919.000        -999.25          9.111         83.325
         1919.5       1919.500        -999.25          9.240         83.330
         1920.0       1920.000        -999.25         11.408         83.335
         1920.5       1920.500        -999.25         13.578         83.341
         1921.0       1921.000        -999.25         15.747         83.346
         1921.5       1921.500        -999.25         17.915         83.351
         1922.0       1922.000        -999.25         20.084         83.356
         1922.5       1922.500        -999.25         22.252         83.362
         1923.0       1923.000        -999.25         22.507         83.367
         1923.5       1923.500        -999.25         22.111         83.372
         1924.0       1924.000        -999.25         18.890         83.378
         1924.5       1924.500        -999.25         12.436         83.383
         1925.0       1925.000        -999.25          9.807         83.388
         1925.5       1925.500        -999.25          9.279         83.394
         1926.0       1926.000        -999.25          8.751         83.399
         1926.5       1926.500        -999.25          8.224         83.404
         1927.0       1927.000        -999.25          7.696         83.409
         1927.5       1927.500        -999.25          7.170         83.415
         1928.0       1928.000        -999.25          6.958         83.420
         1928.5       1928.500        -999.25          6.770         83.425
         1929.0       1929.000        -999.25          6.581         83.431
         1929.5       1929.500        -999.25          6.394         83.436
         1930.0       1930.000        -999.25          6.205         83.441
         1930.5       1930.500        -999.25          6.016         83.446
         1931.0       1931.000        -999.25          5.828         83.452
         1931.5       1931.500        -999.25          5.639         83.457
         1932.0       1932.000        -999.25          5.601         83.462
         1932.5       1932.500        -999.25          5.568         83.468
         1933.0       1933.000        -999.25          5.536         83.473
         1933.5       1933.500        -999.25          5.503         83.478
         1934.0       1934.000        -999.25          5.470         83.484
         1934.5       1934.500        -999.25          5.437         83.489
         1935.0       1935.000        -999.25          5.406         83.494
         1935.5       1935.500        -999.25          5.373         83.499
         1936.0       1936.000        -999.25          5.340         83.505
         1936.5       1936.500        -999.25          5.087         83.510
         1937.0       1937.000        -999.25          4.806         83.515
         1937.5       1937.500        -999.25          4.524         83.521
         1938.0       1938.000        -999.25          4.242         83.526
         1938.5       1938.500        -999.25          3.961         83.531
         1939.0       1939.000        -999.25          3.679         83.537
         1939.5       1939.500        -999.25          3.398         83.542
         1940.0       1940.000        -999.25          3.116         83.547
         1940.5       1940.500        -999.25          3.074         83.552
         1941.0       1941.000        -999.25          3.497         83.558
         1941.5       1941.500        -999.25          3.919         83.563
         1942.0       1942.000        -999.25          4.342         83.568
         1942.5       1942.500        -999.25          4.764         83.574
         1943.0       1943.000        -999.25          5.187         83.579
         1943.5       1943.500        -999.25          5.610         83.584
         1944.0       1944.000        -999.25          6.032         83.589
         1944.5       1944.500        -999.25          6.455         83.595
         1945.0       1945.000        -999.25          6.877         83.600
         1945.5       1945.500        -999.25          7.300         83.605
         1946.0       1946.000        -999.25          7.722         83.611
         1946.5       1946.500        -999.25          8.145         83.616
         1947.0       1947.000        -999.25          8.567         83.621
         1947.5       1947.500        -999.25          8.307         83.627
         1948.0       1948.000        -999.25          7.845         83.632
         1948.5       1948.500        -999.25          7.383         83.637
         1949.0       1949.000        -999.25          6.921         83.642
         1949.5       1949.500        -999.25          6.525         83.648
         1950.0       1950.000        -999.25          6.366         83.653
         1950.5       1950.500        -999.25          6.208         83.658
         1951.0       1951.000        -999.25          6.050         83.664
         1951.5       1951.500        -999.25          5.891         83.669
         1952.0       1952.000        -999.25          5.733         83.674
         1952.5       1952.500        -999.25          5.465         83.679
         1953.0       1953.000        -999.25          5.100         83.685
         1953.5       1953.500        -999.25          4.733         83.690
         1954.0       1954.000        -999.25          4.368         83.695
         1954.5       1954.500        -999.25          4.003         83.701
         1955.0       1955.000        -999.25          3.637         83.706
         1955.5       1955.500        -999.25          3.272         83.711
         1956.0       1956.000        -999.25          2.963         83.717
         1956.5       1956.500        -999.25          3.061         83.722
