#--------------------------------------------------#
#-------------------ENVERUS, INC.------------------#
#------------------WWW.ENVERUS.COM-----------------#
#------------------COPYRIGHT 2020------------------#
#--------------------------------------------------#
#THIS FILE MAY BE USED ONLY IN ACCORDANCE WITH A CURRENT SUBSCRIPTION AGREEMENT BETWEEN
#THE USER AND ENVERUS, INC. NO PART OF THIS FILE MAY BE REPRODUCED, USED, COPIED,
#MODIFIED, PROPAGATED, OR DISTRIBUTED EXCEPT IN ACCORDANCE WITH THE SUBSCRIPTION
#AGREEMENT. UNAUTHORIZED USE OR DISTRIBUTION OF ALL OR ANY PART OF THIS FILE MAY VIOLATE
#COPYRIGHT, TRADEMARK, AND/OR OTHER LAWS AND IS SUBJECT TO CIVIL AS WELL AS CRIMINAL
#SANCTIONS.
#--------------------------------------------------#
#THIS FILE IS PROVIDED "AS-IS" AND ALL WARRANTIES ARE EXPRESSLY DISCLAIMED, WHETHER
#EXPRESS, ORAL, IMPLIED, STATUTORY OR OTHERWISE, INCLUDING ANY IMPLIED WARRANTY OF FITNESS
#FOR A PARTICULAR PURPOSE, MERCHANTABILITY, TITLE OR NON-INFRINGEMENT, AND ANY WARRANTIES
#ARISING BY VIRTUE OF CUSTOM OF TRADE OR COURSE OF DEALING.  FURTHER, ENVERUS, INC.
#AND ITS LICENSORS DO NOT REPRESENT OR WARRANT THAT THIS FILE WILL MEET USER'S
#REQUIREMENTS OR ARE SUITABLE FOR USER'S NEEDS OR THAT THE DATA OR RESULTS PROVIDED IN
#CONJUNCTION THEREWITH ARE CORRECT, ACCURATE, TIMELY OR RELIABLE. THESE DISCLAIMERS SHALL
#APPLY REGARDLESS OF ANY FAILURE OF ESSENTIAL PURPOSE OF ANY LIMITED REMEDY.  SOME
#JURISDICTIONS DO NOT ALLOW THE EXCLUSION OF CERTAIN WARRANTIES SO SOME OF THE ABOVE
#EXCLUSIONS MAY NOT APPLY. IN NO EVENT SHALL ENVERUS, INC. OR ANY OF ITS AFFILIATES
#BE LIABLE UNDER ANY LEGAL THEORY, WHETHER IN TORT (INCLUDING WITHOUT LIMITATION
#NEGLIGENCE), CONTRACT, STRICT LIABILITY, STATUTORY OR OTHERWISE, FOR ANY SPECIAL,
#INCIDENTAL, CONSEQUENTIAL, EXEMPLARY, PUNITIVE OR INDIRECT DAMAGE OF ANY KIND, INCLUDING
#WITHOUT LIMITATION LOSS OF REVENUE, PROFITS, GOODWILL, USE, AND/OR DATA OR THE COST OF
#PROCUREMENT OF SUBSTITUTE GOODS OR SERVICES, EVEN IF APPRISED OF THE POSSIBILITY OF SUCH
#DAMAGES IN ADVANCE.
#--------------------------------------------------#

~VERSION INFORMATION
VERS. 2.0 : CWLS LOG ASCII STANDARD - VERSION 2.0
WRAP.  NO : ONE LINE PER DEPTH STEP
~WELL INFORMATION
#MNEMONIC     .UNIT              VALUE :DESCRIPTION
STRT       .FT                -3 :START DEPTH
STOP       .FT                21524 :STOP DEPTH
STEP       .FT                   0.500 :STEP
NULL       .                  -999.99 :NULL
UWI        .                42389105080000 :UNIQUE WELL ID
API        .                42389105080000 :API NUMBER
COMP       .         :COMPANY
WELL       .        :WELL
DATE       .                 :LOG DATE
FLD       .                 :FIELD NAME
LOC       .                  UNK :LOCATION
CNTY       .                 UNK :COUNTY
STAT       .                 UNK :STATE
CTRY       .                 UNK :COUNTY
SRVC       .                 UNK :SERVICE COMPANY
~CURVE INFORMATION
#MNEMONIC     .UNIT      API CODE :CURVE DESCRIPTION
DEPTH       .FT                      :MEASURED DEPTH
CAL.IN        UNKNOWN   :CAL
DT.MSEC/FT        UNKNOWN   :DT
GR.API        UNKNOWN   :GR
~A    DEPTH    CAL    DT    GR
# ...
 16258.5     9.91582   61.45121   6.38316
 16259     9.92039   65.41649   10.85719
 16259.5     9.92495   64.15772   14.91878
 16260     9.92952   61.69855   17.9618
 16260.5     9.93409   59.23938   21.00482
 16261     9.93866   57.20892   21.19805
 16261.5     9.94323   56.41579   20.37103
 16262     9.9478   55.62265   19.54401
 16262.5     9.95236   54.82952   17.01583
 16263     9.95693   54.53394   15.21399
 16263.5     9.9615   55.80507   14.09194
 16264     9.96607   57.0762   13.57195
 16264.5     9.97064   58.34733   14.12194
 16265     9.97521   59.61846   15.5075
 16265.5     9.97978   60.88959   17.92593
 16266     9.98434   59.77149   19.70921
 16266.5     9.98891   58.12073   19.19159
 16267     9.99348   56.46998   18.67398
 16267.5     9.99805   57.04956   18.22558
 16268     10.00262   59.20641   17.8118
 16268.5     10.00719   61.36326   17.39803
 16269     10.01175   63.52012   16.98426
 16269.5     10.0038   65.67697   17.63831
 16270     9.97683   67.83383   18.49497
 16270.5     9.94986   54.01156   19.35164
 16271     9.92288   50.73606   20.20831
 16271.5     9.90297   50.13274   19.48097
 16272     9.93032   49.79504   18.06386
 16272.5     9.95766   50.073   8.07482
 16273     9.985   50.35097   6.33966
 16273.5     10.01234   50.62893   4.6045
 16274     10.03969   49.50799   2.86934
 16274.5     10.06703   48.97833   1.13417
 16275     10.09437   49.98993   .56483
 16275.5     10.12171   51.00152   .53932
 16276     10.14906   49.75787   .51381
 16276.5     10.1764   48.21189   .4883
 16277     10.19724   46.98124   .46278
 16277.5     10.19419   47.54068   .87588
 16278     10.19114   48.10012   2.52798
 16278.5     10.18808   48.65956   4.18008
 16279     10.18503   52.02847   6.12165
 16279.5     10.18715   60.02697   11.59199
 16280     10.20437   68.02547   17.68347
 16280.5     10.22158   76.02397   23.92957
 16281     10.46734   56.54261   30.17568
 16281.5     10.77557   51.7477   27.26369
 16282     11.08379   51.34056   22.16326
 16282.5     10.11033   50.93342   14.05048
 16283     10.06608   50.52628   8.50692
 16283.5     10.02183   50.22   6.44218
 16284     10.01259   50.77384   4.37745
 16284.5     10.01631   51.32768   2.31271
 16285     10.02002   51.21336   2.01266
 16285.5     10.02374   50.5768   1.87404
 16286     10.02745   51.44958   1.78618
 16286.5     10.03117   52.66398   2.70311
 16287     10.03489   54.16831   3.62004
 16287.5     10.0386   57.62646   5.34137
 16288     10.04232   61.08461   10.71373
 16288.5     10.04603   64.54276   16.08608
 16289     10.04975   68.00091   19.77594
 16289.5     10.05347   71.45906   23.37975
 16290     10.05718   73.45408   26.98356
 16290.5     10.0609   69.23491   28.74074
 16291     10.06461   65.01575   28.20292
 16291.5     10.06833   61.06265   27.66511
 16292     10.07205   66.35434   27.39769
 16292.5     10.07576   71.64603   27.91289
 16293     10.12735   76.93772   28.4281
 16293.5     10.27247   66.18578   28.9433
 16294     10.34596   62.88406   28.44857
 16294.5     10.22727   64.72315   26.63718
 16295     10.10859   66.56225   24.8258
 16295.5     9.9899   67.78296   23.01441
 16296     9.95565   64.4278   20.53416
 16296.5     9.96652   61.07263   16.40862
 16297     9.97739   58.88949   14.72983
 16297.5     9.98826   60.28323   14.13259
 16298     9.99914   61.67697   13.53536
 16298.5     10.01001   63.07071   16.67759
 16299     10.02088   64.46445   20.62615
 16299.5     10.03175   65.85819   24.5747
 16300     10.04262   67.25193   21.65181
 16300.5     10.05349   68.64567   18.67212
 16301     10.06436   70.0394   21.35587
 16301.5     10.07524   71.43314   23.21862
 16302     10.07062   58.73984   19.83029
 16302.5     10.06596   51.93509   17.35348
 16303     10.0613   52.25202   14.87668
 16303.5     10.05664   52.57363   12.39988
 16304     10.05198   52.90571   7.24581
 16304.5     10.04732   53.23778   4.67161
 16305     10.04266   55.83898   6.30449
 16305.5     10.038   62.65733   8.57601
 16306     10.03334   68.66274   10.84753
 16306.5     10.02868   74.66816   14.70685
 16307     10.02402   76.86604   19.77669
 16307.5     10.01936   68.41736   24.84653
 16308     10.0147   61.07199   29.45612
 16308.5     10.01004   62.36617   27.30256
 16309     10.00538   63.66036   25.14899
 16309.5     10.00072   64.95455   22.99543
 16310     9.99607   66.24873   20.84187
 16310.5     9.99141   67.54292   23.44715
 16311     9.98675   68.83711   26.7492
 16311.5     9.99631   62.09372   24.90409
 16312     10.00795   63.63347   23.05897
 16312.5     10.01958   67.15966   21.21386
 16313     10.03122   70.68585   19.36875
 16313.5     10.04285   71.80173   19.10704
 16314     10.05449   69.00722   20.17911
 16314.5     10.06612   66.21271   21.25118
 16315     10.07776   64.65251   21.58277
 16315.5     10.07898   64.87017   20.56748
 16316     10.06432   65.08782   19.5522
 16316.5     10.04967   65.30547   18.53691
 16317     10.03501   65.52313   19.69834
 16317.5     10.02036   65.74078   21.24559
 16318     10.00571   65.95844   22.79285
 16318.5     9.99105   60.77236   24.3401
 16319     9.9764   53.29339   25.88736
 16319.5     9.96174   53.73436   20.47281
 16320     9.94709   54.17532   15.22862
 16320.5     9.93243   54.61629   12.75308
 16321     9.91778   55.05725   11.24294
 16321.5     9.90312   55.53103   9.86618
 16322     9.88847   56.25846   9.63981
 16322.5     9.90038   56.78137   9.45502
 16323     9.93323   56.35456   9.13151
 16323.5     9.96609   55.92775   7.47927
 16324     9.99895   56.00403   5.82703
 16324.5     10.0318   57.79985   5.57796
 16325     10.06466   59.59567   6.50615
 16325.5     10.05681   61.39149   7.43434
 16326     10.04595   60.71596   10.93263
 16326.5     10.03508   58.84858   14.13929
 16327     10.02422   56.98119   14.03463
 16327.5     10.01335   55.11381   13.92997
 16328     10.00248   53.24642   13.82531
 16328.5     9.99162   52.42926   13.541
 16329     9.98075   53.52237   12.74171
 16329.5     9.96989   54.61548   11.94241
 16330     9.95902   56.06194   11.14311
 16330.5     9.94816   57.40509   10.34382
 16331     9.93729   58.07968   11.37189
 16331.5     9.9391   60.15073   14.36342
 16332     9.94268   62.22178   17.31774
 16332.5     9.94627   64.29283   20.27206
 16333     9.94985   67.97317   23.22638
 16333.5     9.95343   74.4963   26.82785
 16334     9.95701   81.01942   31.47502
 16334.5     9.9606   87.54254   36.12219
 16335     9.96418   80.1997   40.76936
 16335.5     9.96776   65.19521   40.78118
 16336     9.97134   66.27813   37.16065
 16336.5     9.97492   67.36105   33.54012
 16337     9.97851   70.80542   28.29119
 16337.5     9.98209   72.07702   25.33869
 16338     9.98567   76.05251   26.69746
 16338.5     9.98925   81.45891   28.05623
 16339     10.26401   86.8653   29.415
 16339.5     10.67176   92.2717   30.77377
 16340     11.06298   95.72176   32.13253
 16340.5     11.0628   75.62475   30.71622
 16341     10.92178   63.53548   29.2863
 16341.5     10.69554   60.87896   27.85638
 16342     10.46931   58.22244   26.42646
 16342.5     10.24307   55.56592   21.37841
 16343     10.05793   52.90941   16.243
 16343.5     10.04564   50.27395   12.73643
 16344     10.03335   50.55197   9.22985
 16344.5     10.02105   50.87192   7.96161
 16345     10.00876   51.45418   7.88969
 16345.5     9.99647   52.27302   8.14232
 16346     9.98417   53.90098   8.39494
 16346.5     9.97188   55.52894   8.64757
 16347     9.95958   57.1569   11.33237
 16347.5     9.94729   58.78486   15.28657
 16348     9.935   60.41282   16.52472
 16348.5     9.93684   62.04078   17.76287
 16349     9.95018   63.66874   19.50024
 16349.5     9.96353   65.2967   21.82062
 16350     9.97688   60.40701   24.14099
 16350.5     9.98451   57.27095   24.48685
 16351     9.97982   54.13489   24.64006
 16351.5     9.97514   53.04653   24.1961
 16352     9.97046   53.47865   22.69887
 16352.5     9.96578   54.01278   21.20165
 16353     9.9611   54.59404   19.53107
 16353.5     9.95642   55.857   17.82015
