###############################################
##         ENVERUS                           ##
##         Petrophysical Curves              ##
##         PERMIAN / DELAWARE                ##
##         Jan 21 2022                       ##
##         42-389-10491-00-00                ##
###############################################
## Copyright 2017-2022  ENVERUS.  All Rights Reserved. 
## Confidential - Property of ENVERUS, use governed by terms and 
## conditions found within the existing Information Services Subscription Agreement 
## (as may be amended, the “ISSA”) between Customer and ENVERUS. 
## 
~VERSION INFORMATION
# MNEM.UNIT                               DATA : DESCRIPTION OF MNEMONIC
#-----.-----     ----------------------------- : -----------------------------
VERS.                                     2.00 : CWLS LOG ASCII STANDARD - VERSION 2.00
WRAP.                                       NO : MULTIPLE LINES PER DEPTH STEP
VEND.                                  ENVERUS : VENDOR
TYPE.                     PETROPHYSICAL CURVES : ENVERUS PETROPHYSICAL CURVES - ACCESSIBLE THROUGH ENVERUS CORE(TM)
#___________________________________________________________________________________________________ 
~WELL INFORMATION 
# uyaQ8P8kQDJ9DXFS5hR1PxmExEOYaAUkY5f3/tnOS+scoPAUWgXA1zCIHGRbWCuSuUcwDzaESCjqjWQ81XhadA== 
# MNEM.UNIT                                              DATA : DESCRIPTION OF MNEMONIC 
#-----.-----                    ----------------------------- : ----------------------------- 
CNTY.                                                  REEVES : COUNTY 
STATE.                                                  TEXAS : STATE 
CNTRY.                                                    USA : COUNTRY 
API.                                             42-389-10491 : API (10 Digit) 
API_14.                                    42-389-10491-00-00 : API (14 Digits) 
API_14_std.                                 42-389-10491-0000 : API (14 Digits Standard) 
UWI.                                           42389104910000 : UNIQUE WELL ID
STRT.FT                                                 102.0 : START DEPTH
STOP.FT                                                9071.0 : STOP DEPTH
STEP.FT                                                   0.5 : STEP BETWEEN DEPTHS
NULL.                                                 -999.25 : NULL VALUE
COMP.                                FLAT CREEK RESOURCES LLC : COMPANY 
WELL.                                         REEVES-AW-FEE 1 : WELL NAME 
FLD.                                                     TORO : FIELD NAME
#___________________________________________________________________________________________________ 
~CURVE INFORMATION 
#    Zone Description
#          1 = Upper Avalon
#          2 = Middle Avalon
#          3 = Lower Avalon
#          4 = 1st Bone Spring
#          5 = 2nd Bone Spring
#          6 = 2nd Bone Spring Sand
#          7 = 3rd Bone Spring
#          8 = 3rd Bone Spring Sand
#          9 = Wolfcamp XY
#          10 = Wolfcamp A Upper
#          11 = Wolfcamp A Lower
#          12 = Wolfcamp B Upper
#          13 = Wolfcamp B Lower
#          14 = Wolfcamp C
#          15 = Wolfcamp D
#          16 = Pennsylvanian Shale
#          17 = Lower Pennsylvanian Shale
#          18 = Barnett
#          19 = Barnett Lower
#          20 = Mississippian Lime
#          21 = Woodford
#          22 = Base Woodford 
# MNEM.UNIT           : CURVE DESCRIPTION 
#-----.-----          : ----------------------------- 
 DEPT.FT               : MEASURED DEPTH 
 TVD_I.FT              : ENVERUS TRUE VERTICAL DEPTH 
 ZONE_I.               : ENVERUS DEFINED ZONE CODE 
 GR_N_I.API            : ENVERUS NORMALIZED GAMMA RAY LEVERAGED IN GEOLOGICAL MODELLING 
 TEMP_I.DEGF           : ENVERUS INTERPRETED TEMPERATURE DERIVED FROM BOTTOM HOLE TEMPERATURES 
 #___________________________________________________________________________________________________ 
~A         DEPT          TVD_I         ZONE_I         GR_N_I         TEMP_I
# ...
         4872.0       4872.000        -999.25          7.152        114.601
         4872.5       4872.500        -999.25          7.129        114.606
         4873.0       4873.000        -999.25          7.104        114.611
         4873.5       4873.500        -999.25          7.081        114.617
         4874.0       4874.000        -999.25          7.058        114.622
         4874.5       4874.500        -999.25          7.033        114.627
         4875.0       4875.000        -999.25          7.010        114.632
         4875.5       4875.500        -999.25          6.987        114.638
         4876.0       4876.000        -999.25          6.963        114.643
         4876.5       4876.500        -999.25          6.940        114.648
         4877.0       4877.000        -999.25          6.917        114.654
         4877.5       4877.500        -999.25          6.894        114.659
         4878.0       4878.000        -999.25          7.022        114.664
         4878.5       4878.500        -999.25          7.165        114.670
         4879.0       4879.000        -999.25          7.309        114.675
         4879.5       4879.500        -999.25          7.453        114.680
         4880.0       4880.000        -999.25          7.596        114.685
         4880.5       4880.500        -999.25          7.739        114.691
         4881.0       4881.000        -999.25          7.701        114.696
         4881.5       4881.500        -999.25          7.474        114.701
         4882.0       4882.000        -999.25          7.247        114.707
         4882.5       4882.500        -999.25          7.020        114.712
         4883.0       4883.000        -999.25          6.792        114.717
         4883.5       4883.500        -999.25          6.565        114.722
         4884.0       4884.000        -999.25          6.338        114.728
         4884.5       4884.500        -999.25          6.111        114.733
         4885.0       4885.000        -999.25          5.884        114.738
         4885.5       4885.500        -999.25          5.656        114.744
         4886.0       4886.000        -999.25          5.429        114.749
         4886.5       4886.500        -999.25          5.649        114.754
         4887.0       4887.000        -999.25          5.892        114.760
         4887.5       4887.500        -999.25          6.136        114.765
         4888.0       4888.001        -999.25          6.381        114.770
         4888.5       4888.500        -999.25          6.624        114.775
         4889.0       4889.001        -999.25          6.867        114.781
         4889.5       4889.500        -999.25          7.112        114.786
         4890.0       4890.000        -999.25          7.356        114.791
         4890.5       4890.500        -999.25          7.563        114.797
         4891.0       4891.000        -999.25          7.604        114.802
         4891.5       4891.500        -999.25          7.647        114.807
         4892.0       4892.000        -999.25          7.688        114.812
         4892.5       4892.500        -999.25          7.730        114.818
         4893.0       4893.000        -999.25          7.771        114.823
         4893.5       4893.500        -999.25          7.814        114.828
         4894.0       4894.000        -999.25          7.855        114.834
         4894.5       4894.500        -999.25          8.005        114.839
         4895.0       4895.000        -999.25          8.237        114.844
         4895.5       4895.500        -999.25          8.469        114.850
         4896.0       4896.000        -999.25          8.700        114.855
         4896.5       4896.500        -999.25          8.934        114.860
         4897.0       4897.000        -999.25          9.008        114.865
         4897.5       4897.500        -999.25          8.730        114.871
         4898.0       4898.000        -999.25          8.450        114.876
         4898.5       4898.500        -999.25          8.173        114.881
         4899.0       4899.000        -999.25          7.895        114.887
         4899.5       4899.500        -999.25          7.615        114.892
         4900.0       4900.001        -999.25          7.337        114.897
         4900.5       4900.500        -999.25          7.058        114.903
         4901.0       4901.000        -999.25          6.780        114.908
         4901.5       4901.500        -999.25          6.501        114.913
         4902.0       4902.000        -999.25          6.223        114.918
         4902.5       4902.500        -999.25          5.943        114.924
         4903.0       4903.001        -999.25          5.665        114.929
         4903.5       4903.500        -999.25          6.203        114.934
         4904.0       4904.000        -999.25          7.615        114.940
         4904.5       4904.500        -999.25          7.617        114.945
         4905.0       4905.000        -999.25          7.619        114.950
         4905.5       4905.500        -999.25          7.622        114.955
         4906.0       4906.000        -999.25          7.623        114.961
         4906.5       4906.500        -999.25          7.625        114.966
         4907.0       4907.000        -999.25          7.627        114.971
         4907.5       4907.501        -999.25          7.630        114.977
         4908.0       4908.000        -999.25          7.632        114.982
         4908.5       4908.501        -999.25          7.633        114.987
         4909.0       4909.000        -999.25          7.627        114.993
         4909.5       4909.500        -999.25          7.592        114.998
         4910.0       4910.000        -999.25          7.558        115.003
         4910.5       4910.500        -999.25          7.523        115.008
         4911.0       4911.000        -999.25          7.487        115.014
         4911.5       4911.500        -999.25          7.453        115.019
         4912.0       4912.000        -999.25          7.418        115.024
         4912.5       4912.500        -999.25          7.383        115.030
         4913.0       4913.000        -999.25          7.354        115.035
         4913.5       4913.500        -999.25          7.459        115.040
         4914.0       4914.000        -999.25          7.564        115.045
         4914.5       4914.500        -999.25          7.670        115.051
         4915.0       4915.000        -999.25          7.775        115.056
         4915.5       4915.500        -999.25          7.880        115.061
         4916.0       4916.000        -999.25          7.908        115.067
         4916.5       4916.500        -999.25          7.543        115.072
         4917.0       4917.000        -999.25          7.178        115.077
         4917.5       4917.500        -999.25          6.813        115.083
         4918.0       4918.000        -999.25          6.474        115.088
         4918.5       4918.500        -999.25          6.734        115.093
         4919.0       4919.000        -999.25          6.995        115.098
         4919.5       4919.501        -999.25          7.255        115.104
         4920.0       4920.000        -999.25          7.515        115.109
         4920.5       4920.500        -999.25          7.775        115.114
         4921.0       4921.000        -999.25          7.970        115.120
         4921.5       4921.500        -999.25          7.864        115.125
         4922.0       4922.000        -999.25          7.758        115.130
         4922.5       4922.501        -999.25          7.651        115.136
         4923.0       4923.000        -999.25          7.546        115.141
         4923.5       4923.500        -999.25          7.439        115.146
         4924.0       4924.000        -999.25          7.334        115.151
         4924.5       4924.500        -999.25          7.227        115.157
