#--------------------------------------------------#
#-------------------ENVERUS, INC.------------------#
#------------------WWW.ENVERUS.COM-----------------#
#------------------COPYRIGHT 2020------------------#
#--------------------------------------------------#
#THIS FILE MAY BE USED ONLY IN ACCORDANCE WITH A CURRENT SUBSCRIPTION AGREEMENT BETWEEN
#THE USER AND ENVERUS, INC. NO PART OF THIS FILE MAY BE REPRODUCED, USED, COPIED,
#MODIFIED, PROPAGATED, OR DISTRIBUTED EXCEPT IN ACCORDANCE WITH THE SUBSCRIPTION
#AGREEMENT. UNAUTHORIZED USE OR DISTRIBUTION OF ALL OR ANY PART OF THIS FILE MAY VIOLATE
#COPYRIGHT, TRADEMARK, AND/OR OTHER LAWS AND IS SUBJECT TO CIVIL AS WELL AS CRIMINAL
#SANCTIONS.
#--------------------------------------------------#
#THIS FILE IS PROVIDED "AS-IS" AND ALL WARRANTIES ARE EXPRESSLY DISCLAIMED, WHETHER
#EXPRESS, ORAL, IMPLIED, STATUTORY OR OTHERWISE, INCLUDING ANY IMPLIED WARRANTY OF FITNESS
#FOR A PARTICULAR PURPOSE, MERCHANTABILITY, TITLE OR NON-INFRINGEMENT, AND ANY WARRANTIES
#ARISING BY VIRTUE OF CUSTOM OF TRADE OR COURSE OF DEALING.  FURTHER, ENVERUS, INC.
#AND ITS LICENSORS DO NOT REPRESENT OR WARRANT THAT THIS FILE WILL MEET USER'S
#REQUIREMENTS OR ARE SUITABLE FOR USER'S NEEDS OR THAT THE DATA OR RESULTS PROVIDED IN
#CONJUNCTION THEREWITH ARE CORRECT, ACCURATE, TIMELY OR RELIABLE. THESE DISCLAIMERS SHALL
#APPLY REGARDLESS OF ANY FAILURE OF ESSENTIAL PURPOSE OF ANY LIMITED REMEDY.  SOME
#JURISDICTIONS DO NOT ALLOW THE EXCLUSION OF CERTAIN WARRANTIES SO SOME OF THE ABOVE
#EXCLUSIONS MAY NOT APPLY. IN NO EVENT SHALL ENVERUS, INC. OR ANY OF ITS AFFILIATES
#BE LIABLE UNDER ANY LEGAL THEORY, WHETHER IN TORT (INCLUDING WITHOUT LIMITATION
#NEGLIGENCE), CONTRACT, STRICT LIABILITY, STATUTORY OR OTHERWISE, FOR ANY SPECIAL,
#INCIDENTAL, CONSEQUENTIAL, EXEMPLARY, PUNITIVE OR INDIRECT DAMAGE OF ANY KIND, INCLUDING
#WITHOUT LIMITATION LOSS OF REVENUE, PROFITS, GOODWILL, USE, AND/OR DATA OR THE COST OF
#PROCUREMENT OF SUBSTITUTE GOODS OR SERVICES, EVEN IF APPRISED OF THE POSSIBILITY OF SUCH
#DAMAGES IN ADVANCE.
#--------------------------------------------------#

~VERSION INFORMATION
VERS. 2.0 : CWLS LOG ASCII STANDARD - VERSION 2.0
WRAP.  NO : ONE LINE PER DEPTH STEP
~WELL INFORMATION
#MNEMONIC     .UNIT              VALUE :DESCRIPTION
STRT       .FT                101 :START DEPTH
STOP       .FT                5382 :STOP DEPTH
STEP       .FT                   0.500 :STEP
NULL       .                  -999.990 :NULL
UWI        .              42389007790000 :UNIQUE WELL ID
API        .              42389007790000 :API NUMBER
COMP       .         :COMPANY
WELL       .         1, :WELL
DATE       .                            :LOG DATE
~CURVE INFORMATION
#MNEMONIC     .UNIT      API CODE :CURVE DESCRIPTION
DEPTH       .FT                      :MEASURED DEPTH
DT.US/FT        UNKNOWN   :DT
GR.API        UNKNOWN   :GR
~A    DEPTH    DT    GR
# ...
 1714.5     68.247   4.894
 1715     68.915   4.86
 1715.5     70.092   4.827
 1716     70.264   4.793
 1716.5     69.968   4.76
 1717     69.672   4.726
 1717.5     69.376   4.834
 1718     69.079   5.104
 1718.5     69.014   5.374
 1719     69.558   5.643
 1719.5     69.972   5.913
 1720     70.385   6.182
 1720.5     70.746   6.452
 1721     70.35   6.722
 1721.5     69.953   6.991
 1722     69.556   7.261
 1722.5     69.16   6.88
 1723     68.763   5.318
 1723.5     68.366   3.756
 1724     67.97   4.211
 1724.5     68.334   5.077
 1725     68.714   5.942
 1725.5     69.093   6.808
 1726     69.676   7.266
 1726.5     70.521   6.666
 1727     71.366   6.066
 1727.5     72.211   5.877
 1728     73.056   6.955
 1728.5     73.16   8.034
 1729     72.033   7.654
 1729.5     70.906   6.694
 1730     69.78   5.733
 1730.5     68.653   4.773
 1731     69.022   3.812
 1731.5     69.716   4.124
 1732     70.41   5.082
 1732.5     71.104   5.826
 1733     70.386   5.171
 1733.5     69.251   4.516
 1734     68.543   3.861
 1734.5     69.17   3.207
 1735     69.798   2.552
 1735.5     69.551   2.927
 1736     68.947   4.066
 1736.5     68.567   5.204
 1737     69.201   6.343
 1737.5     69.835   7.481
 1738     70.468   7.846
 1738.5     70.934   7.48
 1739     70.297   7.115
 1739.5     69.659   6.749
 1740     69.021   6.384
 1740.5     68.963   6.018
 1741     69.312   5.653
 1741.5     69.661   5.287
 1742     70.01   4.922
 1742.5     70.344   4.556
 1743     70.245   4.191
 1743.5     70.146   3.825
 1744     70.047   3.708
 1744.5     69.949   3.622
 1745     69.85   3.536
 1745.5     70.796   3.45
 1746     72.938   3.364
 1746.5     73.055   3.278
 1747     70.605   3.192
 1747.5     68.155   4.083
 1748     65.705   5.202
 1748.5     60.427   6.321
 1749     54.836   7.439
 1749.5     52.902   8.558
 1750     51.473   9.677
 1750.5     50.044   10.796
 1751     50.227   11.532
 1751.5     51.512   10.931
 1752     54.467   9.553
 1752.5     56.563   7.851
 1753     56.638   6.15
 1753.5     56.714   5.531
 1754     56.789   5.431
 1754.5     56.632   5.331
 1755     55.771   5.23
 1755.5     54.911   5.13
 1756     54.051   5.03
 1756.5     53.467   5.721
 1757     53.976   6.919
 1757.5     54.486   8.118
 1758     54.995   9.316
 1758.5     55.505   10.515
 1759     54.282   11.714
 1759.5     52.108   12.912
 1760     51.398   14.078
 1760.5     51.575   13.709
 1761     51.752   13.339
 1761.5     51.929   12.97
 1762     52.106   12.601
 1762.5     52.283   12.231
 1763     52.46   11.862
 1763.5     52.795   13.03
 1764     55.383   16.084
 1764.5     55.504   19.138
 1765     55.625   22.193
 1765.5     55.745   25.247
 1766     57.192   28.462
 1766.5     58.664   31.935
 1767     58.955   35.407
 1767.5     57.8   30.881
 1768     56.644   24.986
 1768.5     55.488   19.092
 1769     54.148   13.197
 1769.5     52.79   7.303
 1770     55.339   6.654
 1770.5     58.4   7.218
 1771     61.461   7.782
 1771.5     64.521   8.346
 1772     66.604   8.91
 1772.5     68.49   9.474
 1773     70.376   10.038
 1773.5     72.261   10.603
 1774     73.522   10.821
 1774.5     72.565   9.785
 1775     70.995   8.748
 1775.5     69.714   7.712
 1776     69.352   6.675
 1776.5     68.99   5.638
 1777     68.685   5.36
 1777.5     68.605   5.48
 1778     68.525   5.599
 1778.5     68.444   5.719
 1779     68.364   5.839
 1779.5     68.474   5.684
 1780     68.687   5.346
 1780.5     68.901   5.008
 1781     69.115   4.67
 1781.5     69.328   4.332
 1782     69.542   3.995
 1782.5     69.71   3.657
 1783     69.251   3.319
 1783.5     68.792   3.35
 1784     68.475   3.731
 1784.5     68.28   4.112
 1785     68.085   4.494
 1785.5     67.891   4.875
 1786     67.696   5.256
 1786.5     67.501   5.638
 1787     67.306   6.019
 1787.5     67.674   6.4
 1788     68.067   6.782
 1788.5     68.459   7.163
 1789     68.852   7.667
 1789.5     69.436   8.366
 1790     70.04   9.066
 1790.5     70.643   9.2
 1791     71.247   8.3
 1791.5     71.85   7.4
 1792     71.898   6.5
 1792.5     71.847   6.174
 1793     71.795   7.133
 1793.5     71.743   8.092
 1794     71.692   9.051
 1794.5     71.64   10.01
 1795     71.588   10.969
 1795.5     72.184   11.928
 1796     72.981   12.887
 1796.5     73.413   11.729
 1797     72.64   9.756
 1797.5     71.868   7.784
 1798     71.095   6.679
 1798.5     70.323   9.374
 1799     70.011   12.069
 1799.5     71.922   14.384
 1800     73.833   14.517
 1800.5     75.363   14.65
 1801     74.441   14.783
 1801.5     73.519   14.916
 1802     72.597   16.046
 1802.5     71.675   17.843
 1803     70.753   19.641
 1803.5     70.355   21.438
 1804     70.355   23.135
 1804.5     70.356   22.706
 1805     70.27   22.277
 1805.5     66.888   21.849
 1806     63.516   20.217
 1806.5     65.086   17.415
 1807     66.655   14.614
 1807.5     68.224   12.987
 1808     69.793   12.653
 1808.5     71.362   12.32
 1809     73.219   11.986
 1809.5     74.316   11.653
 1810     73.854   11.319
 1810.5     73.391   10.986
 1811     73.733   10.652
 1811.5     75.363   10.319
 1812     75.55   9.559
 1812.5     73.175   8.092
 1813     70.8   6.624
 1813.5     68.425   5.157
 1814     66.05   3.689
 1814.5     64.003   4.048
 1815     62.034   4.785
 1815.5     60.065   5.523
 1816     58.096   6.26
 1816.5     56.127   6.998
 1817     55.422   7.736
 1817.5     55.309   7.83
 1818     55.758   6.03
 1818.5     56.206   4.23
 1819     56.654   2.885
 1819.5     56.463   3.147
 1820     55.98   3.409
 1820.5     55.497   3.671
 1821     55.014   3.933
 1821.5     54.531   4.195
 1822     54.048   4.457
 1822.5     53.565   4.719
 1823     53.398   4.971
 1823.5     53.439   5.16
 1824     53.479   5.349
 1824.5     53.519   5.539
 1825     53.56   5.728
 1825.5     53.6   5.917
 1826     53.96   6.106
 1826.5     54.635   6.295
 1827     58.053   6.484
 1827.5     59.142   6.673
 1828     57.824   6.553
 1828.5     56.507   6.153
 1829     55.189   5.753
 1829.5     53.872   5.352
 1830     52.555   4.952
 1830.5     54.026   4.551
 1831     55.715   4.981
 1831.5     55.367   6.398
 1832     54.798   7.814
 1832.5     54.229   9.231
 1833     53.66   10.648
 1833.5     53.091   12.065
 1834     52.522   9.966
 1834.5     51.953   7.445
 1835     52.408   5.92
 1835.5     53.092   6.12
 1836     53.776   6.319
 1836.5     54.46   6.386
 1837     55.587   6.186
 1837.5     57.964   5.986
 1838     60.341   5.785
 1838.5     62.718   5.585
 1839     65.095   5.385
 1839.5     72.703   5.396
 1840     72.799   5.995
 1840.5     72.896   6.594
 1841     71.847   7.194
 1841.5     70.226   7.793
 1842     68.604   7.673
 1842.5     67.204   7.264
 1843     67.358   6.854
 1843.5     67.512   6.445
 1844     67.666   6.035
 1844.5     67.819   5.626
 1845     67.973   5.216
 1845.5     67.355   4.807
 1846     66.122   4.398
 1846.5     64.94   3.988
 1847     65.464   3.579
 1847.5     65.987   3.862
 1848     66.51   4.625
 1848.5     67.033   5.388
 1849     67.556   6.15
 1849.5     68.079   6.913
 1850     67.469   7.63
 1850.5     66.805   6.764
 1851     66.141   5.897
 1851.5     65.477   5.03
 1852     64.814   4.163
 1852.5     62.556   4.116
 1853     60.11   4.965
 1853.5     60.676   5.814
 1854     61.688   6.663
 1854.5     62.7   7.513
 1855     63.713   8.362
 1855.5     64.725   8.667
 1856     65.737   8.187
 1856.5     66.934   7.706
 1857     68.584   7.226
 1857.5     68.937   6.746
 1858     68.907   6.266
 1858.5     68.162   5.785
 1859     67.176   5.305
 1859.5     66.19   6.28
 1860     66.2   7.565
 1860.5     66.614   8.849
 1861     67.028   9.663
 1861.5     67.442   9.293
 1862     67.856   8.924
 1862.5     68.27   8.554
 1863     68.684   8.185
 1863.5     68.694   7.815
 1864     68.462   7.446
 1864.5     68.23   7.264
 1865     67.998   7.157
 1865.5     67.766   7.051
 1866     67.533   6.945
 1866.5     67.325   6.839
 1867     67.6   6.732
 1867.5     67.874   6.626
 1868     68.149   6.52
 1868.5     68.423   6.463
