#--------------------------------------------------#
#-------------------ENVERUS, INC.------------------#
#------------------WWW.ENVERUS.COM-----------------#
#------------------COPYRIGHT 2020------------------#
#--------------------------------------------------#
#THIS FILE MAY BE USED ONLY IN ACCORDANCE WITH A CURRENT SUBSCRIPTION AGREEMENT BETWEEN
#THE USER AND ENVERUS, INC. NO PART OF THIS FILE MAY BE REPRODUCED, USED, COPIED,
#MODIFIED, PROPAGATED, OR DISTRIBUTED EXCEPT IN ACCORDANCE WITH THE SUBSCRIPTION
#AGREEMENT. UNAUTHORIZED USE OR DISTRIBUTION OF ALL OR ANY PART OF THIS FILE MAY VIOLATE
#COPYRIGHT, TRADEMARK, AND/OR OTHER LAWS AND IS SUBJECT TO CIVIL AS WELL AS CRIMINAL
#SANCTIONS.
#--------------------------------------------------#
#THIS FILE IS PROVIDED "AS-IS" AND ALL WARRANTIES ARE EXPRESSLY DISCLAIMED, WHETHER
#EXPRESS, ORAL, IMPLIED, STATUTORY OR OTHERWISE, INCLUDING ANY IMPLIED WARRANTY OF FITNESS
#FOR A PARTICULAR PURPOSE, MERCHANTABILITY, TITLE OR NON-INFRINGEMENT, AND ANY WARRANTIES
#ARISING BY VIRTUE OF CUSTOM OF TRADE OR COURSE OF DEALING.  FURTHER, ENVERUS, INC.
#AND ITS LICENSORS DO NOT REPRESENT OR WARRANT THAT THIS FILE WILL MEET USER'S
#REQUIREMENTS OR ARE SUITABLE FOR USER'S NEEDS OR THAT THE DATA OR RESULTS PROVIDED IN
#CONJUNCTION THEREWITH ARE CORRECT, ACCURATE, TIMELY OR RELIABLE. THESE DISCLAIMERS SHALL
#APPLY REGARDLESS OF ANY FAILURE OF ESSENTIAL PURPOSE OF ANY LIMITED REMEDY.  SOME
#JURISDICTIONS DO NOT ALLOW THE EXCLUSION OF CERTAIN WARRANTIES SO SOME OF THE ABOVE
#EXCLUSIONS MAY NOT APPLY. IN NO EVENT SHALL ENVERUS, INC. OR ANY OF ITS AFFILIATES
#BE LIABLE UNDER ANY LEGAL THEORY, WHETHER IN TORT (INCLUDING WITHOUT LIMITATION
#NEGLIGENCE), CONTRACT, STRICT LIABILITY, STATUTORY OR OTHERWISE, FOR ANY SPECIAL,
#INCIDENTAL, CONSEQUENTIAL, EXEMPLARY, PUNITIVE OR INDIRECT DAMAGE OF ANY KIND, INCLUDING
#WITHOUT LIMITATION LOSS OF REVENUE, PROFITS, GOODWILL, USE, AND/OR DATA OR THE COST OF
#PROCUREMENT OF SUBSTITUTE GOODS OR SERVICES, EVEN IF APPRISED OF THE POSSIBILITY OF SUCH
#DAMAGES IN ADVANCE.
#--------------------------------------------------#

~VERSION INFORMATION
VERS. 2.0 : CWLS LOG ASCII STANDARD - VERSION 2.0
WRAP.  NO : ONE LINE PER DEPTH STEP
~WELL INFORMATION
#MNEMONIC     .UNIT              VALUE :DESCRIPTION
STRT       .FT                -3 :START DEPTH
STOP       .FT                21524 :STOP DEPTH
STEP       .FT                   0.500 :STEP
NULL       .                  -999.99 :NULL
UWI        .                42389105080000 :UNIQUE WELL ID
API        .                42389105080000 :API NUMBER
COMP       .         :COMPANY
WELL       .        :WELL
DATE       .                 :LOG DATE
FLD       .                 :FIELD NAME
LOC       .                  UNK :LOCATION
CNTY       .                 UNK :COUNTY
STAT       .                 UNK :STATE
CTRY       .                 UNK :COUNTY
SRVC       .                 UNK :SERVICE COMPANY
~CURVE INFORMATION
#MNEMONIC     .UNIT      API CODE :CURVE DESCRIPTION
DEPTH       .FT                      :MEASURED DEPTH
CAL.IN        UNKNOWN   :CAL
DT.MSEC/FT        UNKNOWN   :DT
GR.API        UNKNOWN   :GR
~A    DEPTH    CAL    DT    GR
# ...
 20090     -.67992   56.93961   42.00379
 20090.5     -.6579   56.56063   45.11836
 20091     -.63588   57.27365   44.55647
 20091.5     -.61386   57.98667   39.13217
 20092     -.59185   58.02343   32.92348
 20092.5     -.56983   56.17113   26.71479
 20093     -.54781   54.31883   24.30132
 20093.5     -.52579   52.46653   24.71086
 20094     -.51626   52.15704   25.1204
 20094.5     -.56265   52.47471   26.59694
 20095     -.60903   52.79238   31.96314
 20095.5     -.65542   53.11004   37.32933
 20096     -.70181   53.69718   42.69553
 20096.5     -.74819   54.79028   48.06173
 20097     -.79458   56.41356   53.42793
 20097.5     -.84097   58.20151   57.45685
 20098     -.88735   59.98945   60.94377
 20098.5     -.93374   61.77739   64.4307
 20099     -.98013   63.14468   67.91762
 20099.5     -1.02651   64.0033   64.46735
 20100     -1.0474   64.60813   60.66069
 20100.5     -1.04854   63.56269   56.85402
 20101     -1.04967   62.51724   53.04735
 20101.5     -1.05081   61.4718   49.30369
 20102     -1.05194   60.43496   49.30247
 20102.5     -1.05308   59.41605   49.30125
 20103     -1.05421   58.39714   45.43096
 20103.5     -1.05535   57.37822   43.85115
 20104     -1.05648   57.41663   46.06607
 20104.5     -1.05761   58.51001   51.89151
 20105     -1.05875   59.6034   57.71695
 20105.5     -1.05988   60.11519   59.66861
 20106     -1.06102   59.45931   57.34659
 20106.5     -1.06215   58.80342   50.6182
 20107     -1.06329   58.14753   43.88981
 20107.5     -1.06442   57.49164   37.16142
 20108     -1.06556   56.83575   30.43303
 20108.5     -1.06669   56.17986   29.67129
 20109     -1.06783   55.25987   31.41709
 20109.5     -1.06896   54.24363   34.64461
 20110     -1.0701   53.66877   40.82733
 20110.5     -1.07123   55.1504   47.01004
 20111     -1.07237   56.63203   53.19276
 20111.5     -1.0735   58.11366   59.37548
 20112     -1.07463   59.59528   61.9758
 20112.5     -1.07577   60.59036   60.48076
 20113     -1.0769   59.73868   54.97948
 20113.5     -1.07804   58.887   48.49668
 20114     -1.07917   58.03533   47.85428
 20114.5     -1.08031   57.18365   48.12714
 20115     -1.08144   56.4012   52.73264
 20115.5     -1.08258   58.47537   58.11233
 20116     -1.08371   60.54954   63.49202
 20116.5     -1.08485   62.13549   68.87171
 20117     -1.08598   62.8214   77.05302
 20117.5     -1.08712   63.50731   77.67593
 20118     -1.08825   64.19322   77.77741
 20118.5     -1.08939   64.87913   75.63855
 20119     -1.09052   64.10402   67.50724
 20119.5     -1.10675   62.97953   59.37593
 20120     -1.14171   61.85503   51.24462
 20120.5     -1.17667   60.078   43.91166
 20121     -1.21163   57.95064   42.03891
 20121.5     -1.24659   56.70605   40.16616
 20122     -1.28155   57.24916   38.29341
 20122.5     -1.31652   57.69709   37.76537
 20123     -1.35148   57.26971   37.55818
 20123.5     -1.38644   56.84232   37.35098
 20124     -1.4214   56.41494   38.42254
 20124.5     -1.45636   56.01033   41.01644
 20125     -1.49132   56.0714   43.61035
 20125.5     -1.52628   56.13247   46.20425
 20126     -1.53346   56.2963   48.79815
 20126.5     -1.53236   56.84438   51.39205
 20127     -1.53127   57.39247   52.05702
 20127.5     -1.53017   57.94055   51.7122
 20128     -1.52907   58.48863   47.06115
 20128.5     -1.52797   59.03672   42.59734
 20129     -1.52688   58.43267   42.55511
 20129.5     -1.52578   57.824   42.51288
 20130     -1.52468   57.21534   42.50114
 20130.5     -1.52359   56.6223   45.78256
 20131     -1.52249   57.22325   49.06399
 20131.5     -1.52139   57.82419   49.42952
 20132     -1.52029   58.42514   48.24745
 20132.5     -1.5192   58.78229   46.16134
 20133     -1.5181   58.46506   44.74953
 20133.5     -1.517   58.14784   43.75448
 20134     -1.51591   58.6517   51.30021
 20134.5     -1.51481   59.86664   59.28294
 20135     -1.51371   61.08157   63.66621
 20135.5     -1.51262   61.7188   63.82925
 20136     -1.51152   61.1742   60.68833
 20136.5     -1.51042   60.6296   56.61132
 20137     -1.50932   60.085   52.53431
 20137.5     -1.50823   59.21015   48.4573
 20138     -1.50713   58.33189   44.38029
 20138.5     -1.50603   57.45364   43.20104
 20139     -1.50494   56.57538   44.28929
 20139.5     -1.50384   56.01489   43.23077
 20140     -1.50274   55.8362   30.75197
 20140.5     -1.50164   55.65751   29.31277
 20141     -1.50055   55.47881   28.4282
 20141.5     -1.49945   55.30012   27.54363
 20142     -1.49835   54.13044   26.65906
 20142.5     -1.49726   53.03943   25.77448
 20143     -1.49616   52.9776   25.22646
 20143.5     -1.51302   52.91576   24.69417
 20144     -1.53246   52.85393   24.16189
 20144.5     -1.55189   52.90775   23.6296
 20145     -1.57133   53.39953   23.54767
 20145.5     -1.59076   53.89132   24.64929
 20146     -1.6102   54.3831   25.75091
 20146.5     -1.62963   54.44626   26.85253
 20147     -1.64907   54.09686   28.45573
 20147.5     -1.6685   53.74745   30.11796
 20148     -1.68794   54.06795   31.78019
 20148.5     -1.70737   54.57448   33.14779
 20149     -1.72681   55.081   32.95936
 20149.5     -1.38724   55.58752   32.77092
 20150     -.90971   55.94835   32.58248
 20150.5     -.44669   56.02152   31.87153
 20151     -.47564   56.0947   30.58021
 20151.5     -.50459   56.16787   29.28889
 20152     -.53354   55.86543   27.99757
 20152.5     -.56249   55.46089   26.70625
 20153     -.59144   55.05635   25.41494
 20153.5     -.62039   54.65181   24.52379
 20154     -.64934   54.22226   25.91618
 20154.5     -.67829   53.78294   27.49578
 20155     -.70724   53.34362   29.07538
 20155.5     -.73619   52.90431   30.65499
 20156     -.76514   52.46499   32.23459
 20156.5     -.79409   51.8604   33.81419
 20157     -.82304   51.25369   35.64484
 20157.5     -.85199   51.55341   37.91238
 20158     -.854   51.86351   40.17992
 20158.5     -.76928   52.17361   42.44746
 20159     -.68455   52.81411   44.715
 20159.5     -.59983   54.04866   44.76751
 20160     -.5151   55.2832   44.62908
 20160.5     -.43038   56.51774   44.49066
 20161     -.34566   57.1734   40.86949
 20161.5     -.37612   56.79114   37.75276
 20162     -.42415   56.40888   36.92334
 20162.5     -.47219   56.02662   36.09392
 20163     -.52023   55.64436   35.2645
 20163.5     -.56826   55.2621   34.43508
 20164     -.6163   54.87983   33.1836
 20164.5     -.66434   54.73158   31.90702
 20165     -.71237   54.76655   30.63044
 20165.5     -.76041   54.80151   29.35386
 20166     -.80845   54.83648   28.07728
 20166.5     -.81313   54.87144   27.63159
 20167     -.80952   54.74251   27.21794
 20167.5     -.8059   54.5092   26.8043
 20168     -.80228   54.27588   30.22779
 20168.5     -.79867   54.04257   33.84209
 20169     -.79505   53.80926   37.45639
 20169.5     -.79144   54.21474   41.07069
 20170     -.78782   54.79507   44.32879
 20170.5     -.78421   55.3754   44.40991
 20171     -.78059   55.95573   34.05337
 20171.5     -.77697   56.53606   33.80468
 20172     -.77336   57.11638   35.23127
 20172.5     -.76974   56.82603   38.31081
 20173     -.76613   56.33738   41.39035
 20173.5     -.76251   55.84874   44.35514
 20174     -.75889   55.70274   45.17079
 20174.5     -.75528   55.98197   44.54704
 20175     -.75166   56.2612   43.29735
 20175.5     -.74805   56.54043   42.04766
 20176     -.74443   56.81965   40.79796
 20176.5     -.74082   57.09888   39.54827
 20177     -.7372   57.37811   38.89519
 20177.5     -.73358   56.93531   39.18712
 20178     -.72997   56.43885   39.51693
 20178.5     -.72635   55.94239   41.11313
 20179     -.72274   55.44593   42.70932
 20179.5     -.71912   55.10691   44.30552
 20180     -.7155   55.32742   45.90172
 20180.5     -.71189   55.54794   47.49792
 20181     -.70827   55.76845   48.03214
 20181.5     -.70466   55.98897   35.77205
 20182     -.73786   56.20949   37.92523
 20182.5     -.79302   56.43   40.75575
 20183     -.84818   56.65052   43.58627
 20183.5     -.90334   56.87103   46.4168
 20184     -.9585   56.50586   48.69976
 20184.5     -1.01366   55.71287   48.616
