###############################################
##         ENVERUS                           ##
##         ESS - Open Hole                   ##
##         PERMIAN / DELAWARE                ##
##         Nov 04 2023  V4.0                 ##
##         42-389-10116-00-00                ##
###############################################
## Copyright 2017-2023  ENVERUS.  All Rights Reserved. 
## Confidential - Property of ENVERUS, use governed by terms and 
## conditions found within the existing Information Services Subscription Agreement 
## (as may be amended, the “ISSA”) between Customer and ENVERUS. 
## 
~VERSION INFORMATION
# MNEM.UNIT                               DATA : DESCRIPTION OF MNEMONIC
#-----.-----     ----------------------------- : -----------------------------
VERS.                                     2.00 : CWLS LOG ASCII STANDARD - VERSION 2.00
WRAP.                                       NO : MULTIPLE LINES PER DEPTH STEP
VEND.                                  ENVERUS : VENDOR
TYPE.                          ESS - OPEN HOLE : ENVERUS ESSENTIAL CURVES – ACCESSIBLE THROUGH ENVERUS PRISM(TM)
DOC.                                  31818149 : ENVERUS HEADER RAW DOCUMENT ID
#___________________________________________________________________________________________________ 
~WELL INFORMATION 
# kxSJJvG4Ro99GqojvmaAoFb8nmZsGWyMBdB6Op61yYkHZj6VRdx+Ef4kBXz5Syac/VH6awax3Ll89xsC2rvs8g== 
# MNEM.UNIT                                              DATA : DESCRIPTION OF MNEMONIC 
#-----.-----                    ----------------------------- : ----------------------------- 
CNTY.                                                  REEVES : COUNTY 
STATE.                                                  TEXAS : STATE 
CNTRY.                                                    USA : COUNTRY 
API.                                             42-389-10116 : API (10 Digit) 
API_14.                                    42-389-10116-00-00 : API (14 Digits) 
API_14_std.                                 42-389-10116-0000 : API (14 Digits Standard) 
UWI.                                           42389101160000 : UNIQUE WELL ID 
WELL.                                            WOODS -A-  1 : WELL NAME
STRT.FT                                                 107.0 : START DEPTH
STOP.FT                                                5258.0 : STOP DEPTH
STEP.FT                                                   0.5 : STEP BETWEEN DEPTHS
NULL.                                                 -999.25 : NULL VALUE
COMP.                              PHILLIPS PETROLEUM COMPANY : COMPANY
#___________________________________________________________________________________________________ 
~CURVE INFORMATION 
# MNEM.UNIT           : CURVE DESCRIPTION 
#-----.-----          : ----------------------------- 
 DEPT.FT               : MEASURED DEPTH 
 GR.API                : GAMMA RAY (GR) 
 DT.US/FT              : SONIC DELTA TRANSIT TIME (DT) 
 #___________________________________________________________________________________________________ 
~A         DEPT             GR             DT
# ...
         2804.0        129.299         65.259
         2804.5        119.855         63.516
         2805.0        110.888         61.773
         2805.5        102.451         60.952
         2806.0         83.576         65.502
         2806.5         86.251         65.977
         2807.0         90.988         66.452
         2807.5         95.724         66.926
         2808.0        101.999         67.401
         2808.5        114.518         61.372
         2809.0        115.902         61.282
         2809.5        115.779         63.369
         2810.0         68.023         65.954
         2810.5         67.969         67.582
         2811.0         67.916         66.139
         2811.5         67.863         64.697
         2812.0         67.810         64.116
         2812.5         65.137         64.825
         2813.0         61.161         65.534
         2813.5         59.003         66.242
         2814.0         57.793         65.943
         2814.5         56.583         65.580
         2815.0         55.372         65.216
         2815.5         54.162         65.352
         2816.0         53.856         65.886
         2816.5         56.146         65.903
         2817.0         58.436         65.557
         2817.5         60.726         65.211
         2818.0         59.465         65.111
         2818.5         53.764         65.982
         2819.0         48.063         66.854
         2819.5         42.361         67.004
         2820.0         37.298         66.876
         2820.5         32.327         66.749
         2821.0         29.062         66.622
         2821.5         29.100         66.495
         2822.0         29.138         66.367
         2822.5         29.176         66.240
         2823.0         29.213         66.113
         2823.5         29.251         65.986
         2824.0         29.289         66.113
         2824.5         27.982         66.504
         2825.0         25.540         66.894
         2825.5         23.097         67.256
         2826.0         20.654         67.135
         2826.5         18.320         67.014
         2827.0         17.209         66.893
         2827.5         16.099         66.772
         2828.0         14.988         66.723
         2828.5         14.347         66.961
         2829.0         16.186         67.199
         2829.5         18.024         67.437
         2830.0         19.863         67.676
         2830.5         20.968         67.479
         2831.0         20.597         67.170
         2831.5         20.226         66.861
         2832.0         19.855         66.551
         2832.5         20.052         66.560
         2833.0         20.987         66.976
         2833.5         21.923         67.392
         2834.0         22.705         67.409
         2834.5         21.066         67.016
         2835.0         19.427         66.622
         2835.5         17.958         66.228
         2836.0         17.925         66.574
         2836.5         17.891         67.230
         2837.0         17.858         67.098
         2837.5         17.824         66.966
         2838.0         17.791         66.835
         2838.5         17.757         66.703
         2839.0         16.817         66.571
         2839.5         13.801         66.766
         2840.0         10.785         67.044
         2840.5         10.738         67.322
         2841.0         11.367         67.239
         2841.5         11.996         67.098
         2842.0         12.625         66.957
         2842.5         12.313         66.816
         2843.0         11.951         66.675
         2843.5         11.588         66.558
         2844.0         11.225         67.151
         2844.5         10.862         67.691
         2845.0         10.499         67.449
         2845.5         10.136         67.207
         2846.0         10.008         66.966
         2846.5         10.010         67.057
         2847.0          9.664         67.312
         2847.5          9.170         67.568
         2848.0          8.675         67.629
         2848.5          8.180         67.091
         2849.0          7.685         66.553
         2849.5          7.190         66.016
         2850.0          6.695         66.390
         2850.5          6.200         66.898
         2851.0          6.199         67.407
         2851.5          6.254         67.610
         2852.0          6.308         67.405
         2852.5          6.363         67.201
         2853.0          6.418         66.996
         2853.5          6.472         66.792
         2854.0          6.527         66.587
         2854.5          6.582         66.448
         2855.0          6.636         66.775
         2855.5          7.198         67.103
         2856.0          8.003         67.430
         2856.5          8.533         67.555
         2857.0          8.287         66.886
         2857.5          8.040         66.479
         2858.0          7.793         66.750
         2858.5          7.546         67.021
         2859.0          7.299         67.292
         2859.5          7.052         67.563
         2860.0          6.805         67.833
         2860.5          6.796         67.633
         2861.0          7.048         67.378
         2861.5          7.300         67.122
         2862.0          7.552         66.867
         2862.5          7.804         66.835
         2863.0          8.056         66.998
         2863.5          7.970         67.160
         2864.0          7.708         67.323
         2864.5          7.447         67.485
         2865.0          7.185         67.547
         2865.5          6.924         67.086
         2866.0          6.662         66.626
         2866.5          6.401         66.751
         2867.0          6.140         67.074
         2867.5          6.026         67.398
         2868.0          6.148         67.531
         2868.5          6.270         67.259
         2869.0          6.392         67.249
         2869.5          6.514         67.665
         2870.0          6.636         67.755
         2870.5          6.758         67.392
         2871.0          6.880         67.029
         2871.5          7.002         67.366
         2872.0          7.124         67.704
         2872.5          7.246         68.007
         2873.0          7.368         67.786
         2873.5          7.478         67.564
         2874.0          7.551         67.425
         2874.5          7.625         67.753
         2875.0          7.698         68.081
         2875.5          5.613         68.408
         2876.0          5.966         67.229
         2876.5          6.749         67.348
         2877.0          7.532         67.467
         2877.5          8.315         67.586
         2878.0          8.507         67.705
         2878.5          8.158         67.825
         2879.0          7.809         67.765
         2879.5          7.460         67.443
         2880.0          7.111         67.120
         2880.5          6.762         66.797
         2881.0          6.413         66.503
         2881.5          6.064         66.781
         2882.0          5.910         67.059
         2882.5          6.362         67.337
         2883.0          6.815         67.615
         2883.5          7.268         67.893
         2884.0          7.721         67.977
         2884.5          7.544         67.148
         2885.0          6.433         66.320
         2885.5          5.963         67.848
         2886.0          6.299         67.241
         2886.5          6.634         66.633
         2887.0          6.970         66.460
         2887.5          7.306         67.039
         2888.0          7.641         67.618
         2888.5          7.977         68.196
         2889.0          8.313         68.263
         2889.5          8.648         67.656
         2890.0          8.241         67.049
         2890.5          7.548         66.991
