#--------------------------------------------------#
#-------------------ENVERUS, INC.------------------#
#------------------WWW.ENVERUS.COM-----------------#
#------------------COPYRIGHT 2020------------------#
#--------------------------------------------------#
#THIS FILE MAY BE USED ONLY IN ACCORDANCE WITH A CURRENT SUBSCRIPTION AGREEMENT BETWEEN
#THE USER AND ENVERUS, INC. NO PART OF THIS FILE MAY BE REPRODUCED, USED, COPIED,
#MODIFIED, PROPAGATED, OR DISTRIBUTED EXCEPT IN ACCORDANCE WITH THE SUBSCRIPTION
#AGREEMENT. UNAUTHORIZED USE OR DISTRIBUTION OF ALL OR ANY PART OF THIS FILE MAY VIOLATE
#COPYRIGHT, TRADEMARK, AND/OR OTHER LAWS AND IS SUBJECT TO CIVIL AS WELL AS CRIMINAL
#SANCTIONS.
#--------------------------------------------------#
#THIS FILE IS PROVIDED "AS-IS" AND ALL WARRANTIES ARE EXPRESSLY DISCLAIMED, WHETHER
#EXPRESS, ORAL, IMPLIED, STATUTORY OR OTHERWISE, INCLUDING ANY IMPLIED WARRANTY OF FITNESS
#FOR A PARTICULAR PURPOSE, MERCHANTABILITY, TITLE OR NON-INFRINGEMENT, AND ANY WARRANTIES
#ARISING BY VIRTUE OF CUSTOM OF TRADE OR COURSE OF DEALING.  FURTHER, ENVERUS, INC.
#AND ITS LICENSORS DO NOT REPRESENT OR WARRANT THAT THIS FILE WILL MEET USER'S
#REQUIREMENTS OR ARE SUITABLE FOR USER'S NEEDS OR THAT THE DATA OR RESULTS PROVIDED IN
#CONJUNCTION THEREWITH ARE CORRECT, ACCURATE, TIMELY OR RELIABLE. THESE DISCLAIMERS SHALL
#APPLY REGARDLESS OF ANY FAILURE OF ESSENTIAL PURPOSE OF ANY LIMITED REMEDY.  SOME
#JURISDICTIONS DO NOT ALLOW THE EXCLUSION OF CERTAIN WARRANTIES SO SOME OF THE ABOVE
#EXCLUSIONS MAY NOT APPLY. IN NO EVENT SHALL ENVERUS, INC. OR ANY OF ITS AFFILIATES
#BE LIABLE UNDER ANY LEGAL THEORY, WHETHER IN TORT (INCLUDING WITHOUT LIMITATION
#NEGLIGENCE), CONTRACT, STRICT LIABILITY, STATUTORY OR OTHERWISE, FOR ANY SPECIAL,
#INCIDENTAL, CONSEQUENTIAL, EXEMPLARY, PUNITIVE OR INDIRECT DAMAGE OF ANY KIND, INCLUDING
#WITHOUT LIMITATION LOSS OF REVENUE, PROFITS, GOODWILL, USE, AND/OR DATA OR THE COST OF
#PROCUREMENT OF SUBSTITUTE GOODS OR SERVICES, EVEN IF APPRISED OF THE POSSIBILITY OF SUCH
#DAMAGES IN ADVANCE.
#--------------------------------------------------#

~VERSION INFORMATION
VERS. 2.0 : CWLS LOG ASCII STANDARD - VERSION 2.0
WRAP.  NO : ONE LINE PER DEPTH STEP
~WELL INFORMATION
#MNEMONIC     .UNIT              VALUE :DESCRIPTION
STRT       .FT                -3 :START DEPTH
STOP       .FT                21524 :STOP DEPTH
STEP       .FT                   0.500 :STEP
NULL       .                  -999.99 :NULL
UWI        .                42389105080000 :UNIQUE WELL ID
API        .                42389105080000 :API NUMBER
COMP       .         :COMPANY
WELL       .        :WELL
DATE       .                 :LOG DATE
FLD       .                 :FIELD NAME
LOC       .                  UNK :LOCATION
CNTY       .                 UNK :COUNTY
STAT       .                 UNK :STATE
CTRY       .                 UNK :COUNTY
SRVC       .                 UNK :SERVICE COMPANY
~CURVE INFORMATION
#MNEMONIC     .UNIT      API CODE :CURVE DESCRIPTION
DEPTH       .FT                      :MEASURED DEPTH
CAL.IN        UNKNOWN   :CAL
DT.MSEC/FT        UNKNOWN   :DT
GR.API        UNKNOWN   :GR
~A    DEPTH    CAL    DT    GR
# ...
 21440     6.29884   45.86879   38.75246
 21440.5     6.28768   45.64168   42.23766
 21441     6.27653   45.87465   41.55947
 21441.5     6.26537   46.47088   39.14439
 21442     6.25421   47.06711   35.2274
 21442.5     6.24305   47.66334   31.3104
 21443     6.23189   47.52164   27.39341
 21443.5     6.22074   47.18397   23.47641
 21444     6.20958   46.8463   19.55942
 21444.5     6.19842   46.50864   15.64243
 21445     6.18726   46.17097   11.72543
 21445.5     6.17611   45.8333   10.59359
 21446     6.16495   45.49563   9.9039
 21446.5     6.15379   45.15796   9.21421
 21447     6.14263   44.88917   8.85955
 21447.5     6.14006   45.14464   8.91839
 21448     6.17149   45.40011   8.97723
 21448.5     6.20292   45.65558   9.03608
 21449     6.23436   45.91105   9.09492
 21449.5     6.26579   46.16652   10.19603
 21450     6.29723   46.2   11.65839
 21450.5     6.32866   45.833   13.12075
 21451     6.34713   45.466   14.58312
 21451.5     6.3411   45.09899   16.04548
 21452     6.33506   45.01374   17.50784
 21452.5     6.32902   45.41723   18.54575
 21453     6.32298   45.82071   17.97619
 21453.5     6.31695   46.2242   17.40663
 21454     6.31091   46.62768   16.83706
 21454.5     6.30487   46.85853   17.05945
 21455     6.3123   46.488   19.44486
 21455.5     6.34199   46.11747   22.30834
 21456     6.37167   45.74693   25.17182
 21456.5     6.40135   45.3764   27.66516
 21457     6.43103   45.54657   28.83039
 21457.5     6.46071   46.12073   24.88804
 21458     6.42272   46.69489   20.9457
 21458.5     6.33539   47.26905   17.29189
 21459     6.24805   47.07809   17.49848
 21459.5     6.16071   46.70758   17.70507
 21460     6.1642   46.33706   17.91165
 21460.5     6.19137   45.96654   19.82142
 21461     6.21853   45.68191   22.38964
 21461.5     6.24569   45.84785   24.95785
 21462     6.27269   46.01379   27.52606
 21462.5     6.29636   46.17973   30.09427
 21463     6.32003   46.34567   32.65273
 21463.5     6.3437   46.51161   33.57882
 21464     6.36737   46.67755   33.25868
 21464.5     6.39104   46.84349   30.74067
 21465     6.41471   46.89086   28.22266
 21465.5     6.45381   46.69507   27.1075
 21466     6.49913   46.49927   27.38334
 21466.5     6.54446   46.30347   29.06625
 21467     6.58978   46.10767   31.67733
 21467.5     6.63511   45.91188   32.80663
 21468     6.59649   45.71608   31.77758
 21468.5     6.45993   45.52028   25.31822
 21469     6.32337   45.74916   18.85886
 21469.5     6.1868   46.04734   -999.99
 21470     6.05024   46.34552   -999.99
 21470.5     5.91367   46.6437   -999.99
 21471     5.99087   46.94188   -999.99
 21471.5     6.07095   47.20106   -999.99
 21472     6.15102   46.84131   -999.99
 21472.5     6.2311   46.48155   -999.99
 21473     6.31118   46.12179   -999.99
 21473.5     6.39126   45.76203   -999.99
 21474     6.39104   45.40228   -999.99
 21474.5     6.36211   45.09464   -999.99
 21475     6.33317   45.43811   -999.99
 21475.5     6.30424   45.78159   -999.99
 21476     6.2753   46.12506   -999.99
 21476.5     6.24637   46.46853   -999.99
 21477     6.21743   46.812   -999.99
 21477.5     6.22479   47.15547   -999.99
 21478     6.2416   47.49894   -999.99
 21478.5     6.25842   45.18047   -999.99
 21479     6.27523   46.33192   -999.99
 21479.5     6.29205   47.48336   -999.99
 21480     6.30887   48.63481   -999.99
 21480.5     6.32568   49.78625   -999.99
 21481     6.3425   50.93769   -999.99
 21481.5     6.35932   52.08914   -999.99
 21482     6.37613   52.95972   -999.99
 21482.5     6.39295   47.85926   -999.99
 21483     6.40976   46.57548   -999.99
 21483.5     6.42658   46.18523   -999.99
 21484     6.4434   45.79497   -999.99
 21484.5     6.46021   45.40472   -999.99
 21485     6.47703   45.09057   -999.99
 21485.5     6.49385   45.13516   -999.99
 21486     6.51066   45.17975   -999.99
 21486.5     6.52748   45.22434   -999.99
 21487     6.5443   45.26893   -999.99
 21487.5     6.56111   45.31352   -999.99
 21488     6.57793   45.35811   -999.99
 21488.5     6.58938   45.4027   -999.99
 21489     6.54348   45.44729   -999.99
 21489.5     6.49758   45.49188   -999.99
 21490     6.45169   45.57538   -999.99
 21490.5     6.40579   45.72769   -999.99
 21491     6.35989   45.88   -999.99
 21491.5     6.31399   45.85296   -999.99
 21492     6.2681   45.65877   -999.99
 21492.5     6.2222   45.46457   -999.99
 21493     6.1763   45.27038   -999.99
 21493.5     6.19249   45.07618   -999.99
 21494     6.29063   44.88199   -999.99
 21494.5     6.32302   44.6878   -999.99
 21495     6.34623   44.4936   -999.99
 21495.5     6.36944   44.29941   -999.99
 21496     6.40008   44.10521   -999.99
 21496.5     6.46252   41.9781   -999.99
 21497     6.52496   43.27627   -999.99
 21497.5     6.58739   44.43341   -999.99
 21498     6.64983   45.00599   -999.99
 21498.5     6.71226   45.57856   -999.99
 21499     6.7747   45.57428   -999.99
 21499.5     6.83714   45.52764   -999.99
 21500     6.89957   45.48101   -999.99
 21500.5     6.86983   45.43437   -999.99
 21501     6.8234   45.38773   -999.99
 21501.5     6.77697   45.3411   -999.99
 21502     6.73053   45.29446   -999.99
 21502.5     6.74441   45.24783   -999.99
 21503     6.80687   45.20119   -999.99
 21503.5     6.86933   45.15455   -999.99
 21504     6.93179   45.10792   -999.99
 21504.5     6.96999   45.06128   -999.99
 21505     6.96945   45.01465   -999.99
 21505.5     6.96891   44.96801   -999.99
 21506     6.96837   44.92137   -999.99
 21506.5     6.96783   44.87474   -999.99
 21507     6.96729   44.8281   -999.99
 21507.5     6.96676   44.78147   -999.99
 21508     6.96622   44.73483   -999.99
 21508.5     6.96568   44.68819   -999.99
 21509     6.96514   45.10653   -999.99
 21509.5     6.9646   -999.99   -999.99
 21510     6.96406   -999.99   -999.99
 21510.5     6.96352   -999.99   -999.99
 21511     6.96299   -999.99   -999.99
 21511.5     6.96245   -999.99   -999.99
 21512     6.96191   -999.99   -999.99
 21512.5     6.96137   -999.99   -999.99
 21513     6.96083   -999.99   -999.99
 21513.5     6.96029   -999.99   -999.99
 21514     6.95975   -999.99   -999.99
 21514.5     6.95922   -999.99   -999.99
 21515     6.95868   -999.99   -999.99
 21515.5     6.95814   -999.99   -999.99
 21516     6.9576   -999.99   -999.99
 21516.5     6.95706   -999.99   -999.99
 21517     6.95652   -999.99   -999.99
 21517.5     6.95599   -999.99   -999.99
 21518     6.95545   -999.99   -999.99
 21518.5     6.95491   -999.99   -999.99
 21519     6.95437   -999.99   -999.99
 21519.5     6.95383   -999.99   -999.99
 21520     6.95329   -999.99   -999.99
 21520.5     6.95275   -999.99   -999.99
 21521     6.95222   -999.99   -999.99
 21521.5     6.95168   -999.99   -999.99
 21522     6.95114   -999.99   -999.99
 21522.5     6.9506   -999.99   -999.99
 21523     6.95006   -999.99   -999.99
 21523.5     6.94952   -999.99   -999.99
 21524     6.94898   -999.99   -999.99
