#--------------------------------------------------#
#-------------------ENVERUS, INC.------------------#
#------------------WWW.ENVERUS.COM-----------------#
#------------------COPYRIGHT 2020------------------#
#--------------------------------------------------#
#THIS FILE MAY BE USED ONLY IN ACCORDANCE WITH A CURRENT SUBSCRIPTION AGREEMENT BETWEEN
#THE USER AND ENVERUS, INC. NO PART OF THIS FILE MAY BE REPRODUCED, USED, COPIED,
#MODIFIED, PROPAGATED, OR DISTRIBUTED EXCEPT IN ACCORDANCE WITH THE SUBSCRIPTION
#AGREEMENT. UNAUTHORIZED USE OR DISTRIBUTION OF ALL OR ANY PART OF THIS FILE MAY VIOLATE
#COPYRIGHT, TRADEMARK, AND/OR OTHER LAWS AND IS SUBJECT TO CIVIL AS WELL AS CRIMINAL
#SANCTIONS.
#--------------------------------------------------#
#THIS FILE IS PROVIDED "AS-IS" AND ALL WARRANTIES ARE EXPRESSLY DISCLAIMED, WHETHER
#EXPRESS, ORAL, IMPLIED, STATUTORY OR OTHERWISE, INCLUDING ANY IMPLIED WARRANTY OF FITNESS
#FOR A PARTICULAR PURPOSE, MERCHANTABILITY, TITLE OR NON-INFRINGEMENT, AND ANY WARRANTIES
#ARISING BY VIRTUE OF CUSTOM OF TRADE OR COURSE OF DEALING.  FURTHER, ENVERUS, INC.
#AND ITS LICENSORS DO NOT REPRESENT OR WARRANT THAT THIS FILE WILL MEET USER'S
#REQUIREMENTS OR ARE SUITABLE FOR USER'S NEEDS OR THAT THE DATA OR RESULTS PROVIDED IN
#CONJUNCTION THEREWITH ARE CORRECT, ACCURATE, TIMELY OR RELIABLE. THESE DISCLAIMERS SHALL
#APPLY REGARDLESS OF ANY FAILURE OF ESSENTIAL PURPOSE OF ANY LIMITED REMEDY.  SOME
#JURISDICTIONS DO NOT ALLOW THE EXCLUSION OF CERTAIN WARRANTIES SO SOME OF THE ABOVE
#EXCLUSIONS MAY NOT APPLY. IN NO EVENT SHALL ENVERUS, INC. OR ANY OF ITS AFFILIATES
#BE LIABLE UNDER ANY LEGAL THEORY, WHETHER IN TORT (INCLUDING WITHOUT LIMITATION
#NEGLIGENCE), CONTRACT, STRICT LIABILITY, STATUTORY OR OTHERWISE, FOR ANY SPECIAL,
#INCIDENTAL, CONSEQUENTIAL, EXEMPLARY, PUNITIVE OR INDIRECT DAMAGE OF ANY KIND, INCLUDING
#WITHOUT LIMITATION LOSS OF REVENUE, PROFITS, GOODWILL, USE, AND/OR DATA OR THE COST OF
#PROCUREMENT OF SUBSTITUTE GOODS OR SERVICES, EVEN IF APPRISED OF THE POSSIBILITY OF SUCH
#DAMAGES IN ADVANCE.
#--------------------------------------------------#

~VERSION INFORMATION
VERS. 2.0 : CWLS LOG ASCII STANDARD - VERSION 2.0
WRAP.  NO : ONE LINE PER DEPTH STEP
~WELL INFORMATION
#MNEMONIC     .UNIT              VALUE :DESCRIPTION
STRT       .FT                101 :START DEPTH
STOP       .FT                5382 :STOP DEPTH
STEP       .FT                   0.500 :STEP
NULL       .                  -999.990 :NULL
UWI        .              42389007790000 :UNIQUE WELL ID
API        .              42389007790000 :API NUMBER
COMP       .         :COMPANY
WELL       .         1, :WELL
DATE       .                            :LOG DATE
~CURVE INFORMATION
#MNEMONIC     .UNIT      API CODE :CURVE DESCRIPTION
DEPTH       .FT                      :MEASURED DEPTH
DT.US/FT        UNKNOWN   :DT
GR.API        UNKNOWN   :GR
~A    DEPTH    DT    GR
 101     -999.990   41.519
 101.5     -999.990   39.883
 102     -999.990   39.333
 102.5     -999.990   39.381
 103     -999.990   39.429
 103.5     -999.990   39.477
 104     -999.990   39.526
 104.5     -999.990   39.574
 105     -999.990   40.551
 105.5     -999.990   42.313
 106     -999.990   44.076
 106.5     -999.990   45.839
 107     -999.990   46.762
 107.5     -999.990   46.543
 108     -999.990   46.325
 108.5     -999.990   46.107
 109     -999.990   45.889
 109.5     -999.990   45.67
 110     -999.990   47.924
 110.5     -999.990   50.648
 111     -999.990   53.371
 111.5     -999.990   55.316
 112     -999.990   56.973
 112.5     -999.990   58.63
 113     -999.990   60.287
 113.5     -999.990   61.944
 114     -999.990   63.37
 114.5     -999.990   61.865
 115     -999.990   60.36
 115.5     -999.990   58.855
 116     -999.990   57.35
 116.5     -999.990   55.878
 117     -999.990   55.166
 117.5     -999.990   54.454
 118     -999.990   53.742
 118.5     -999.990   53.03
 119     -999.990   52.318
 119.5     -999.990   51.606
 120     -999.990   50.894
 120.5     -999.990   50.183
 121     -999.990   51.076
 121.5     -999.990   51.459
 122     -999.990   50.979
 122.5     -999.990   50.5
 123     -999.990   50.021
 123.5     -999.990   49.542
 124     -999.990   49.321
 124.5     -999.990   49.594
 125     -999.990   49.867
 125.5     -999.990   50.14
 126     -999.990   50.413
 126.5     -999.990   50.686
 127     -999.990   50.959
 127.5     -999.990   54.06
 128     -999.990   58.25
 128.5     -999.990   62.21
 129     -999.990   66.034
 129.5     -999.990   69.747
 130     -999.990   66.981
 130.5     -999.990   64.216
 131     -999.990   61.451
 131.5     -999.990   58.686
 132     -999.990   57.844
 132.5     -999.990   58.73
 133     -999.990   59.616
 133.5     -999.990   60.502
 134     -999.990   55.318
 134.5     -999.990   57.345
 135     -999.990   59.371
 135.5     -999.990   61.398
 136     -999.990   63.425
 136.5     -999.990   65.451
 137     -999.990   65.088
 137.5     -999.990   64.161
 138     -999.990   63.234
 138.5     -999.990   62.306
 139     -999.990   61.379
 139.5     -999.990   60.902
 140     -999.990   61.762
 140.5     -999.990   62.621
 141     -999.990   63.48
 141.5     -999.990   64.34
 142     -999.990   65.199
 142.5     -999.990   64.483
 143     -999.990   62.826
 143.5     -999.990   63.11
 144     -999.990   64.608
 144.5     -999.990   66.107
 145     -999.990   67.606
 145.5     -999.990   69.105
 146     -999.990   70.603
 146.5     -999.990   66.311
 147     -999.990   61.81
 147.5     -999.990   57.33
 148     -999.990   56.903
 148.5     -999.990   56.475
 149     -999.990   56.047
 149.5     -999.990   54.424
 150     -999.990   51.384
 150.5     -999.990   48.343
 151     -999.990   46.841
 151.5     -999.990   47.077
 152     -999.990   47.313
 152.5     -999.990   49.256
 153     -999.990   51.341
 153.5     -999.990   53.427
 154     -999.990   55.512
 154.5     -999.990   56.741
 155     -999.990   55.781
 155.5     -999.990   54.821
 156     -999.990   54.649
 156.5     -999.990   54.733
 157     -999.990   54.816
 157.5     -999.990   54.432
 158     -999.990   52.111
 158.5     -999.990   49.791
 159     -999.990   48.778
 159.5     -999.990   53.25
 160     -999.990   57.252
 160.5     -999.990   56.773
 161     -999.990   56.294
 161.5     -999.990   57.719
 162     -999.990   60.635
 162.5     -999.990   63.551
 163     -999.990   64.776
 163.5     -999.990   63.919
 164     -999.990   63.062
 164.5     -999.990   62.205
 165     -999.990   64.522
 165.5     -999.990   67.152
 166     -999.990   65.781
 166.5     -999.990   63.645
 167     -999.990   61.509
 167.5     -999.990   59.373
 168     -999.990   57.238
 168.5     -999.990   55.102
 169     -999.990   52.966
 169.5     -999.990   52.938
 170     -999.990   57.326
 170.5     -999.990   61.715
 171     -999.990   61.986
 171.5     -999.990   60.514
 172     -999.990   59.043
 172.5     -999.990   57.572
 173     -999.990   56.101
 173.5     -999.990   54.629
 174     -999.990   53.158
 174.5     -999.990   51.687
 175     -999.990   50.216
 175.5     -999.990   49.954
 176     -999.990   50.368
 176.5     -999.990   50.782
 177     -999.990   51.196
 177.5     -999.990   51.61
 178     -999.990   51.052
 178.5     -999.990   49.678
 179     -999.990   48.303
 179.5     -999.990   46.979
 180     -999.990   48.67
 180.5     -999.990   50.361
 181     -999.990   52.052
 181.5     -999.990   53.743
 182     -999.990   55.848
 182.5     -999.990   57.999
 183     -999.990   60.15
 183.5     -999.990   60.343
 184     -999.990   60.07
 184.5     -999.990   59.798
 185     -999.990   59.525
 185.5     -999.990   59.252
 186     -999.990   59.242
 186.5     -999.990   60.128
 187     -999.990   61.015
 187.5     -999.990   61.901
 188     -999.990   62.787
 188.5     -999.990   63.674
 189     -999.990   64.219
 189.5     -999.990   61.269
 190     -999.990   58.319
 190.5     -999.990   55.369
 191     -999.990   52.525
 191.5     -999.990   49.751
 192     -999.990   46.976
 192.5     -999.990   44.708
 193     -999.990   46.762
 193.5     -999.990   48.816
 194     -999.990   50.87
 194.5     -999.990   52.924
 195     -999.990   50.588
 195.5     -999.990   48.166
 196     -999.990   45.744
 196.5     -999.990   43.322
 197     -999.990   40.9
 197.5     -999.990   40.231
 198     -999.990   41.476
 198.5     -999.990   42.721
 199     -999.990   43.966
 199.5     -999.990   45.211
 200     -999.990   38.477
 200.5     -999.990   38.624
 201     -999.990   38.771
 201.5     -999.990   38.919
 202     -999.990   39.066
 202.5     -999.990   39.213
 203     -999.990   40.113
 203.5     -999.990   42.816
 204     -999.990   45.519
 204.5     -999.990   48.222
 205     -999.990   50.925
 205.5     -999.990   53.628
 206     -999.990   56.332
 206.5     -999.990   59.035
 207     -999.990   61.673
 207.5     -999.990   58.634
 208     -999.990   55.595
 208.5     -999.990   52.556
 209     -999.990   49.624
 209.5     -999.990   50.888
 210     -999.990   52.152
 210.5     -999.990   53.416
 211     -999.990   54.2
 211.5     -999.990   54.364
 212     -999.990   54.527
 212.5     -999.990   54.691
 213     -999.990   54.855
 213.5     -999.990   55.019
 214     -999.990   55.183
 214.5     -999.990   55.347
 215     -999.990   55.51
 215.5     -999.990   55.015
 216     -999.990   52.777
 216.5     -999.990   50.54
 217     -999.990   48.302
 217.5     -999.990   46.064
 218     -999.990   44.084
 218.5     -999.990   42.815
 219     -999.990   41.546
 219.5     -999.990   40.277
 220     -999.990   39.008
 220.5     -999.990   42.562
 221     -999.990   47.921
 221.5     -999.990   53.28
 222     -999.990   56.278
 222.5     -999.990   57.459
 223     -999.990   58.639
 223.5     -999.990   59.819
 224     -999.990   56.719
 224.5     -999.990   53.525
 225     -999.990   53.424
 225.5     -999.990   53.363
 226     -999.990   53.302
 226.5     -999.990   53.241
 227     -999.990   53.18
 227.5     -999.990   52.251
 228     -999.990   51.23
 228.5     -999.990   50.21
 229     -999.990   49.189
 229.5     -999.990   48.168
 230     -999.990   49.828
 230.5     -999.990   51.94
 231     -999.990   53.205
 231.5     -999.990   52.262
 232     -999.990   51.319
 232.5     -999.990   50.376
 233     -999.990   51.06
 233.5     -999.990   52.314
 234     -999.990   53.568
 234.5     -999.990   54.821
 235     -999.990   54.27
 235.5     -999.990   52.705
 236     -999.990   51.455
 236.5     -999.990   52.44
 237     -999.990   53.425
 237.5     -999.990   54.209
 238     -999.990   51.501
 238.5     -999.990   48.793
 239     -999.990   46.085
 239.5     -999.990   43.377
 240     -999.990   40.668
 240.5     -999.990   37.96
 241     -999.990   35.252
 241.5     -999.990   36.829
 242     -999.990   41.768
 242.5     -999.990   46.707
 243     -999.990   51.646
 243.5     -999.990   54.969
 244     -999.990   58.079
 244.5     -999.990   61.189
