###############################################
##         ENVERUS                           ##
##         Petrophysical Curves              ##
##         PERMIAN / DELAWARE                ##
##         Jan 21 2022                       ##
##         42-389-10508-00-00                ##
###############################################
## Copyright 2017-2022  ENVERUS.  All Rights Reserved. 
## Confidential - Property of ENVERUS, use governed by terms and 
## conditions found within the existing Information Services Subscription Agreement 
## (as may be amended, the “ISSA”) between Customer and ENVERUS. 
## 
~VERSION INFORMATION
# MNEM.UNIT                               DATA : DESCRIPTION OF MNEMONIC
#-----.-----     ----------------------------- : -----------------------------
VERS.                                     2.00 : CWLS LOG ASCII STANDARD - VERSION 2.00
WRAP.                                       NO : MULTIPLE LINES PER DEPTH STEP
VEND.                                  ENVERUS : VENDOR
TYPE.                     PETROPHYSICAL CURVES : ENVERUS PETROPHYSICAL CURVES - ACCESSIBLE THROUGH ENVERUS CORE(TM)
#___________________________________________________________________________________________________ 
~WELL INFORMATION 
# uyaQ8P8kQDJ9DXFS5hR1PxmExEOYaAUkY5f3/tnOS+scoPAUWgXA1zCIHGRbWCuSuUcwDzaESCjqjWQ81XhadA== 
# MNEM.UNIT                                              DATA : DESCRIPTION OF MNEMONIC 
#-----.-----                    ----------------------------- : ----------------------------- 
CNTY.                                                  REEVES : COUNTY 
STATE.                                                  TEXAS : STATE 
CNTRY.                                                    USA : COUNTRY 
API.                                             42-389-10508 : API (10 Digit) 
API_14.                                    42-389-10508-00-00 : API (14 Digits) 
API_14_std.                                 42-389-10508-0000 : API (14 Digits Standard) 
UWI.                                           42389105080000 : UNIQUE WELL ID
STRT.FT                                               11776.0 : START DEPTH
STOP.FT                                               33299.5 : STOP DEPTH
STEP.FT                                                   0.5 : STEP BETWEEN DEPTHS
NULL.                                                 -999.25 : NULL VALUE
COMP.                                                  SABINE : COMPANY 
WELL.                                                       1 : WELL NAME 
FLD.                                         ROJO CABALLOS W. : FIELD NAME
#___________________________________________________________________________________________________ 
~CURVE INFORMATION 
#    Zone Description
#          1 = Upper Avalon
#          2 = Middle Avalon
#          3 = Lower Avalon
#          4 = 1st Bone Spring
#          5 = 2nd Bone Spring
#          6 = 2nd Bone Spring Sand
#          7 = 3rd Bone Spring
#          8 = 3rd Bone Spring Sand
#          9 = Wolfcamp XY
#          10 = Wolfcamp A Upper
#          11 = Wolfcamp A Lower
#          12 = Wolfcamp B Upper
#          13 = Wolfcamp B Lower
#          14 = Wolfcamp C
#          15 = Wolfcamp D
#          16 = Pennsylvanian Shale
#          17 = Lower Pennsylvanian Shale
#          18 = Barnett
#          19 = Barnett Lower
#          20 = Mississippian Lime
#          21 = Woodford
#          22 = Base Woodford 
# MNEM.UNIT           : CURVE DESCRIPTION 
#-----.-----          : ----------------------------- 
 DEPT.FT               : MEASURED DEPTH 
 TVD_I.FT              : ENVERUS TRUE VERTICAL DEPTH 
 ZONE_I.               : ENVERUS DEFINED ZONE CODE 
 GR_N_I.API            : ENVERUS NORMALIZED GAMMA RAY LEVERAGED IN GEOLOGICAL MODELLING 
 TEMP_I.DEGF           : ENVERUS INTERPRETED TEMPERATURE DERIVED FROM BOTTOM HOLE TEMPERATURES 
 #___________________________________________________________________________________________________ 
~A         DEPT          TVD_I         ZONE_I         GR_N_I         TEMP_I
# ...
        28948.0      28948.000          22.00          6.066        252.936
        28948.5      28948.500          22.00          7.058        252.941
        28949.0      28949.000          22.00          8.049        252.947
        28949.5      28949.500          22.00          8.945        252.952
        28950.0      28950.000          22.00          8.572        252.958
        28950.5      28950.500          22.00          8.198        252.963
        28951.0      28951.000          22.00          7.824        252.969
        28951.5      28951.500          22.00          7.450        252.975
        28952.0      28951.998          22.00          6.252        252.980
        28952.5      28952.498          22.00          5.385        252.986
        28953.0      28952.998          22.00          4.833        252.991
        28953.5      28953.498          22.00          4.281        252.997
        28954.0      28954.002          22.00          3.781        253.002
        28954.5      28954.502          22.00          4.518        253.008
        28955.0      28955.002          22.00          5.255        253.013
        28955.5      28955.502          22.00          5.992        253.019
        28956.0      28956.002          22.00          6.719        253.024
        28956.5      28956.502          22.00          7.436        253.030
        28957.0      28957.000          22.00          8.153        253.035
        28957.5      28957.500          22.00          8.871        253.041
        28958.0      28958.000          22.00          9.131        253.046
        28958.5      28958.500          22.00          8.396        253.052
        28959.0      28959.000          22.00          7.661        253.058
        28959.5      28959.500          22.00          6.925        253.063
        28960.0      28960.000          22.00          6.355        253.069
        28960.5      28960.500          22.00          5.834        253.074
        28961.0      28960.998          22.00          5.314        253.080
        28961.5      28961.498          22.00          4.794        253.085
        28962.0      28961.998          22.00          4.650        253.091
        28962.5      28962.498          22.00          5.635        253.096
        28963.0      28963.000          22.00          6.619        253.102
        28963.5      28963.500          22.00          7.926        253.107
        28964.0      28964.000          22.00          9.233        253.113
        28964.5      28964.500          22.00         10.363        253.118
        28965.0      28965.000          22.00          9.958        253.124
        28965.5      28965.500          22.00          9.554        253.129
        28966.0      28966.000          22.00          8.641        253.135
        28966.5      28966.500          22.00          7.267        253.141
        28967.0      28967.000          22.00          6.618        253.146
        28967.5      28967.500          22.00          6.040        253.152
        28968.0      28968.000          22.00          5.462        253.157
        28968.5      28968.500          22.00          4.884        253.163
        28969.0      28969.000          22.00          4.561        253.168
        28969.5      28969.500          22.00          4.628        253.174
        28970.0      28970.000          22.00          4.696        253.179
        28970.5      28970.498          22.00          4.763        253.185
        28971.0      28970.998          22.00          4.831        253.190
        28971.5      28971.502          22.00          4.898        253.196
        28972.0      28972.002          22.00          4.966        253.201
        28972.5      28972.502          22.00          5.033        253.207
        28973.0      28973.002          22.00          5.338        253.212
        28973.5      28973.502          22.00          5.765        253.218
        28974.0      28974.002          22.00          6.193        253.223
        28974.5      28974.502          22.00          6.620        253.229
        28975.0      28975.002          22.00          7.048        253.235
        28975.5      28975.502          22.00          7.475        253.240
        28976.0      28976.000          22.00          6.962        253.246
        28976.5      28976.500          22.00          6.295        253.251
        28977.0      28977.000          22.00          5.629        253.257
        28977.5      28977.498          22.00          4.963        253.262
        28978.0      28977.998          22.00          4.297        253.268
        28978.5      28978.498          22.00          3.970        253.273
        28979.0      28978.998          22.00          4.205        253.279
        28979.5      28979.498          22.00          4.439        253.284
        28980.0      28979.998          22.00          4.673        253.290
        28980.5      28980.500          22.00          4.908        253.295
        28981.0      28981.000          22.00          5.142        253.301
        28981.5      28981.500          22.00          5.454        253.306
        28982.0      28982.000          22.00          5.994        253.312
        28982.5      28982.500          22.00          6.534        253.318
        28983.0      28983.000          22.00          7.074        253.323
        28983.5      28983.500          22.00          7.614        253.329
        28984.0      28984.000          22.00          8.154        253.334
        28984.5      28984.500          22.00          8.136        253.340
        28985.0      28985.000          22.00          7.451        253.345
        28985.5      28985.500          22.00          6.767        253.351
        28986.0      28986.000          22.00          6.083        253.356
        28986.5      28986.500          22.00          5.509        253.362
        28987.0      28987.000          22.00          5.248        253.367
        28987.5      28987.500          22.00          4.986        253.373
        28988.0      28988.000          22.00          4.725        253.378
        28988.5      28988.498          22.00          4.463        253.384
        28989.0      28989.002          22.00          4.202        253.389
        28989.5      28989.502          22.00          5.301        253.395
        28990.0      28990.002          22.00          6.787        253.400
        28990.5      28990.502          22.00          9.308        253.406
        28991.0      28991.002          22.00         12.014        253.412
        28991.5      28991.502          22.00         13.179        253.417
        28992.0      28992.000          22.00         14.210        253.423
        28992.5      28992.500          22.00         15.241        253.428
        28993.0      28993.000          22.00         16.775        253.434
        28993.5      28993.498          22.00         19.126        253.439
        28994.0      28993.998          22.00         21.461        253.445
        28994.5      28994.498          22.00         21.901        253.450
        28995.0      28994.998          22.00         20.330        253.456
        28995.5      28995.498          22.00         18.759        253.461
        28996.0      28995.998          22.00         18.293        253.467
        28996.5      28996.498          22.00         18.630        253.472
        28997.0      28996.998          22.00         18.967        253.478
        28997.5      28997.502          22.00         19.304        253.483
        28998.0      28998.002          22.00         44.661        253.489
        28998.5      28998.502          22.00         47.756        253.494
        28999.0      28999.000          22.00         50.851        253.500
        28999.5      28999.500          22.00         53.947        253.506
        29000.0      29000.000          22.00         57.042        253.511
        29000.5      29000.500          22.00         57.127        253.517
