###############################################
##         ENVERUS                           ##
##         Petrophysical Curves              ##
##         PERMIAN / DELAWARE                ##
##         Jan 21 2022                       ##
##         42-389-10508-00-00                ##
###############################################
## Copyright 2017-2022  ENVERUS.  All Rights Reserved. 
## Confidential - Property of ENVERUS, use governed by terms and 
## conditions found within the existing Information Services Subscription Agreement 
## (as may be amended, the “ISSA”) between Customer and ENVERUS. 
## 
~VERSION INFORMATION
# MNEM.UNIT                               DATA : DESCRIPTION OF MNEMONIC
#-----.-----     ----------------------------- : -----------------------------
VERS.                                     2.00 : CWLS LOG ASCII STANDARD - VERSION 2.00
WRAP.                                       NO : MULTIPLE LINES PER DEPTH STEP
VEND.                                  ENVERUS : VENDOR
TYPE.                     PETROPHYSICAL CURVES : ENVERUS PETROPHYSICAL CURVES - ACCESSIBLE THROUGH ENVERUS CORE(TM)
#___________________________________________________________________________________________________ 
~WELL INFORMATION 
# uyaQ8P8kQDJ9DXFS5hR1PxmExEOYaAUkY5f3/tnOS+scoPAUWgXA1zCIHGRbWCuSuUcwDzaESCjqjWQ81XhadA== 
# MNEM.UNIT                                              DATA : DESCRIPTION OF MNEMONIC 
#-----.-----                    ----------------------------- : ----------------------------- 
CNTY.                                                  REEVES : COUNTY 
STATE.                                                  TEXAS : STATE 
CNTRY.                                                    USA : COUNTRY 
API.                                             42-389-10508 : API (10 Digit) 
API_14.                                    42-389-10508-00-00 : API (14 Digits) 
API_14_std.                                 42-389-10508-0000 : API (14 Digits Standard) 
UWI.                                           42389105080000 : UNIQUE WELL ID
STRT.FT                                               11776.0 : START DEPTH
STOP.FT                                               33299.5 : STOP DEPTH
STEP.FT                                                   0.5 : STEP BETWEEN DEPTHS
NULL.                                                 -999.25 : NULL VALUE
COMP.                                                  SABINE : COMPANY 
WELL.                                                       1 : WELL NAME 
FLD.                                         ROJO CABALLOS W. : FIELD NAME
#___________________________________________________________________________________________________ 
~CURVE INFORMATION 
#    Zone Description
#          1 = Upper Avalon
#          2 = Middle Avalon
#          3 = Lower Avalon
#          4 = 1st Bone Spring
#          5 = 2nd Bone Spring
#          6 = 2nd Bone Spring Sand
#          7 = 3rd Bone Spring
#          8 = 3rd Bone Spring Sand
#          9 = Wolfcamp XY
#          10 = Wolfcamp A Upper
#          11 = Wolfcamp A Lower
#          12 = Wolfcamp B Upper
#          13 = Wolfcamp B Lower
#          14 = Wolfcamp C
#          15 = Wolfcamp D
#          16 = Pennsylvanian Shale
#          17 = Lower Pennsylvanian Shale
#          18 = Barnett
#          19 = Barnett Lower
#          20 = Mississippian Lime
#          21 = Woodford
#          22 = Base Woodford 
# MNEM.UNIT           : CURVE DESCRIPTION 
#-----.-----          : ----------------------------- 
 DEPT.FT               : MEASURED DEPTH 
 TVD_I.FT              : ENVERUS TRUE VERTICAL DEPTH 
 ZONE_I.               : ENVERUS DEFINED ZONE CODE 
 GR_N_I.API            : ENVERUS NORMALIZED GAMMA RAY LEVERAGED IN GEOLOGICAL MODELLING 
 TEMP_I.DEGF           : ENVERUS INTERPRETED TEMPERATURE DERIVED FROM BOTTOM HOLE TEMPERATURES 
 #___________________________________________________________________________________________________ 
~A         DEPT          TVD_I         ZONE_I         GR_N_I         TEMP_I
# ...
        23224.0      23224.002          22.00         39.856        189.613
        23224.5      23224.502          22.00         38.587        189.618
        23225.0      23225.000          22.00         37.317        189.624
        23225.5      23225.500          22.00         36.047        189.629
        23226.0      23226.000          22.00         34.777        189.635
        23226.5      23226.498          22.00         33.508        189.641
        23227.0      23227.000          22.00         32.238        189.646
        23227.5      23227.500          22.00         31.052        189.652
        23228.0      23228.000          22.00         30.257        189.657
        23228.5      23228.500          22.00         29.515        189.663
        23229.0      23229.000          22.00         30.524        189.668
        23229.5      23229.500          22.00         31.533        189.674
        23230.0      23230.000          22.00         31.037        189.679
        23230.5      23230.500          22.00         30.186        189.685
        23231.0      23230.998          22.00         29.335        189.690
        23231.5      23231.500          22.00         28.483        189.696
        23232.0      23232.000          22.00         28.128        189.701
        23232.5      23232.500          22.00         27.798        189.707
        23233.0      23233.000          22.00         27.468        189.712
        23233.5      23233.500          22.00         27.138        189.718
        23234.0      23234.000          22.00         27.067        189.723
        23234.5      23234.500          22.00         28.106        189.729
        23235.0      23235.000          22.00         29.144        189.735
        23235.5      23235.500          22.00         29.640        189.740
        23236.0      23236.000          22.00         29.642        189.746
        23236.5      23236.500          22.00         29.146        189.751
        23237.0      23237.000          22.00         27.802        189.757
        23237.5      23237.500          22.00         27.804        189.762
        23238.0      23238.000          22.00         27.806        189.768
        23238.5      23238.500          22.00         28.579        189.773
        23239.0      23239.000          22.00         30.262        189.779
        23239.5      23239.500          22.00         30.660        189.784
        23240.0      23240.000          22.00         30.392        189.790
        23240.5      23240.502          22.00         30.124        189.795
        23241.0      23241.002          22.00         29.856        189.801
        23241.5      23241.502          22.00         29.094        189.806
        23242.0      23242.000          22.00         28.223        189.812
        23242.5      23242.500          22.00         28.405        189.818
        23243.0      23242.998          22.00         28.587        189.823
        23243.5      23243.498          22.00         28.770        189.829
        23244.0      23243.998          22.00         28.952        189.834
        23244.5      23244.500          22.00         31.595        189.840
        23245.0      23245.000          22.00         30.653        189.845
        23245.5      23245.500          22.00         29.711        189.851
        23246.0      23246.000          22.00         28.769        189.856
        23246.5      23246.500          22.00         27.827        189.862
        23247.0      23247.000          22.00         26.885        189.867
        23247.5      23247.500          22.00         26.209        189.873
        23248.0      23248.000          22.00         26.630        189.878
        23248.5      23248.500          22.00         27.051        189.884
        23249.0      23249.000          22.00         28.464        189.889
        23249.5      23249.500          22.00         29.880        189.895
        23250.0      23250.000          22.00         31.296        189.900
        23250.5      23250.500          22.00         32.712        189.906
        23251.0      23251.000          22.00         34.075        189.912
        23251.5      23251.500          22.00         34.673        189.917
        23252.0      23252.000          22.00         35.183        189.923
        23252.5      23252.500          22.00         35.485        189.928
        23253.0      23253.000          22.00         34.220        189.934
        23253.5      23253.502          22.00         32.931        189.939
        23254.0      23254.000          22.00         32.160        189.945
        23254.5      23254.500          22.00         32.061        189.950
        23255.0      23255.000          22.00         31.961        189.956
        23255.5      23255.500          22.00         30.731        189.961
        23256.0      23256.000          22.00         29.266        189.967
        23256.5      23256.500          22.00         27.801        189.972
        23257.0      23257.000          22.00         28.096        189.978
        23257.5      23257.500          22.00         28.662        189.983
        23258.0      23258.000          22.00         29.227        189.989
        23258.5      23258.500          22.00         29.793        189.994
        23259.0      23259.000          22.00         30.494        190.000
        23259.5      23259.500          22.00         29.393        190.006
        23260.0      23260.000          22.00         28.292        190.011
        23260.5      23260.498          22.00         27.228        190.017
        23261.0      23260.998          22.00         27.330        190.022
        23261.5      23261.498          22.00         27.432        190.028
        23262.0      23262.000          22.00         27.739        190.033
        23262.5      23262.500          22.00         28.337        190.039
        23263.0      23263.000          22.00         28.936        190.044
        23263.5      23263.500          22.00         28.103        190.050
        23264.0      23264.000          22.00         26.830        190.055
        23264.5      23264.500          22.00         25.557        190.061
        23265.0      23265.000          22.00         24.284        190.066
        23265.5      23265.500          22.00         24.626        190.072
        23266.0      23266.000          22.00         25.063        190.077
        23266.5      23266.500          22.00         25.500        190.083
        23267.0      23267.000          22.00         25.937        190.089
        23267.5      23267.500          22.00         26.272        190.094
        23268.0      23268.000          22.00         25.766        190.100
        23268.5      23268.500          22.00         25.259        190.105
        23269.0      23269.000          22.00         25.440        190.111
        23269.5      23269.500          22.00         26.258        190.116
        23270.0      23270.000          22.00         27.076        190.122
        23270.5      23270.502          22.00         27.894        190.127
        23271.0      23271.002          22.00         28.742        190.133
        23271.5      23271.502          22.00         29.591        190.138
        23272.0      23272.002          22.00         30.440        190.144
        23272.5      23272.500          22.00         30.816        190.149
        23273.0      23273.000          22.00         30.074        190.155
        23273.5      23273.500          22.00         28.475        190.160
        23274.0      23273.998          22.00         26.875        190.166
        23274.5      23274.498          22.00         25.601        190.172
        23275.0      23275.000          22.00         25.817        190.177
        23275.5      23275.500          22.00         26.034        190.183
        23276.0      23276.000          22.00         26.320        190.188
        23276.5      23276.500          22.00         27.137        190.194
