#--------------------------------------------------#
#-------------------ENVERUS, INC.------------------#
#------------------WWW.ENVERUS.COM-----------------#
#------------------COPYRIGHT 2020------------------#
#--------------------------------------------------#
#THIS FILE MAY BE USED ONLY IN ACCORDANCE WITH A CURRENT SUBSCRIPTION AGREEMENT BETWEEN
#THE USER AND ENVERUS, INC. NO PART OF THIS FILE MAY BE REPRODUCED, USED, COPIED,
#MODIFIED, PROPAGATED, OR DISTRIBUTED EXCEPT IN ACCORDANCE WITH THE SUBSCRIPTION
#AGREEMENT. UNAUTHORIZED USE OR DISTRIBUTION OF ALL OR ANY PART OF THIS FILE MAY VIOLATE
#COPYRIGHT, TRADEMARK, AND/OR OTHER LAWS AND IS SUBJECT TO CIVIL AS WELL AS CRIMINAL
#SANCTIONS.
#--------------------------------------------------#
#THIS FILE IS PROVIDED "AS-IS" AND ALL WARRANTIES ARE EXPRESSLY DISCLAIMED, WHETHER
#EXPRESS, ORAL, IMPLIED, STATUTORY OR OTHERWISE, INCLUDING ANY IMPLIED WARRANTY OF FITNESS
#FOR A PARTICULAR PURPOSE, MERCHANTABILITY, TITLE OR NON-INFRINGEMENT, AND ANY WARRANTIES
#ARISING BY VIRTUE OF CUSTOM OF TRADE OR COURSE OF DEALING.  FURTHER, ENVERUS, INC.
#AND ITS LICENSORS DO NOT REPRESENT OR WARRANT THAT THIS FILE WILL MEET USER'S
#REQUIREMENTS OR ARE SUITABLE FOR USER'S NEEDS OR THAT THE DATA OR RESULTS PROVIDED IN
#CONJUNCTION THEREWITH ARE CORRECT, ACCURATE, TIMELY OR RELIABLE. THESE DISCLAIMERS SHALL
#APPLY REGARDLESS OF ANY FAILURE OF ESSENTIAL PURPOSE OF ANY LIMITED REMEDY.  SOME
#JURISDICTIONS DO NOT ALLOW THE EXCLUSION OF CERTAIN WARRANTIES SO SOME OF THE ABOVE
#EXCLUSIONS MAY NOT APPLY. IN NO EVENT SHALL ENVERUS, INC. OR ANY OF ITS AFFILIATES
#BE LIABLE UNDER ANY LEGAL THEORY, WHETHER IN TORT (INCLUDING WITHOUT LIMITATION
#NEGLIGENCE), CONTRACT, STRICT LIABILITY, STATUTORY OR OTHERWISE, FOR ANY SPECIAL,
#INCIDENTAL, CONSEQUENTIAL, EXEMPLARY, PUNITIVE OR INDIRECT DAMAGE OF ANY KIND, INCLUDING
#WITHOUT LIMITATION LOSS OF REVENUE, PROFITS, GOODWILL, USE, AND/OR DATA OR THE COST OF
#PROCUREMENT OF SUBSTITUTE GOODS OR SERVICES, EVEN IF APPRISED OF THE POSSIBILITY OF SUCH
#DAMAGES IN ADVANCE.
#--------------------------------------------------#

~VERSION INFORMATION
VERS. 2.0 : CWLS LOG ASCII STANDARD - VERSION 2.0
WRAP.  NO : ONE LINE PER DEPTH STEP
~WELL INFORMATION
#MNEMONIC     .UNIT              VALUE :DESCRIPTION
STRT       .FT                102 :START DEPTH
STOP       .FT                9071 :STOP DEPTH
STEP       .FT                   0.500 :STEP
NULL       .                  -999.99 :NULL
UWI        .                42389104910000 :UNIQUE WELL ID
API        .                42389104910000 :API NUMBER
COMP       .         :COMPANY
WELL       .        :WELL
DATE       .                 :LOG DATE
FLD       .                 :FIELD NAME
LOC       .                  UNK :LOCATION
CNTY       .                 UNK :COUNTY
STAT       .                 UNK :STATE
CTRY       .                 UNK :COUNTY
SRVC       .                 UNK :SERVICE COMPANY
~CURVE INFORMATION
#MNEMONIC     .UNIT      API CODE :CURVE DESCRIPTION
DEPTH       .FT                      :MEASURED DEPTH
DT.MSEC/FT        UNKNOWN   :DT
GR.API        UNKNOWN   :GR
~A    DEPTH    DT    GR
# ...
 633     144.54312   33.83732
 633.5     145.12614   33.71428
 634     145.70916   33.59124
 634.5     146.29219   33.4682
 635     144.4217   33.34516
 635.5     139.44698   32.69841
 636     134.47225   31.98341
 636.5     130.59044   31.36023
 637     129.80947   32.1029
 637.5     133.79259   32.44556
 638     137.77572   32.02783
 638.5     141.75885   31.6101
 639     144.58369   31.19238
 639.5     145.14421   30.77465
 640     145.56908   30.35692
 640.5     145.07682   29.9392
 641     144.58456   29.52147
 641.5     144.0923   29.58427
 642     145.20806   30.30776
 642.5     147.33797   31.03125
 643     149.46787   31.75474
 643.5     151.59778   32.47823
 644     153.65389   33.20172
 644.5     152.6143   33.79445
 645     151.5747   33.43519
 645.5     150.53511   33.07592
 646     149.49552   32.71666
 646.5     148.45592   32.35739
 647     147.41633   31.99812
 647.5     146.37673   31.63886
 648     146.13492   31.27959
 648.5     146.13536   30.92033
 649     146.87057   30.56106
 649.5     148.38405   30.20179
 650     149.89752   30.36118
 650.5     151.411   31.43271
 651     150.95815   32.50425
 651.5     150.03162   33.57579
 652     149.1051   34.64732
 652.5     148.54993   34.36578
 653     149.46315   33.66399
 653.5     150.29279   32.96221
 654     148.66497   32.26042
 654.5     147.03715   31.55863
 655     143.26999   30.85684
 655.5     137.56932   30.15506
 656     131.86864   29.45327
 656.5     128.74281   28.75148
 657     137.08893   28.0497
 657.5     140.92544   27.4407
 658     130.58228   28.94889
 658.5     138.53017   30.45709
 659     148.74488   31.96528
 659.5     149.82911   33.47348
 660     147.17469   34.98167
 660.5     143.21811   36.48987
 661     138.71831   37.99807
 661.5     135.75756   38.45635
 662     134.89045   37.99191
 662.5     134.02334   37.52748
 663     133.15623   37.06305
 663.5     132.28911   36.32165
 664     131.422   35.37413
 664.5     138.59961   34.42661
 665     146.71764   33.47909
 665.5     147.71051   32.53158
 666     148.70338   31.58406
 666.5     149.45537   31.06086
 667     149.72002   31.2287
 667.5     149.98467   31.39654
 668     140.05333   31.56439
 668.5     132.50138   31.73223
 669     137.29752   31.90007
 669.5     142.65602   32.06792
 670     145.84017   32.23576
 670.5     144.49006   32.4036
 671     143.13995   32.57145
 671.5     141.78983   32.44047
 672     140.43972   32.18033
 672.5     139.08961   31.9202
 673     137.7395   31.98648
 673.5     138.3757   32.10486
 674     140.66926   32.22324
 674.5     142.96281   32.34162
 675     145.25637   32.24888
 675.5     150.04902   31.68759
 676     155.06526   31.12631
 676.5     154.17115   30.56502
 677     153.27704   30.00373
 677.5     152.38293   29.44245
 678     154.03401   29.03035
 678.5     156.86373   30.08917
 679     159.69345   31.14799
 679.5     161.80985   32.20681
 680     161.5251   33.26563
 680.5     159.60775   34.32445
 681     156.00744   33.9338
 681.5     152.40714   33.41401
 682     148.80683   32.93865
 682.5     145.72203   32.91351
 683     144.34346   32.88838
 683.5     142.96489   32.86324
 684     141.58632   32.83811
 684.5     140.20775   32.81297
 685     139.87412   32.78784
 685.5     142.01094   32.7627
 686     144.14776   32.87267
 686.5     145.04156   33.87868
 687     145.51939   34.88469
 687.5     145.99722   35.8907
 688     146.47506   36.12538
 688.5     149.54695   36.00241
 689     153.03821   35.87944
 689.5     152.09479   35.75646
 690     150.90295   35.66313
 690.5     149.7111   35.75282
 691     148.51926   35.84251
 691.5     147.52946   35.93221
 692     149.21976   36.0219
 692.5     150.91007   36.11159
 693     152.60037   36.20128
 693.5     154.29067   36.29097
 694     152.16263   36.38066
 694.5     149.5974   36.47035
 695     148.49181   36.56004
 695.5     151.88116   36.64973
 696     155.27051   36.58047
 696.5     157.92388   35.82146
 697     159.27524   35.06244
 697.5     160.62661   34.30342
 698     158.22507   33.54441
 698.5     154.25527   32.78539
 699     151.23847   32.02637
 699.5     149.0874   31.26736
 700     146.93632   30.50834
 700.5     149.48991   30.33684
 701     152.36235   30.38817
 701.5     155.23478   30.4395
 702     156.10211   30.66085
 702.5     154.8863   31.25835
 703     153.67049   31.85584
 703.5     152.45469   32.45334
 704     149.65464   33.05084
 704.5     142.59958   32.9726
 705     143.4326   32.64755
 705.5     144.26561   32.32251
 706     145.09862   32.18458
 706.5     145.93164   32.4231
 707     146.73901   32.66162
 707.5     147.46884   32.90015
 708     148.19868   33.13867
 708.5     148.92852   32.69268
 709     149.65836   32.04246
 709.5     150.3882   31.39224
 710     151.11804   30.74202
 710.5     151.66554   30.0918
 711     150.91663   29.44158
 711.5     150.16772   28.79136
 712     149.3205   28.49574
 712.5     147.91986   28.6742
 713     147.92131   28.85266
 713.5     148.05303   29.03112
 714     147.16124   29.20958
 714.5     150.98846   29.38804
 715     154.81569   29.5665
 715.5     158.64292   29.74496
 716     162.47015   29.92342
 716.5     163.91949   29.82849
 717     159.98631   29.12385
 717.5     156.05313   28.41922
 718     153.8574   27.71458
 718.5     154.1331   28.30562
 719     154.67945   29.00631
 719.5     156.59673   29.70701
 720     158.51401   30.4077
 720.5     159.83863   31.1084
 721     152.9054   31.80909
 721.5     145.97218   32.50979
 722     142.08215   33.21048
 722.5     144.68775   33.48596
 723     146.50993   32.89012
 723.5     146.69827   32.29428
 724     146.8866   31.69843
 724.5     147.07494   30.72151
 725     146.66798   29.71878
 725.5     144.77999   28.71604
 726     142.73707   27.71331
 726.5     140.69415   26.71057
 727     140.28069   25.70784
 727.5     141.21142   24.7051
 728     142.14216   25.01164
 728.5     143.07289   26.12236
 729     144.00362   27.23308
 729.5     144.93435   28.3438
 730     145.86508   29.45451
 730.5     155.57659   30.56523
 731     155.51238   31.67595
 731.5     154.0782   31.86381
 732     152.64401   31.67724
 732.5     151.62902   31.49067
 733     152.0741   31.3041
 733.5     152.51918   31.64035
 734     152.96427   32.1618
 734.5     153.40935   32.68324
 735     155.45875   33.20468
 735.5     163.36873   33.72612
 736     168.38911   34.24756
 736.5     162.71781   34.27089
 737     157.0465   33.67535
 737.5     151.3752   33.07981
 738     146.48655   32.4338
 738.5     147.81348   30.90606
 739     149.1404   29.37832
 739.5     150.46732   27.85058
 740     151.79425   26.32284
 740.5     153.12117   24.83184
 741     141.02487   25.83089
 741.5     143.35217   26.82995
 742     145.49218   27.829
 742.5     145.68449   28.82805
 743     145.8768   29.4679
 743.5     146.06911   30.10481
 744     146.26142   30.74172
 744.5     147.91551   31.37863
 745     150.66312   31.71626
 745.5     152.05114   31.62225
 746     153.6248   31.52825
 746.5     156.43977   31.43424
 747     155.89547   30.87983
 747.5     151.97006   29.72048
 748     148.04465   28.56114
 748.5     140.41747   27.4018
 749     140.33689   26.24246
 749.5     140.25631   25.66399
 750     140.17573   26.07389
 750.5     138.54169   26.48378
 751     136.60331   26.89368
 751.5     135.34777   27.63161
 752     135.81366   28.92372
 752.5     136.27955   30.21583
 753     136.74545   31.50794
 753.5     137.21134   32.80005
 754     137.67723   34.09216
 754.5     138.8444   35.38426
 755     143.3919   36.67637
 755.5     146.30013   36.90598
 756     146.14685   36.98406
 756.5     145.99357   36.68399
 757     145.84029   36.12714
 757.5     144.93265   35.57029
 758     142.44808   35.01344
 758.5     139.96351   34.45658
 759     141.19669   33.89973
 759.5     143.13523   33.34288
 760     141.37101   32.78603
 760.5     139.13428   33.61017
 761     135.89415   35.09679
 761.5     132.65403   36.58342
 762     129.4139   38.07004
 762.5     133.65755   39.55667
 763     139.26295   41.04329
