###############################################
##         ENVERUS                           ##
##         Petrophysical Curves              ##
##         PERMIAN / DELAWARE                ##
##         Jan 21 2022                       ##
##         42-371-36857-00-00                ##
###############################################
## Copyright 2017-2022  ENVERUS.  All Rights Reserved. 
## Confidential - Property of ENVERUS, use governed by terms and 
## conditions found within the existing Information Services Subscription Agreement 
## (as may be amended, the “ISSA”) between Customer and ENVERUS. 
## 
~VERSION INFORMATION
# MNEM.UNIT                               DATA : DESCRIPTION OF MNEMONIC
#-----.-----     ----------------------------- : -----------------------------
VERS.                                     2.00 : CWLS LOG ASCII STANDARD - VERSION 2.00
WRAP.                                       NO : MULTIPLE LINES PER DEPTH STEP
VEND.                                  ENVERUS : VENDOR
TYPE.                     PETROPHYSICAL CURVES : ENVERUS PETROPHYSICAL CURVES - ACCESSIBLE THROUGH ENVERUS CORE(TM)
#___________________________________________________________________________________________________ 
~WELL INFORMATION 
# uyaQ8P8kQDJ9DXFS5hR1PxmExEOYaAUkY5f3/tnOS+scoPAUWgXA1zCIHGRbWCuSuUcwDzaESCjqjWQ81XhadA== 
# MNEM.UNIT                                              DATA : DESCRIPTION OF MNEMONIC 
#-----.-----                    ----------------------------- : ----------------------------- 
CNTY.                                                   PECOS : COUNTY 
STATE.                                                  TEXAS : STATE 
CNTRY.                                                    USA : COUNTRY 
API.                                             42-371-36857 : API (10 Digit) 
API_14.                                    42-371-36857-00-00 : API (14 Digits) 
API_14_std.                                 42-371-36857-0000 : API (14 Digits Standard) 
UWI.                                           42371368570000 : UNIQUE WELL ID
STRT.FT                                                7870.0 : START DEPTH
STOP.FT                                               16592.5 : STOP DEPTH
STEP.FT                                                   0.5 : STEP BETWEEN DEPTHS
NULL.                                                 -999.25 : NULL VALUE
COMP.                                             DIAMONDBACK : COMPANY 
WELL.                                         MOORE-GILMORE 1 : WELL NAME 
FLD.                                               WAHA  WEST : FIELD NAME
#___________________________________________________________________________________________________ 
~CURVE INFORMATION 
#    Zone Description
#          1 = Upper Avalon
#          2 = Middle Avalon
#          3 = Lower Avalon
#          4 = 1st Bone Spring
#          5 = 2nd Bone Spring
#          6 = 2nd Bone Spring Sand
#          7 = 3rd Bone Spring
#          8 = 3rd Bone Spring Sand
#          9 = Wolfcamp XY
#          10 = Wolfcamp A Upper
#          11 = Wolfcamp A Lower
#          12 = Wolfcamp B Upper
#          13 = Wolfcamp B Lower
#          14 = Wolfcamp C
#          15 = Wolfcamp D
#          16 = Pennsylvanian Shale
#          17 = Lower Pennsylvanian Shale
#          18 = Barnett
#          19 = Barnett Lower
#          20 = Mississippian Lime
#          21 = Woodford
#          22 = Base Woodford 
# MNEM.UNIT           : CURVE DESCRIPTION 
#-----.-----          : ----------------------------- 
 DEPT.FT               : MEASURED DEPTH 
 TVD_I.FT              : ENVERUS TRUE VERTICAL DEPTH 
 ZONE_I.               : ENVERUS DEFINED ZONE CODE 
 GR_N_I.API            : ENVERUS NORMALIZED GAMMA RAY LEVERAGED IN GEOLOGICAL MODELLING 
 RESD_I.OHMM           : ENVERUS DEEP RESISTIVITY LEVERAGED IN GEOLOGICAL MODELLING 
 DPHI_I.V/V            : ENVERUS INTERPRETED DENSITY POROSITY USING A 2.71 G/CC MATRIX DENSITY 
 PHIE_I.V/V            : ENVERUS INTERPRETED EFFECTIVE POROSITY 
 SW_I.V/V              : ENVERUS INTERPRETED WATER SATURATION USING MODIFIED SIMANDOUX EQUATION 
 TOC_I.WT%             : ENVERUS INTERPRETED TOTAL ORGANIC CARBON USING MULTI-LINEAR REGRESSION 
 VCLAY_I.V/V           : ENVERUS INTERPRETED CLAY VOLUMES USING MULTI-LINEAR REGRESSION 
 NVCLAY_I.V/V          : ENVERUS INTERPRETED NON CLAY VOLUMES 
 HCPV_I.V/V            : ENVERUS INTERPRETED HYDROCARBON PORE VOLUME 
 OOIP_I.MMBBL/SEC      : ENVERUS INTERPRETED ORIGINAL OIL IN PLACE 
 OGIP_I.BCF/SEC        : ENVERUS INTERPRETED ORIGINAL GAS IN PLACE 
 TEMP_I.DEGF           : ENVERUS INTERPRETED TEMPERATURE DERIVED FROM BOTTOM HOLE TEMPERATURES 
 #___________________________________________________________________________________________________ 
~A         DEPT          TVD_I         ZONE_I         GR_N_I         RESD_I         DPHI_I         PHIE_I           SW_I          TOC_I        VCLAY_I       NVCLAY_I         HCPV_I         OOIP_I         OGIP_I         TEMP_I
# ...
         9994.0       9994.000        -999.25         31.354      -999.2500        0.05310        0.04980        0.00000        1.09440        0.06290        0.88730        0.03930        0.23530     1042.30110        441.903
         9994.5       9994.500        -999.25         22.854      -999.2500        0.06190        0.05980        0.02380        1.12340        0.03440        0.90580        0.04740        0.27610     1223.18760        441.922
         9995.0       9995.001        -999.25         14.747      -999.2500        0.07290        0.07200        0.04720        1.19310        0.01230        0.91570        0.05840        0.32450     1437.36270        441.941
         9995.5       9995.500        -999.25         11.241      -999.2500        0.07850        0.07840        0.05310        1.23200        0.00210        0.91950        0.06400        0.35090     1554.72090        441.960
         9996.0       9996.000        -999.25          8.607      -999.2500        0.07570        0.07570        0.05620        1.14770        0.00000        0.92430        0.06180        0.33800     1497.35690        441.979
         9996.5       9996.499        -999.25          6.762      -999.2500        0.07490        0.07490        0.05340        1.18120        0.00000        0.92510        0.06140        0.33500     1484.37410        441.998
         9997.0       9997.000        -999.25          7.196      -999.2500        0.06540        0.06520        0.04480        1.31060        0.00450        0.93040        0.05190        0.29430     1304.13210        442.017
         9997.5       9997.500        -999.25          8.304      -999.2500        0.05190        0.05150        0.03960        1.25960        0.00870        0.93980        0.03830        0.23390     1036.22740        442.036
         9998.0       9998.000        -999.25          9.421      -999.2500        0.04330        0.04280        0.02880        1.32170        0.01140        0.94570        0.03030        0.19670      871.70140        442.055
         9998.5       9998.500        -999.25         10.093      -999.2500        0.05120        0.05050        0.02260        1.56750        0.01410        0.93550        0.03740        0.23320     1033.17770        442.074
         9999.0       9999.000        -999.25          9.636      -999.2500        0.05730        0.05640        0.02320        1.69700        0.01400        0.92950        0.04330        0.26070     1155.17050        442.093
         9999.5       9999.500        -999.25          9.046      -999.2500        0.06350        0.06250        0.02500        1.65870        0.01480        0.92270        0.04940        0.28820     1277.11850        442.112
        10000.0      10000.000        -999.25          8.473      -999.2500        0.05560        0.05480        0.03330        1.27790        0.01280        0.93230        0.04180        0.25070     1110.96150        442.131
        10000.5      10000.500        -999.25          8.583      -999.2500        0.04780        0.04730        0.04490        0.94280        0.01080        0.94190        0.03460        0.21370      947.10500        442.150
        10001.0      10001.000        -999.25         11.619      -999.2500        0.05680        0.05620        0.04620        1.02650        0.01110        0.93270        0.04310        0.25360     1123.85740        442.169
        10001.5      10001.500        -999.25         17.529      -999.2500        0.06490        0.06370        0.03520        1.24230        0.01830        0.91800        0.05050        0.29070     1288.50830        442.188
        10002.0      10002.000        -999.25         23.224      -999.2500        0.06250        0.06000        0.00760        1.34230        0.03870        0.90130        0.04810        0.28180     1248.94630        442.207
        10002.5      10002.500        -999.25         28.514      -999.2500        0.05950        0.05600        0.00000        1.52880        0.05890        0.88500        0.04530        0.26490     1174.18920        442.226
        10003.0      10003.000        -999.25         30.485      -999.2500        0.05180        0.04840        0.00000        1.61700        0.06510        0.88650        0.03840        0.22870     1013.80150        442.244
        10003.5      10003.501        -999.25         28.349      -999.2500        0.04140        0.03880        0.00000        1.56930        0.06300        0.89820        0.02950        0.18350      813.48510        442.263
        10004.0      10004.000        -999.25         25.934      -999.2500        0.02930        0.02750        0.00000        1.31180        0.06010        0.91230        0.01880        0.13020      577.19000        442.282
        10004.5      10004.500        -999.25         24.277      -999.2500        0.03030        0.02870        0.00000        1.23160        0.05410        0.91720        0.01940        0.13550      600.61280        442.301
        10005.0      10004.999        -999.25         24.304      -999.2500        0.03170        0.03010        0.00000        1.19420        0.05180        0.91820        0.02030        0.14210      630.02530        442.320
        10005.5      10005.500        -999.25         25.188      -999.2500        0.03290        0.03120        0.00000        1.22310        0.05140        0.91730        0.02160        0.14770      654.67720        442.339
        10006.0      10006.000        -999.25         25.947      -999.2500        0.03030        0.02870        0.00000        1.21680        0.05210        0.91920        0.01950        0.13580      602.01890        442.358
        10006.5      10006.500        -999.25         26.019      -999.2500        0.02760        0.02620        0.00000        1.21260        0.05210        0.92180        0.01720        0.12370      548.61080        442.377
        10007.0      10007.000        -999.25         26.394      -999.2500        0.02500        0.02360        0.00000        1.21610        0.05480        0.92160        0.01510        0.11160      494.80390        442.396
        10007.5      10007.500        -999.25         28.789      -999.2500        0.02330        0.02190        0.00000        1.22560        0.06170        0.91640        0.01430        0.10350      459.02140        442.415
        10008.0      10008.000        -999.25         32.306      -999.2500        0.03600        0.03370        0.00000        1.50890        0.06500        0.90130        0.02480        0.15920      705.80980        442.434
        10008.5      10008.500        -999.25         33.708      -999.2500        0.04670        0.04370        0.00000        1.79990        0.06380        0.89250        0.03340        0.20660      915.98980        442.453
        10009.0      10009.000        -999.25         33.196      -999.2500        0.05710        0.05390        0.00000        2.07850        0.05740        0.88870        0.04220        0.25470     1129.20010        442.472
        10009.5      10009.500        -999.25         33.942      -999.2500        0.05680        0.05350        0.00000        2.05350        0.05700        0.88940        0.04170        0.25320     1122.75260        442.491
        10010.0      10010.001        -999.25         35.820      -999.2500        0.05840        0.05510        0.00000        2.07550        0.05750        0.88740        0.04290        0.26040     1154.56600        442.510
        10010.5      10010.501        -999.25         37.488      -999.2500        0.05700        0.05340        0.00000        2.05830        0.06170        0.88480        0.04150        0.25270     1120.76440        442.529
        10011.0      10011.000        -999.25         34.096      -999.2500        0.05440        0.05130        0.00000        1.98710        0.05740        0.89120        0.03960        0.24270     1076.21850        442.548
        10011.5      10011.500        -999.25         27.699      -999.2500        0.05180        0.04940        0.00000        2.11300        0.04680        0.90380        0.03800        0.23350     1035.66420        442.567
