###############################################
##         ENVERUS                           ##
##         Petrophysical Curves              ##
##         PERMIAN / DELAWARE                ##
##         Jan 21 2022                       ##
##         42-371-36857-00-00                ##
###############################################
## Copyright 2017-2022  ENVERUS.  All Rights Reserved. 
## Confidential - Property of ENVERUS, use governed by terms and 
## conditions found within the existing Information Services Subscription Agreement 
## (as may be amended, the “ISSA”) between Customer and ENVERUS. 
## 
~VERSION INFORMATION
# MNEM.UNIT                               DATA : DESCRIPTION OF MNEMONIC
#-----.-----     ----------------------------- : -----------------------------
VERS.                                     2.00 : CWLS LOG ASCII STANDARD - VERSION 2.00
WRAP.                                       NO : MULTIPLE LINES PER DEPTH STEP
VEND.                                  ENVERUS : VENDOR
TYPE.                     PETROPHYSICAL CURVES : ENVERUS PETROPHYSICAL CURVES - ACCESSIBLE THROUGH ENVERUS CORE(TM)
#___________________________________________________________________________________________________ 
~WELL INFORMATION 
# uyaQ8P8kQDJ9DXFS5hR1PxmExEOYaAUkY5f3/tnOS+scoPAUWgXA1zCIHGRbWCuSuUcwDzaESCjqjWQ81XhadA== 
# MNEM.UNIT                                              DATA : DESCRIPTION OF MNEMONIC 
#-----.-----                    ----------------------------- : ----------------------------- 
CNTY.                                                   PECOS : COUNTY 
STATE.                                                  TEXAS : STATE 
CNTRY.                                                    USA : COUNTRY 
API.                                             42-371-36857 : API (10 Digit) 
API_14.                                    42-371-36857-00-00 : API (14 Digits) 
API_14_std.                                 42-371-36857-0000 : API (14 Digits Standard) 
UWI.                                           42371368570000 : UNIQUE WELL ID
STRT.FT                                                7870.0 : START DEPTH
STOP.FT                                               16592.5 : STOP DEPTH
STEP.FT                                                   0.5 : STEP BETWEEN DEPTHS
NULL.                                                 -999.25 : NULL VALUE
COMP.                                             DIAMONDBACK : COMPANY 
WELL.                                         MOORE-GILMORE 1 : WELL NAME 
FLD.                                               WAHA  WEST : FIELD NAME
#___________________________________________________________________________________________________ 
~CURVE INFORMATION 
#    Zone Description
#          1 = Upper Avalon
#          2 = Middle Avalon
#          3 = Lower Avalon
#          4 = 1st Bone Spring
#          5 = 2nd Bone Spring
#          6 = 2nd Bone Spring Sand
#          7 = 3rd Bone Spring
#          8 = 3rd Bone Spring Sand
#          9 = Wolfcamp XY
#          10 = Wolfcamp A Upper
#          11 = Wolfcamp A Lower
#          12 = Wolfcamp B Upper
#          13 = Wolfcamp B Lower
#          14 = Wolfcamp C
#          15 = Wolfcamp D
#          16 = Pennsylvanian Shale
#          17 = Lower Pennsylvanian Shale
#          18 = Barnett
#          19 = Barnett Lower
#          20 = Mississippian Lime
#          21 = Woodford
#          22 = Base Woodford 
# MNEM.UNIT           : CURVE DESCRIPTION 
#-----.-----          : ----------------------------- 
 DEPT.FT               : MEASURED DEPTH 
 TVD_I.FT              : ENVERUS TRUE VERTICAL DEPTH 
 ZONE_I.               : ENVERUS DEFINED ZONE CODE 
 GR_N_I.API            : ENVERUS NORMALIZED GAMMA RAY LEVERAGED IN GEOLOGICAL MODELLING 
 RESD_I.OHMM           : ENVERUS DEEP RESISTIVITY LEVERAGED IN GEOLOGICAL MODELLING 
 DPHI_I.V/V            : ENVERUS INTERPRETED DENSITY POROSITY USING A 2.71 G/CC MATRIX DENSITY 
 PHIE_I.V/V            : ENVERUS INTERPRETED EFFECTIVE POROSITY 
 SW_I.V/V              : ENVERUS INTERPRETED WATER SATURATION USING MODIFIED SIMANDOUX EQUATION 
 TOC_I.WT%             : ENVERUS INTERPRETED TOTAL ORGANIC CARBON USING MULTI-LINEAR REGRESSION 
 VCLAY_I.V/V           : ENVERUS INTERPRETED CLAY VOLUMES USING MULTI-LINEAR REGRESSION 
 NVCLAY_I.V/V          : ENVERUS INTERPRETED NON CLAY VOLUMES 
 HCPV_I.V/V            : ENVERUS INTERPRETED HYDROCARBON PORE VOLUME 
 OOIP_I.MMBBL/SEC      : ENVERUS INTERPRETED ORIGINAL OIL IN PLACE 
 OGIP_I.BCF/SEC        : ENVERUS INTERPRETED ORIGINAL GAS IN PLACE 
 TEMP_I.DEGF           : ENVERUS INTERPRETED TEMPERATURE DERIVED FROM BOTTOM HOLE TEMPERATURES 
 #___________________________________________________________________________________________________ 
~A         DEPT          TVD_I         ZONE_I         GR_N_I         RESD_I         DPHI_I         PHIE_I           SW_I          TOC_I        VCLAY_I       NVCLAY_I         HCPV_I         OOIP_I         OGIP_I         TEMP_I
# ...
        10354.0      10354.000           8.00         47.972      -999.2500        0.10910        0.08710        0.10900        2.58440        0.20180        0.71110        0.07260        0.22210     1662.66150        455.552
        10354.5      10354.500           8.00         48.018      -999.2500        0.10920        0.08710        0.10940        2.58620        0.20190        0.71100        0.07260        0.22210     1662.61990        455.571
        10355.0      10355.000           8.00         46.350      -999.2500        0.10920        0.08750        0.11060        2.55490        0.19820        0.71420        0.07290        0.22280     1668.05410        455.590
        10355.5      10355.500           8.00         45.549      -999.2500        0.10920        0.08770        0.11070        2.54000        0.19640        0.71580        0.07330        0.22330     1671.72780        455.609
        10356.0      10356.000           8.00         45.472      -999.2500        0.10920        0.08780        0.10990        2.53870        0.19630        0.71600        0.07320        0.22350     1673.65260        455.628
        10356.5      10356.499           8.00         45.394      -999.2500        0.10920        0.08780        0.10910        2.53750        0.19610        0.71610        0.07330        0.22380     1675.58670        455.647
        10357.0      10357.000           8.00         45.317      -999.2500        0.10920        0.08780        0.10790        2.53630        0.19590        0.71630        0.07360        0.22410     1678.25200        455.666
        10357.5      10357.500           8.00         45.239      -999.2500        0.10920        0.08780        0.10790        2.53480        0.19580        0.71640        0.07330        0.22410     1678.50050        455.685
        10358.0      10358.000           8.00         45.162      -999.2500        0.10920        0.08780        0.11250        2.53240        0.19560        0.71660        0.07260        0.22310     1670.38710        455.704
        10358.5      10358.500           8.00         45.620      -999.2500        0.10920        0.08770        0.11660        2.54010        0.19660        0.71570        0.07200        0.22170     1660.58640        455.723
        10359.0      10359.000           8.00         46.132      -999.2500        0.10920        0.08760        0.12070        2.54890        0.19770        0.71470        0.07190        0.22040     1650.44420        455.742
        10359.5      10359.500           8.00         46.644      -999.2500        0.10920        0.08750        0.12500        2.55860        0.19880        0.71360        0.07180        0.21910     1641.11000        455.760
        10360.0      10360.000           8.00         47.926      -999.2500        0.10920        0.08720        0.12850        2.58200        0.20160        0.71110        0.07110        0.21750     1628.88960        455.779
        10360.5      10360.500           8.00         49.300      -999.2500        0.10920        0.08690        0.13200        2.60710        0.20460        0.70850        0.07020        0.21580     1616.36060        455.798
        10361.0      10361.000           8.00         50.674      -999.2500        0.10920        0.08660        0.13530        2.63230        0.20750        0.70590        0.06890        0.21420     1604.51780        455.817
        10361.5      10361.501           8.00         52.048      -999.2500        0.10920        0.08630        0.13380        2.65820        0.21030        0.70340        0.06900        0.21380     1601.66050        455.836
        10362.0      10362.001           8.00         53.422      -999.2500        0.10920        0.08600        0.12790        2.68480        0.21310        0.70100        0.06960        0.21450     1606.88920        455.855
        10362.5      10362.500           8.00         54.797      -999.2500        0.10920        0.08570        0.11790        2.71200        0.21580        0.69850        0.07010        0.21620     1619.71900        455.874
        10363.0      10363.000           8.00         56.171      -999.2500        0.10920        0.08540        0.10610        2.73980        0.21850        0.69620        0.07050        0.21840     1635.85250        455.893
        10363.5      10363.500           8.00         57.545      -999.2500        0.10920        0.08510        0.09400        2.76800        0.22110        0.69380        0.07110        0.22060     1652.57620        455.912
        10364.0      10364.000           8.00         56.820      -999.2500        0.10920        0.08520        0.08460        2.75680        0.21970        0.69500        0.07200        0.22330     1672.62170        455.931
        10364.5      10364.500           8.00         55.757      -999.2500        0.10930        0.08550        0.07620        2.74040        0.21760        0.69680        0.07310        0.22600     1693.42690        455.950
        10365.0      10365.000           8.00         54.694      -999.2500        0.10930        0.08570        0.06480        2.72460        0.21560        0.69870        0.07470        0.22940     1718.89260        455.969
        10365.5      10365.499           8.00         54.893      -999.2500        0.10930        0.08570        0.05220        2.73350        0.21600        0.69830        0.07550        0.23240     1741.33240        455.988
        10366.0      10366.000           8.00         56.208      -999.2500        0.10930        0.08540        0.03010        2.77020        0.21850        0.69610        0.07690        0.23710     1776.11020        456.007
        10366.5      10366.500           8.00         57.523      -999.2500        0.10930        0.08510        0.00700        2.81500        0.22100        0.69390        0.07790        0.24190     1812.67940        456.026
        10367.0      10367.000           8.00         57.678      -999.2500        0.10930        0.08510        0.00000        2.83120        0.22130        0.69360        0.07780        0.24350     1824.84290        456.045
        10367.5      10367.500           8.00         57.278      -999.2500        0.10930        0.08520        0.00000        2.83780        0.22060        0.69420        0.07780        0.24370     1826.43230        456.064
        10368.0      10368.000           8.00         56.877      -999.2500        0.10930        0.08530        0.00000        2.83840        0.21990        0.69480        0.07790        0.24400     1828.25740        456.083
        10368.5      10368.500           8.00         56.476      -999.2500        0.10930        0.08530        0.00000        2.83180        0.21910        0.69550        0.07800        0.24420     1830.09990        456.102
        10369.0      10369.000           8.00         55.322      -999.2500        0.10930        0.08560        0.00000        2.80060        0.21690        0.69750        0.07830        0.24490     1835.37660        456.121
        10369.5      10369.500           8.00         53.979      -999.2500        0.10930        0.08590        0.00000        2.76640        0.21430        0.69990        0.07860        0.24570     1841.61500        456.140
        10370.0      10370.000           8.00         52.635      -999.2500        0.10940        0.08620        0.00160        2.73960        0.21150        0.70220        0.07890        0.24630     1846.02100        456.159
        10370.5      10370.501           8.00         51.291      -999.2500        0.10940        0.08650        0.00510        2.71130        0.20880        0.70470        0.07910        0.24630     1846.05480        456.177
        10371.0      10371.000           8.00         52.836      -999.2500        0.10940        0.08620        0.00530        2.73740        0.21190        0.70190        0.07880        0.24530     1838.50050        456.196
        10371.5      10371.500           8.00         56.299      -999.2500        0.10940        0.08540        0.00280        2.80070        0.21880        0.69580        0.07820        0.24380     1827.13180        456.215
