#--------------------------------------------------#
#-------------------ENVERUS, INC.------------------#
#------------------WWW.ENVERUS.COM-----------------#
#------------------COPYRIGHT 2020------------------#
#--------------------------------------------------#
#THIS FILE MAY BE USED ONLY IN ACCORDANCE WITH A CURRENT SUBSCRIPTION AGREEMENT BETWEEN
#THE USER AND ENVERUS, INC. NO PART OF THIS FILE MAY BE REPRODUCED, USED, COPIED,
#MODIFIED, PROPAGATED, OR DISTRIBUTED EXCEPT IN ACCORDANCE WITH THE SUBSCRIPTION
#AGREEMENT. UNAUTHORIZED USE OR DISTRIBUTION OF ALL OR ANY PART OF THIS FILE MAY VIOLATE
#COPYRIGHT, TRADEMARK, AND/OR OTHER LAWS AND IS SUBJECT TO CIVIL AS WELL AS CRIMINAL
#SANCTIONS.
#--------------------------------------------------#
#THIS FILE IS PROVIDED "AS-IS" AND ALL WARRANTIES ARE EXPRESSLY DISCLAIMED, WHETHER
#EXPRESS, ORAL, IMPLIED, STATUTORY OR OTHERWISE, INCLUDING ANY IMPLIED WARRANTY OF FITNESS
#FOR A PARTICULAR PURPOSE, MERCHANTABILITY, TITLE OR NON-INFRINGEMENT, AND ANY WARRANTIES
#ARISING BY VIRTUE OF CUSTOM OF TRADE OR COURSE OF DEALING.  FURTHER, ENVERUS, INC.
#AND ITS LICENSORS DO NOT REPRESENT OR WARRANT THAT THIS FILE WILL MEET USER'S
#REQUIREMENTS OR ARE SUITABLE FOR USER'S NEEDS OR THAT THE DATA OR RESULTS PROVIDED IN
#CONJUNCTION THEREWITH ARE CORRECT, ACCURATE, TIMELY OR RELIABLE. THESE DISCLAIMERS SHALL
#APPLY REGARDLESS OF ANY FAILURE OF ESSENTIAL PURPOSE OF ANY LIMITED REMEDY.  SOME
#JURISDICTIONS DO NOT ALLOW THE EXCLUSION OF CERTAIN WARRANTIES SO SOME OF THE ABOVE
#EXCLUSIONS MAY NOT APPLY. IN NO EVENT SHALL ENVERUS, INC. OR ANY OF ITS AFFILIATES
#BE LIABLE UNDER ANY LEGAL THEORY, WHETHER IN TORT (INCLUDING WITHOUT LIMITATION
#NEGLIGENCE), CONTRACT, STRICT LIABILITY, STATUTORY OR OTHERWISE, FOR ANY SPECIAL,
#INCIDENTAL, CONSEQUENTIAL, EXEMPLARY, PUNITIVE OR INDIRECT DAMAGE OF ANY KIND, INCLUDING
#WITHOUT LIMITATION LOSS OF REVENUE, PROFITS, GOODWILL, USE, AND/OR DATA OR THE COST OF
#PROCUREMENT OF SUBSTITUTE GOODS OR SERVICES, EVEN IF APPRISED OF THE POSSIBILITY OF SUCH
#DAMAGES IN ADVANCE.
#--------------------------------------------------#

~VERSION INFORMATION
VERS. 2.0 : CWLS LOG ASCII STANDARD - VERSION 2.0
WRAP.  NO : ONE LINE PER DEPTH STEP
~WELL INFORMATION
#MNEMONIC     .UNIT              VALUE :DESCRIPTION
STRT       .FT                429 :START DEPTH
STOP       .FT                6365 :STOP DEPTH
STEP       .FT                   0.500 :STEP
NULL       .                  -999.99 :NULL
UWI        .                42371100750000 :UNIQUE WELL ID
API        .                42371100750000 :API NUMBER
COMP       .         :COMPANY
WELL       .        :WELL
DATE       .                 :LOG DATE
FLD       .                 :FIELD NAME
LOC       .                  UNK :LOCATION
CNTY       .                 UNK :COUNTY
STAT       .                 UNK :STATE
CTRY       .                 UNK :COUNTY
SRVC       .                 UNK :SERVICE COMPANY
~CURVE INFORMATION
#MNEMONIC     .UNIT      API CODE :CURVE DESCRIPTION
DEPTH       .FT                      :MEASURED DEPTH
DT.MSEC/FT        UNKNOWN   :DT
GR.API        UNKNOWN   :GR
~A    DEPTH    DT    GR
# ...
 3567.5     47.96041   15.03537
 3568     46.12366   15.2905
 3568.5     46.69541   15.63048
 3569     47.26717   18.19459
 3569.5     47.83892   20.7587
 3570     48.41067   23.32281
 3570.5     48.98243   25.88692
 3571     48.98044   26.97834
 3571.5     48.85758   25.43259
 3572     48.73473   23.67826
 3572.5     49.27576   22.27599
 3573     50.57168   20.96
 3573.5     51.59263   19.64402
 3574     49.45083   18.32803
 3574.5     47.44402   16.96928
 3575     50.64361   15.46241
 3575.5     60.61991   13.95554
 3576     73.30669   12.26317
 3576.5     83.9008   11.2763
 3577     83.03286   11.78772
 3577.5     80.68258   12.29914
 3578     78.3323   12.81056
 3578.5     71.64455   12.98443
 3579     67.40152   12.85714
 3579.5     65.93662   12.72984
 3580     65.4559   13.65369
 3580.5     65.51693   14.94211
 3581     65.57797   16.23052
 3581.5     65.639   16.91163
 3582     65.70003   16.2031
 3582.5     64.59258   15.49456
 3583     62.67084   14.78602
 3583.5     62.1015   14.07749
 3584     62.81209   13.36895
 3584.5     63.52267   12.66041
 3585     64.22257   12.11793
 3585.5     64.56678   11.96517
 3586     64.91099   11.81241
 3586.5     65.2552   11.65965
 3587     65.5758   11.94336
 3587.5     65.1873   12.32665
 3588     64.79881   12.73127
 3588.5     64.41031   13.62982
 3589     64.02181   13.87834
 3589.5     65.42343   13.7932
 3590     67.98466   13.26144
 3590.5     70.54589   12.39508
 3591     67.36567   11.52873
 3591.5     64.60819   10.66237
 3592     65.71344   9.79602
 3592.5     66.8187   9.38971
 3593     67.80483   9.22011
 3593.5     67.92652   9.5856
 3594     68.04821   10.73496
 3594.5     68.1699   11.93645
 3595     69.3052   13.13795
 3595.5     70.8182   14.33945
 3596     71.68899   14.24402
 3596.5     71.18926   13.71386
 3597     70.68953   13.18371
 3597.5     69.89397   12.65356
 3598     68.87233   12.1234
 3598.5     68.07672   11.59325
 3599     67.60286   11.06309
 3599.5     67.129   10.57433
 3600     67.58083   10.77818
 3600.5     68.51904   11.17516
 3601     69.45725   11.98133
 3601.5     70.39546   12.78751
 3602     71.33366   13.59368
 3602.5     70.70988   14.39985
 3603     70.02642   14.81475
 3603.5     69.34296   14.81454
 3604     68.65951   14.81432
 3604.5     67.97605   14.81411
 3605     67.29259   14.5527
 3605.5     66.60913   13.71065
 3606     70.54246   12.89293
 3606.5     71.59252   12.16971
 3607     72.64258   11.44649
 3607.5     73.69264   10.72328
 3608     74.73587   10.00006
 3608.5     74.54612   9.718
 3609     75.5962   10.45875
 3609.5     75.9973   11.19951
 3610     71.01435   12.02858
 3610.5     65.88953   13.23019
 3611     60.76471   14.43181
 3611.5     56.09717   15.63342
 3612     52.04753   16.83503
 3612.5     47.99788   17.95858
 3613     43.94823   16.48959
 3613.5     41.33587   15.0206
 3614     48.44871   13.55161
 3614.5     52.1939   12.08262
 3615     52.36385   10.95046
 3615.5     52.53381   10.24186
 3616     52.76173   11.86034
 3616.5     53.0207   14.51298
 3617     53.27968   17.16562
 3617.5     53.53865   19.81826
 3618     53.52912   19.82237
 3618.5     53.38568   18.18006
 3619     53.24223   16.53775
 3619.5     53.43722   14.89543
 3620     54.89704   14.04141
 3620.5     55.19867   13.47803
 3621     55.50029   12.91466
 3621.5     68.54176   12.84963
 3622     71.22212   13.14132
 3622.5     73.90248   13.43095
 3623     76.16018   13.70921
 3623.5     75.37626   13.98747
 3624     74.59233   14.26574
 3624.5     73.34175   14.47506
 3625     71.39782   14.54773
 3625.5     71.05581   14.62039
 3626     71.00685   14.44407
 3626.5     70.84074   14.24038
 3627     67.77217   14.0367
 3627.5     64.7036   13.83535
 3628     62.18535   13.63731
 3628.5     67.01193   13.43926
 3629     67.4125   13.24121
 3629.5     68.17568   13.04317
 3630     69.22644   12.84512
 3630.5     70.2772   12.74203
 3631     69.22918   13.21946
 3631.5     66.96546   13.69689
 3632     66.04389   14.17432
 3632.5     65.12231   14.65174
 3633     64.20074   15.12917
 3633.5     63.27917   14.46482
 3634     64.63761   13.73401
 3634.5     66.74949   13.0032
 3635     67.91469   13.02932
 3635.5     66.59673   13.2559
 3636     65.27877   13.48248
 3636.5     63.9608   13.70907
 3637     62.64284   13.93565
 3637.5     61.32487   14.16223
 3638     62.73067   14.0502
 3638.5     64.27185   13.65128
 3639     65.42407   13.25237
 3639.5     67.22161   12.85345
 3640     68.71133   12.45453
 3640.5     67.77334   12.7921
 3641     66.83536   13.5242
 3641.5     65.89737   14.04233
 3642     64.95939   13.85131
 3642.5     80.2998   13.66029
 3643     74.58847   13.76044
 3643.5     68.90482   14.22525
 3644     67.12822   14.69005
 3644.5     65.96505   15.15485
 3645     66.59936   14.64208
 3645.5     67.23367   13.56105
 3646     67.86798   12.48001
 3646.5     68.53273   11.39898
 3647     69.20588   10.31795
 3647.5     69.87904   10.26136
 3648     69.43172   10.61866
 3648.5     66.46882   10.97597
 3649     64.94992   11.42905
 3649.5     66.62412   12.17872
 3650     68.29832   12.92838
 3650.5     69.97252   13.67805
 3651     71.64672   14.42771
 3651.5     68.76919   14.68971
 3652     67.50165   14.77922
 3652.5     66.23411   13.98458
 3653     64.96658   13.18995
 3653.5     63.69904   12.83929
 3654     62.4315   12.83899
 3654.5     63.30544   12.83868
 3655     71.64586   12.8601
 3655.5     72.66899   12.9106
 3656     73.69212   12.9611
 3656.5     73.20242   13.0116
 3657     72.4261   12.93335
 3657.5     71.64978   12.84826
 3658     70.77492   12.76317
 3658.5     66.76519   12.67808
 3659     65.74509   13.21884
 3659.5     66.80871   13.94531
 3660     67.87232   14.67178
 3660.5     68.93593   15.39825
 3661     69.99955   15.04081
 3661.5     66.84151   14.0312
 3662     67.0923   13.02159
 3662.5     68.40085   12.1055
 3663     69.70941   11.93571
 3663.5     71.01797   11.76592
 3664     72.32653   11.59613
 3664.5     70.42809   11.75677
 3665     66.07765   11.92641
 3665.5     61.7272   13.20873
 3666     58.63125   13.97029
 3666.5     56.02258   14.11575
 3667     53.99276   14.26121
 3667.5     54.45236   14.40667
 3668     54.91195   14.55213
 3668.5     55.37155   15.02005
 3669     49.45781   15.66039
 3669.5     50.0792   16.30073
 3670     50.70058   16.94107
 3670.5     51.32197   17.6276
 3671     51.94335   18.36005
 3671.5     52.11256   18.93413
 3672     52.18878   17.73737
 3672.5     52.26499   16.54062
 3673     52.3412   15.34386
 3673.5     52.10509   14.14711
 3674     51.18349   12.95035
 3674.5     50.2619   12.31477
 3675     49.34031   12.36062
 3675.5     48.41872   12.40646
 3676     48.36772   12.4523
 3676.5     48.33108   12.62895
 3677     48.29444   12.88407
 3677.5     48.25779   13.13919
 3678     48.22115   13.46341
 3678.5     48.26738   14.16828
 3679     48.4579   14.87315
 3679.5     48.64843   15.82549
 3680     48.83896   17.16644
 3680.5     48.90645   18.50738
 3681     48.7836   19.84833
 3681.5     48.64167   19.36024
 3682     48.36046   18.78101
 3682.5     48.40121   17.73499
 3683     48.44196   16.22822
 3683.5     48.48272   16.8804
 3684     48.52347   18.30048
 3684.5     48.455   19.72057
 3685     48.29094   19.2089
 3685.5     48.12688   18.68042
 3686     47.98605   18.15194
 3686.5     47.95109   17.62346
 3687     47.91613   17.09498
 3687.5     47.88117   16.5665
 3688     47.88275   16.03802
 3688.5     47.9951   15.50954
 3689     48.10744   15.80887
 3689.5     48.21978   16.66463
 3690     48.33213   16.97339
 3690.5     48.44447   16.79146
 3691     48.55681   16.60954
 3691.5     48.66916   16.42761
 3692     48.48191   16.24568
 3692.5     48.25978   17.76635
 3693     48.10139   20.21664
 3693.5     48.46261   22.66694
 3694     48.82383   24.21916
 3694.5     49.18506   23.03128
 3695     49.14024   21.84341
 3695.5     48.90452   20.65553
 3696     48.6688   19.46766
 3696.5     48.43308   19.20389
 3697     48.19736   20.90422
 3697.5     47.96164   22.60455
