###############################################
##         ENVERUS                           ##
##         Petrophysical Curves              ##
##         PERMIAN / DELAWARE                ##
##         Jan 21 2022                       ##
##         42-371-36857-00-00                ##
###############################################
## Copyright 2017-2022  ENVERUS.  All Rights Reserved. 
## Confidential - Property of ENVERUS, use governed by terms and 
## conditions found within the existing Information Services Subscription Agreement 
## (as may be amended, the “ISSA”) between Customer and ENVERUS. 
## 
~VERSION INFORMATION
# MNEM.UNIT                               DATA : DESCRIPTION OF MNEMONIC
#-----.-----     ----------------------------- : -----------------------------
VERS.                                     2.00 : CWLS LOG ASCII STANDARD - VERSION 2.00
WRAP.                                       NO : MULTIPLE LINES PER DEPTH STEP
VEND.                                  ENVERUS : VENDOR
TYPE.                     PETROPHYSICAL CURVES : ENVERUS PETROPHYSICAL CURVES - ACCESSIBLE THROUGH ENVERUS CORE(TM)
#___________________________________________________________________________________________________ 
~WELL INFORMATION 
# uyaQ8P8kQDJ9DXFS5hR1PxmExEOYaAUkY5f3/tnOS+scoPAUWgXA1zCIHGRbWCuSuUcwDzaESCjqjWQ81XhadA== 
# MNEM.UNIT                                              DATA : DESCRIPTION OF MNEMONIC 
#-----.-----                    ----------------------------- : ----------------------------- 
CNTY.                                                   PECOS : COUNTY 
STATE.                                                  TEXAS : STATE 
CNTRY.                                                    USA : COUNTRY 
API.                                             42-371-36857 : API (10 Digit) 
API_14.                                    42-371-36857-00-00 : API (14 Digits) 
API_14_std.                                 42-371-36857-0000 : API (14 Digits Standard) 
UWI.                                           42371368570000 : UNIQUE WELL ID
STRT.FT                                                7870.0 : START DEPTH
STOP.FT                                               16592.5 : STOP DEPTH
STEP.FT                                                   0.5 : STEP BETWEEN DEPTHS
NULL.                                                 -999.25 : NULL VALUE
COMP.                                             DIAMONDBACK : COMPANY 
WELL.                                         MOORE-GILMORE 1 : WELL NAME 
FLD.                                               WAHA  WEST : FIELD NAME
#___________________________________________________________________________________________________ 
~CURVE INFORMATION 
#    Zone Description
#          1 = Upper Avalon
#          2 = Middle Avalon
#          3 = Lower Avalon
#          4 = 1st Bone Spring
#          5 = 2nd Bone Spring
#          6 = 2nd Bone Spring Sand
#          7 = 3rd Bone Spring
#          8 = 3rd Bone Spring Sand
#          9 = Wolfcamp XY
#          10 = Wolfcamp A Upper
#          11 = Wolfcamp A Lower
#          12 = Wolfcamp B Upper
#          13 = Wolfcamp B Lower
#          14 = Wolfcamp C
#          15 = Wolfcamp D
#          16 = Pennsylvanian Shale
#          17 = Lower Pennsylvanian Shale
#          18 = Barnett
#          19 = Barnett Lower
#          20 = Mississippian Lime
#          21 = Woodford
#          22 = Base Woodford 
# MNEM.UNIT           : CURVE DESCRIPTION 
#-----.-----          : ----------------------------- 
 DEPT.FT               : MEASURED DEPTH 
 TVD_I.FT              : ENVERUS TRUE VERTICAL DEPTH 
 ZONE_I.               : ENVERUS DEFINED ZONE CODE 
 GR_N_I.API            : ENVERUS NORMALIZED GAMMA RAY LEVERAGED IN GEOLOGICAL MODELLING 
 RESD_I.OHMM           : ENVERUS DEEP RESISTIVITY LEVERAGED IN GEOLOGICAL MODELLING 
 DPHI_I.V/V            : ENVERUS INTERPRETED DENSITY POROSITY USING A 2.71 G/CC MATRIX DENSITY 
 PHIE_I.V/V            : ENVERUS INTERPRETED EFFECTIVE POROSITY 
 SW_I.V/V              : ENVERUS INTERPRETED WATER SATURATION USING MODIFIED SIMANDOUX EQUATION 
 TOC_I.WT%             : ENVERUS INTERPRETED TOTAL ORGANIC CARBON USING MULTI-LINEAR REGRESSION 
 VCLAY_I.V/V           : ENVERUS INTERPRETED CLAY VOLUMES USING MULTI-LINEAR REGRESSION 
 NVCLAY_I.V/V          : ENVERUS INTERPRETED NON CLAY VOLUMES 
 HCPV_I.V/V            : ENVERUS INTERPRETED HYDROCARBON PORE VOLUME 
 OOIP_I.MMBBL/SEC      : ENVERUS INTERPRETED ORIGINAL OIL IN PLACE 
 OGIP_I.BCF/SEC        : ENVERUS INTERPRETED ORIGINAL GAS IN PLACE 
 TEMP_I.DEGF           : ENVERUS INTERPRETED TEMPERATURE DERIVED FROM BOTTOM HOLE TEMPERATURES 
 #___________________________________________________________________________________________________ 
~A         DEPT          TVD_I         ZONE_I         GR_N_I         RESD_I         DPHI_I         PHIE_I           SW_I          TOC_I        VCLAY_I       NVCLAY_I         HCPV_I         OOIP_I         OGIP_I         TEMP_I
# ...
        11056.0      11056.000          12.00         82.903         6.2200        0.05630        0.04050        0.75260        2.22530        0.27950        0.67990        0.00000        0.02810      223.83540        482.167
        11056.5      11056.500          12.00         76.294         6.8290        0.04620        0.03440        0.73190        1.84960        0.25560        0.71000        0.00000        0.02580      205.74910        482.186
        11057.0      11057.000          12.00         73.639         7.6010        0.04590        0.03520        0.72700        1.72020        0.23260        0.73210        0.00000        0.02690      214.60850        482.205
        11057.5      11057.500          12.00         70.985         8.3740        0.04330        0.03360        0.67880        1.59880        0.22330        0.74310        0.00000        0.03020      240.93590        482.224
        11058.0      11058.001          12.00         68.331         9.1470        0.03430        0.02660        0.48720        1.39010        0.22320        0.75020        0.00000        0.03820      304.83010        482.243
        11058.5      11058.500          12.00         65.008         9.9190        0.01780        0.01390        0.00000        1.03330        0.22230        0.76370        0.00000        0.03890      309.99770        482.262
        11059.0      11059.000          12.00         60.354        10.6810        0.00130        0.00110        0.00000        0.61590        0.20910        0.78980        0.00000        0.00300       23.73900        482.281
        11059.5      11059.500          12.00         55.700         9.7020       -0.01920        0.00000        0.00000        0.17690        0.20170        0.79830        0.00000        0.00000        0.00000        482.300
        11060.0      11059.999          12.00         51.046         8.7220       -0.00130        0.00000        0.00000        0.42110        0.18950        0.81050        0.00000        0.00000        0.00220        482.319
        11060.5      11060.500          12.00         53.086         7.7430        0.02400        0.01930        0.43440        0.92240        0.19360        0.78720        0.00000        0.03050      243.69940        482.338
        11061.0      11061.000          12.00         65.431         6.7640        0.04920        0.03720        0.78500        1.74400        0.24290        0.72000        0.00000        0.02240      178.59780        482.356
        11061.5      11061.500          12.00         89.414         5.9460        0.05760        0.03920        0.69070        2.49240        0.32030        0.64050        0.00000        0.03390      270.29140        482.375
        11062.0      11062.000          12.00         93.550         5.5580        0.06440        0.04140        0.66880        2.83450        0.35830        0.60040        0.00000        0.03830      305.80000        482.394
        11062.5      11062.500          12.00         97.382         5.1700        0.07300        0.04680        0.71730        3.04820        0.35870        0.59450        0.00000        0.03700      295.35110        482.413
        11063.0      11063.000          12.00        101.213         4.7820        0.07970        0.05130        0.75420        3.22730        0.35690        0.59180        0.00190        0.03520      281.23850        482.432
        11063.5      11063.500          12.00        105.045         4.7840        0.08390        0.05380        0.74070        3.37360        0.35900        0.58720        0.00520        0.03900      311.12740        482.451
        11064.0      11064.000          12.00        105.286         4.9580        0.08620        0.05530        0.71500        3.42350        0.35860        0.58610        0.00730        0.04410      351.75950        482.470
        11064.5      11064.501          12.00        103.451         5.1320        0.08620        0.05540        0.69750        3.39320        0.35750        0.58710        0.00830        0.04690      374.00620        482.489
        11065.0      11065.001          12.00        101.616         5.3060        0.08610        0.05650        0.69250        3.31900        0.34400        0.59940        0.01140        0.04860      387.87930        482.508
        11065.5      11065.500          12.00         99.781         5.4800        0.08530        0.05700        0.68910        3.23340        0.33200        0.61100        0.01360        0.04950      395.26890        482.527
        11066.0      11066.000          12.00         97.946         5.6540        0.08250        0.05600        0.69070        3.11470        0.32160        0.62240        0.01410        0.04840      386.52150        482.546
        11066.5      11066.500          12.00         96.111         5.8280        0.08270        0.05640        0.67720        3.08300        0.31880        0.62480        0.01460        0.05090      406.26360        482.565
        11067.0      11067.000          12.00         94.276         6.0020        0.08270        0.05640        0.66380        3.05120        0.31760        0.62600        0.01440        0.05310      423.54940        482.584
        11067.5      11067.500          12.00         94.389         5.9010        0.08220        0.05610        0.67460        3.03900        0.31670        0.62720        0.01380        0.05110      407.86900        482.603
        11068.0      11068.000          12.00         95.555         5.7660        0.08200        0.05660        0.69310        3.02980        0.31020        0.63330        0.01290        0.04860      387.59230        482.622
        11068.5      11068.499          12.00         96.722         5.6310        0.08190        0.05600        0.70000        3.06480        0.31610        0.62790        0.01270        0.04700      375.04660        482.641
        11069.0      11069.000          12.00         96.986         5.4960        0.08170        0.05500        0.70270        3.10230        0.32690        0.61810        0.01050        0.04570      365.06770        482.660
        11069.5      11069.500          12.00         96.696         5.3610        0.07910        0.05190        0.70480        3.10620        0.34400        0.60410        0.00470        0.04280      341.91250        482.679
        11070.0      11070.000          12.00         96.405         5.2260        0.07640        0.05020        0.72640        3.04430        0.34300        0.60680        0.00220        0.03840      306.55640        482.698
        11070.5      11070.500          12.00         96.114         5.0910        0.07390        0.04880        0.75270        2.97440        0.33890        0.61220        0.00080        0.03380      269.64820        482.717
        11071.0      11071.000          12.00         95.824         4.9750        0.07610        0.05080        0.76850        2.99270        0.33280        0.61650        0.00280        0.03290      262.39570        482.736
        11071.5      11071.500          12.00         94.699         4.9130        0.08010        0.05340        0.76200        3.06360        0.33400        0.61260        0.00470        0.03550      283.56820        482.755
        11072.0      11072.000          12.00         95.601         4.8520        0.08160        0.05410        0.76130        3.11700        0.33690        0.60900        0.00510        0.03620      288.64790        482.774
        11072.5      11072.500          12.00         95.588         4.7910        0.08150        0.05400        0.76870        3.11450        0.33720        0.60880        0.00490        0.03490      278.91450        482.793
        11073.0      11073.000          12.00         95.432         4.7290        0.08160        0.05320        0.76450        3.15690        0.34840        0.59840        0.00220        0.03500      279.55450        482.811
        11073.5      11073.500          12.00         95.420         4.6680        0.08180        0.05390        0.77800        3.13600        0.34170        0.60440        0.00330        0.03340      267.02010        482.830
