###############################################
##         ENVERUS                           ##
##         ESS - Open Hole                   ##
##         PERMIAN / DELAWARE                ##
##         Nov 04 2023  V4.0                 ##
##         42-389-10116-00-00                ##
###############################################
## Copyright 2017-2023  ENVERUS.  All Rights Reserved. 
## Confidential - Property of ENVERUS, use governed by terms and 
## conditions found within the existing Information Services Subscription Agreement 
## (as may be amended, the “ISSA”) between Customer and ENVERUS. 
## 
~VERSION INFORMATION
# MNEM.UNIT                               DATA : DESCRIPTION OF MNEMONIC
#-----.-----     ----------------------------- : -----------------------------
VERS.                                     2.00 : CWLS LOG ASCII STANDARD - VERSION 2.00
WRAP.                                       NO : MULTIPLE LINES PER DEPTH STEP
VEND.                                  ENVERUS : VENDOR
TYPE.                          ESS - OPEN HOLE : ENVERUS ESSENTIAL CURVES – ACCESSIBLE THROUGH ENVERUS PRISM(TM)
DOC.                                  31818149 : ENVERUS HEADER RAW DOCUMENT ID
#___________________________________________________________________________________________________ 
~WELL INFORMATION 
# kxSJJvG4Ro99GqojvmaAoFb8nmZsGWyMBdB6Op61yYkHZj6VRdx+Ef4kBXz5Syac/VH6awax3Ll89xsC2rvs8g== 
# MNEM.UNIT                                              DATA : DESCRIPTION OF MNEMONIC 
#-----.-----                    ----------------------------- : ----------------------------- 
CNTY.                                                  REEVES : COUNTY 
STATE.                                                  TEXAS : STATE 
CNTRY.                                                    USA : COUNTRY 
API.                                             42-389-10116 : API (10 Digit) 
API_14.                                    42-389-10116-00-00 : API (14 Digits) 
API_14_std.                                 42-389-10116-0000 : API (14 Digits Standard) 
UWI.                                           42389101160000 : UNIQUE WELL ID 
WELL.                                            WOODS -A-  1 : WELL NAME
STRT.FT                                                 107.0 : START DEPTH
STOP.FT                                                5258.0 : STOP DEPTH
STEP.FT                                                   0.5 : STEP BETWEEN DEPTHS
NULL.                                                 -999.25 : NULL VALUE
COMP.                              PHILLIPS PETROLEUM COMPANY : COMPANY
#___________________________________________________________________________________________________ 
~CURVE INFORMATION 
# MNEM.UNIT           : CURVE DESCRIPTION 
#-----.-----          : ----------------------------- 
 DEPT.FT               : MEASURED DEPTH 
 GR.API                : GAMMA RAY (GR) 
 DT.US/FT              : SONIC DELTA TRANSIT TIME (DT) 
 #___________________________________________________________________________________________________ 
~A         DEPT             GR             DT
# ...
         3500.0          8.636         49.534
         3500.5          7.698         49.231
         3501.0          6.761         48.928
         3501.5          5.823         48.625
         3502.0          6.368         48.322
         3502.5          7.040         48.019
         3503.0          7.700         47.716
         3503.5          7.653         47.507
         3504.0          7.607         47.477
         3504.5          7.560         47.446
         3505.0          7.513         47.415
         3505.5          7.585         47.384
         3506.0          8.319         47.353
         3506.5          9.053         47.513
         3507.0          9.787         47.846
         3507.5         10.521         48.130
         3508.0         11.255         47.839
         3508.5         11.183         47.548
         3509.0         10.952         47.541
         3509.5         10.721         47.676
         3510.0         10.490         47.811
         3510.5         10.259         47.946
         3511.0         10.028         48.081
         3511.5          9.797         48.216
         3512.0          9.566         48.351
         3512.5         12.425         48.553
         3513.0         16.399         48.874
         3513.5         12.540         49.196
         3514.0          9.225         49.517
         3514.5          9.186         49.838
         3515.0          9.148         49.730
         3515.5          9.110         49.139
         3516.0          9.072         48.547
         3516.5          9.033         48.035
         3517.0          9.313         48.154
         3517.5         10.323         48.273
         3518.0         11.333         48.392
         3518.5         12.343         48.511
         3519.0         11.710         48.630
         3519.5         10.947         48.749
         3520.0         10.184         48.868
         3520.5          9.421         48.987
         3521.0          8.658         49.106
         3521.5          9.465         49.187
         3522.0         11.603         49.203
         3522.5         13.627         49.220
         3523.0         15.019         49.236
         3523.5         16.231         48.971
         3524.0         16.836         48.698
         3524.5         17.442         48.426
         3525.0         19.247         48.184
         3525.5         21.334         48.197
         3526.0         23.421         48.209
         3526.5         25.507         48.222
         3527.0         27.409         48.234
         3527.5         23.617         48.577
         3528.0         19.825         49.038
         3528.5         16.033         49.498
         3529.0         13.768         49.958
         3529.5         12.955         49.697
         3530.0         12.142         49.272
         3530.5         11.329         48.847
         3531.0         10.516         48.422
         3531.5          9.703         50.233
         3532.0          8.890         52.128
         3532.5          8.077         54.023
         3533.0          7.477         59.916
         3533.5          7.814         71.229
         3534.0          8.151         68.904
         3534.5          8.488         65.922
         3535.0          8.825         66.244
         3535.5          8.726         66.565
         3536.0          8.530         66.886
         3536.5          8.334         67.208
         3537.0          8.138         65.385
         3537.5          7.942         64.462
         3538.0          8.262         64.739
         3538.5          8.612         65.017
         3539.0          8.962         65.295
         3539.5          9.312         65.523
         3540.0          9.662         65.281
         3540.5         10.012         65.158
         3541.0          9.979         65.653
         3541.5          9.734         66.147
         3542.0          9.488         66.463
         3542.5          9.242         66.133
         3543.0          8.997         65.804
         3543.5          8.751         65.475
         3544.0          8.505         65.686
         3544.5          8.260         66.000
         3545.0          8.014         66.314
         3545.5          8.077         66.627
         3546.0          8.188         66.941
         3546.5          8.298         66.923
         3547.0          8.409         66.518
         3547.5          8.519         66.114
         3548.0          8.629         65.709
         3548.5          8.735         65.446
         3549.0          8.772         66.155
         3549.5          8.808         66.864
         3550.0          8.809         67.574
         3550.5          8.618         68.114
         3551.0          8.428         67.900
         3551.5          8.237         67.686
         3552.0          8.047         67.473
         3552.5          7.856         67.259
         3553.0          7.666         67.045
         3553.5          7.475         66.831
         3554.0          7.285         66.618
         3554.5          7.094         66.404
         3555.0          7.612         66.497
         3555.5          8.218         66.603
         3556.0          8.823         66.709
         3556.5          9.429         66.814
         3557.0          9.933         66.515
         3557.5          8.539         66.723
         3558.0          7.145         66.932
         3558.5          5.950         67.140
         3559.0          6.623         67.094
         3559.5          7.295         66.933
         3560.0          7.793         66.771
         3560.5          7.567         66.610
         3561.0          7.340         66.570
         3561.5          7.113         66.779
         3562.0          6.887         66.987
         3562.5          6.660         67.196
         3563.0          6.433         67.001
         3563.5          6.798         66.269
         3564.0          7.261         66.039
         3564.5          7.724         66.285
         3565.0          8.187         66.530
         3565.5          8.650         66.776
         3566.0          9.065         67.022
         3566.5          8.447         67.267
         3567.0          7.830         67.513
         3567.5          7.212         67.758
         3568.0          6.712         67.696
         3568.5          6.985         67.502
         3569.0          7.258         67.308
         3569.5          7.531         67.114
         3570.0          7.803         66.920
         3570.5          8.076         66.942
         3571.0          8.349         66.997
         3571.5          7.384         67.052
         3572.0          6.153         67.107
         3572.5          5.978         67.162
         3573.0          5.982         67.217
         3573.5          5.985         67.272
         3574.0          5.988         66.428
         3574.5          5.992         66.538
         3575.0          5.995         66.649
         3575.5          5.998         66.759
         3576.0          6.002         66.869
         3576.5          6.005         66.980
         3577.0          6.008         67.090
         3577.5          6.012         67.022
         3578.0          6.015         66.900
         3578.5          6.200         66.779
         3579.0          6.464         66.658
         3579.5          6.729         66.713
         3580.0          6.993         67.019
         3580.5          7.258         67.325
         3581.0          7.522         67.630
         3581.5          7.786         67.404
         3582.0          8.051         67.172
         3582.5          8.315         66.940
         3583.0          8.580         66.707
         3583.5          8.844         66.475
         3584.0          8.730         66.358
         3584.5          8.286         66.731
         3585.0          7.841         67.105
         3585.5          7.397         67.479
         3586.0          6.953         67.467
         3586.5          7.345         67.336
