###############################################
##         ENVERUS                           ##
##         Petrophysical Curves              ##
##         PERMIAN / DELAWARE                ##
##         Jan 21 2022                       ##
##         42-389-10508-00-00                ##
###############################################
## Copyright 2017-2022  ENVERUS.  All Rights Reserved. 
## Confidential - Property of ENVERUS, use governed by terms and 
## conditions found within the existing Information Services Subscription Agreement 
## (as may be amended, the “ISSA”) between Customer and ENVERUS. 
## 
~VERSION INFORMATION
# MNEM.UNIT                               DATA : DESCRIPTION OF MNEMONIC
#-----.-----     ----------------------------- : -----------------------------
VERS.                                     2.00 : CWLS LOG ASCII STANDARD - VERSION 2.00
WRAP.                                       NO : MULTIPLE LINES PER DEPTH STEP
VEND.                                  ENVERUS : VENDOR
TYPE.                     PETROPHYSICAL CURVES : ENVERUS PETROPHYSICAL CURVES - ACCESSIBLE THROUGH ENVERUS CORE(TM)
#___________________________________________________________________________________________________ 
~WELL INFORMATION 
# uyaQ8P8kQDJ9DXFS5hR1PxmExEOYaAUkY5f3/tnOS+scoPAUWgXA1zCIHGRbWCuSuUcwDzaESCjqjWQ81XhadA== 
# MNEM.UNIT                                              DATA : DESCRIPTION OF MNEMONIC 
#-----.-----                    ----------------------------- : ----------------------------- 
CNTY.                                                  REEVES : COUNTY 
STATE.                                                  TEXAS : STATE 
CNTRY.                                                    USA : COUNTRY 
API.                                             42-389-10508 : API (10 Digit) 
API_14.                                    42-389-10508-00-00 : API (14 Digits) 
API_14_std.                                 42-389-10508-0000 : API (14 Digits Standard) 
UWI.                                           42389105080000 : UNIQUE WELL ID
STRT.FT                                               11776.0 : START DEPTH
STOP.FT                                               33299.5 : STOP DEPTH
STEP.FT                                                   0.5 : STEP BETWEEN DEPTHS
NULL.                                                 -999.25 : NULL VALUE
COMP.                                                  SABINE : COMPANY 
WELL.                                                       1 : WELL NAME 
FLD.                                         ROJO CABALLOS W. : FIELD NAME
#___________________________________________________________________________________________________ 
~CURVE INFORMATION 
#    Zone Description
#          1 = Upper Avalon
#          2 = Middle Avalon
#          3 = Lower Avalon
#          4 = 1st Bone Spring
#          5 = 2nd Bone Spring
#          6 = 2nd Bone Spring Sand
#          7 = 3rd Bone Spring
#          8 = 3rd Bone Spring Sand
#          9 = Wolfcamp XY
#          10 = Wolfcamp A Upper
#          11 = Wolfcamp A Lower
#          12 = Wolfcamp B Upper
#          13 = Wolfcamp B Lower
#          14 = Wolfcamp C
#          15 = Wolfcamp D
#          16 = Pennsylvanian Shale
#          17 = Lower Pennsylvanian Shale
#          18 = Barnett
#          19 = Barnett Lower
#          20 = Mississippian Lime
#          21 = Woodford
#          22 = Base Woodford 
# MNEM.UNIT           : CURVE DESCRIPTION 
#-----.-----          : ----------------------------- 
 DEPT.FT               : MEASURED DEPTH 
 TVD_I.FT              : ENVERUS TRUE VERTICAL DEPTH 
 ZONE_I.               : ENVERUS DEFINED ZONE CODE 
 GR_N_I.API            : ENVERUS NORMALIZED GAMMA RAY LEVERAGED IN GEOLOGICAL MODELLING 
 TEMP_I.DEGF           : ENVERUS INTERPRETED TEMPERATURE DERIVED FROM BOTTOM HOLE TEMPERATURES 
 #___________________________________________________________________________________________________ 
~A         DEPT          TVD_I         ZONE_I         GR_N_I         TEMP_I
# ...
        18931.0      18931.000          22.00         38.873        142.121
        18931.5      18931.500          22.00         38.637        142.126
        18932.0      18932.000          22.00         38.371        142.132
        18932.5      18932.500          22.00         38.104        142.137
        18933.0      18933.000          22.00         37.260        142.143
        18933.5      18933.500          22.00         36.966        142.148
        18934.0      18933.998          22.00         39.735        142.154
        18934.5      18934.500          22.00         40.480        142.159
        18935.0      18935.000          22.00         40.636        142.165
        18935.5      18935.500          22.00         39.853        142.170
        18936.0      18936.000          22.00         38.551        142.176
        18936.5      18936.500          22.00         36.421        142.181
        18937.0      18937.000          22.00         34.724        142.187
        18937.5      18937.500          22.00         33.861        142.193
        18938.0      18938.000          22.00         33.566        142.198
        18938.5      18938.500          22.00         35.093        142.204
        18939.0      18939.000          22.00         36.996        142.209
        18939.5      18939.500          22.00         38.899        142.215
        18940.0      18940.000          22.00         40.490        142.220
        18940.5      18940.500          22.00         40.879        142.226
        18941.0      18941.000          22.00         41.268        142.231
        18941.5      18941.500          22.00         41.668        142.237
        18942.0      18942.000          22.00         42.121        142.242
        18942.5      18942.500          22.00         42.922        142.248
        18943.0      18943.000          22.00         44.172        142.253
        18943.5      18943.502          22.00         45.421        142.259
        18944.0      18944.002          22.00         46.670        142.264
        18944.5      18944.502          22.00         47.923        142.270
        18945.0      18945.002          22.00         49.403        142.275
        18945.5      18945.500          22.00         50.386        142.281
        18946.0      18946.000          22.00         51.138        142.287
        18946.5      18946.500          22.00         49.801        142.292
        18947.0      18946.998          22.00         48.317        142.298
        18947.5      18947.500          22.00         46.833        142.303
        18948.0      18948.000          22.00         45.535        142.309
        18948.5      18948.500          22.00         44.973        142.314
        18949.0      18949.000          22.00         44.367        142.320
        18949.5      18949.500          22.00         43.295        142.325
        18950.0      18950.000          22.00         42.223        142.331
        18950.5      18950.500          22.00         42.061        142.336
        18951.0      18951.000          22.00         41.905        142.342
        18951.5      18951.500          22.00         41.749        142.347
        18952.0      18952.000          22.00         41.638        142.353
        18952.5      18952.500          22.00         41.559        142.358
        18953.0      18953.000          22.00         41.480        142.364
        18953.5      18953.500          22.00         41.470        142.370
        18954.0      18954.000          22.00         41.859        142.375
        18954.5      18954.500          22.00         42.248        142.381
        18955.0      18955.000          22.00         42.653        142.386
        18955.5      18955.500          22.00         43.182        142.392
        18956.0      18956.000          22.00         43.327        142.397
        18956.5      18956.502          22.00         42.837        142.403
        18957.0      18957.000          22.00         42.347        142.408
        18957.5      18957.500          22.00         42.056        142.414
        18958.0      18958.000          22.00         42.054        142.419
        18958.5      18958.500          22.00         42.052        142.425
        18959.0      18959.000          22.00         41.940        142.430
        18959.5      18959.500          22.00         41.806        142.436
        18960.0      18960.000          22.00         41.672        142.441
        18960.5      18960.500          22.00         40.739        142.447
        18961.0      18961.000          22.00         39.653        142.452
        18961.5      18961.500          22.00         38.567        142.458
        18962.0      18962.000          22.00         37.520        142.464
        18962.5      18962.500          22.00         36.973        142.469
        18963.0      18963.000          22.00         36.875        142.475
        18963.5      18963.500          22.00         37.512        142.480
        18964.0      18963.998          22.00         38.148        142.486
        18964.5      18964.498          22.00         38.784        142.491
        18965.0      18965.000          22.00         39.168        142.497
        18965.5      18965.500          22.00         39.254        142.502
        18966.0      18966.000          22.00         39.339        142.508
        18966.5      18966.500          22.00         40.148        142.513
        18967.0      18967.000          22.00         41.842        142.519
        18967.5      18967.500          22.00         41.935        142.524
        18968.0      18968.000          22.00         41.215        142.530
        18968.5      18968.500          22.00         40.496        142.535
        18969.0      18969.000          22.00         39.776        142.541
        18969.5      18969.500          22.00         39.535        142.546
        18970.0      18970.000          22.00         39.898        142.552
        18970.5      18970.500          22.00         40.328        142.558
        18971.0      18971.000          22.00         40.932        142.563
        18971.5      18971.500          22.00         41.535        142.569
        18972.0      18972.000          22.00         40.597        142.574
        18972.5      18972.500          22.00         39.699        142.580
        18973.0      18973.000          22.00         39.872        142.585
        18973.5      18973.500          22.00         40.044        142.591
        18974.0      18974.002          22.00         40.233        142.596
        18974.5      18974.502          22.00         40.445        142.602
        18975.0      18975.002          22.00         40.657        142.607
        18975.5      18975.502          22.00         40.868        142.613
        18976.0      18976.000          22.00         41.058        142.618
        18976.5      18976.500          22.00         41.056        142.624
        18977.0      18977.000          22.00         41.054        142.629
        18977.5      18977.498          22.00         40.958        142.635
        18978.0      18978.000          22.00         40.780        142.641
        18978.5      18978.500          22.00         40.602        142.646
        18979.0      18979.000          22.00         40.825        142.652
        18979.5      18979.500          22.00         41.391        142.657
        18980.0      18980.000          22.00         41.957        142.663
        18980.5      18980.500          22.00         42.547        142.668
        18981.0      18981.000          22.00         43.505        142.674
        18981.5      18981.500          22.00         44.464        142.679
        18982.0      18981.998          22.00         46.729        142.685
        18982.5      18982.500          22.00         46.741        142.690
        18983.0      18983.000          22.00         46.651        142.696
        18983.5      18983.500          22.00         46.560        142.701
