###############################################
##         ENVERUS                           ##
##         Petrophysical Curves              ##
##         PERMIAN / DELAWARE                ##
##         Jan 21 2022                       ##
##         42-371-36857-00-00                ##
###############################################
## Copyright 2017-2022  ENVERUS.  All Rights Reserved. 
## Confidential - Property of ENVERUS, use governed by terms and 
## conditions found within the existing Information Services Subscription Agreement 
## (as may be amended, the “ISSA”) between Customer and ENVERUS. 
## 
~VERSION INFORMATION
# MNEM.UNIT                               DATA : DESCRIPTION OF MNEMONIC
#-----.-----     ----------------------------- : -----------------------------
VERS.                                     2.00 : CWLS LOG ASCII STANDARD - VERSION 2.00
WRAP.                                       NO : MULTIPLE LINES PER DEPTH STEP
VEND.                                  ENVERUS : VENDOR
TYPE.                     PETROPHYSICAL CURVES : ENVERUS PETROPHYSICAL CURVES - ACCESSIBLE THROUGH ENVERUS CORE(TM)
#___________________________________________________________________________________________________ 
~WELL INFORMATION 
# uyaQ8P8kQDJ9DXFS5hR1PxmExEOYaAUkY5f3/tnOS+scoPAUWgXA1zCIHGRbWCuSuUcwDzaESCjqjWQ81XhadA== 
# MNEM.UNIT                                              DATA : DESCRIPTION OF MNEMONIC 
#-----.-----                    ----------------------------- : ----------------------------- 
CNTY.                                                   PECOS : COUNTY 
STATE.                                                  TEXAS : STATE 
CNTRY.                                                    USA : COUNTRY 
API.                                             42-371-36857 : API (10 Digit) 
API_14.                                    42-371-36857-00-00 : API (14 Digits) 
API_14_std.                                 42-371-36857-0000 : API (14 Digits Standard) 
UWI.                                           42371368570000 : UNIQUE WELL ID
STRT.FT                                                7870.0 : START DEPTH
STOP.FT                                               16592.5 : STOP DEPTH
STEP.FT                                                   0.5 : STEP BETWEEN DEPTHS
NULL.                                                 -999.25 : NULL VALUE
COMP.                                             DIAMONDBACK : COMPANY 
WELL.                                         MOORE-GILMORE 1 : WELL NAME 
FLD.                                               WAHA  WEST : FIELD NAME
#___________________________________________________________________________________________________ 
~CURVE INFORMATION 
#    Zone Description
#          1 = Upper Avalon
#          2 = Middle Avalon
#          3 = Lower Avalon
#          4 = 1st Bone Spring
#          5 = 2nd Bone Spring
#          6 = 2nd Bone Spring Sand
#          7 = 3rd Bone Spring
#          8 = 3rd Bone Spring Sand
#          9 = Wolfcamp XY
#          10 = Wolfcamp A Upper
#          11 = Wolfcamp A Lower
#          12 = Wolfcamp B Upper
#          13 = Wolfcamp B Lower
#          14 = Wolfcamp C
#          15 = Wolfcamp D
#          16 = Pennsylvanian Shale
#          17 = Lower Pennsylvanian Shale
#          18 = Barnett
#          19 = Barnett Lower
#          20 = Mississippian Lime
#          21 = Woodford
#          22 = Base Woodford 
# MNEM.UNIT           : CURVE DESCRIPTION 
#-----.-----          : ----------------------------- 
 DEPT.FT               : MEASURED DEPTH 
 TVD_I.FT              : ENVERUS TRUE VERTICAL DEPTH 
 ZONE_I.               : ENVERUS DEFINED ZONE CODE 
 GR_N_I.API            : ENVERUS NORMALIZED GAMMA RAY LEVERAGED IN GEOLOGICAL MODELLING 
 RESD_I.OHMM           : ENVERUS DEEP RESISTIVITY LEVERAGED IN GEOLOGICAL MODELLING 
 DPHI_I.V/V            : ENVERUS INTERPRETED DENSITY POROSITY USING A 2.71 G/CC MATRIX DENSITY 
 PHIE_I.V/V            : ENVERUS INTERPRETED EFFECTIVE POROSITY 
 SW_I.V/V              : ENVERUS INTERPRETED WATER SATURATION USING MODIFIED SIMANDOUX EQUATION 
 TOC_I.WT%             : ENVERUS INTERPRETED TOTAL ORGANIC CARBON USING MULTI-LINEAR REGRESSION 
 VCLAY_I.V/V           : ENVERUS INTERPRETED CLAY VOLUMES USING MULTI-LINEAR REGRESSION 
 NVCLAY_I.V/V          : ENVERUS INTERPRETED NON CLAY VOLUMES 
 HCPV_I.V/V            : ENVERUS INTERPRETED HYDROCARBON PORE VOLUME 
 OOIP_I.MMBBL/SEC      : ENVERUS INTERPRETED ORIGINAL OIL IN PLACE 
 OGIP_I.BCF/SEC        : ENVERUS INTERPRETED ORIGINAL GAS IN PLACE 
 TEMP_I.DEGF           : ENVERUS INTERPRETED TEMPERATURE DERIVED FROM BOTTOM HOLE TEMPERATURES 
 #___________________________________________________________________________________________________ 
~A         DEPT          TVD_I         ZONE_I         GR_N_I         RESD_I         DPHI_I         PHIE_I           SW_I          TOC_I        VCLAY_I       NVCLAY_I         HCPV_I         OOIP_I         OGIP_I         TEMP_I
# ...
        12478.0      12478.000          15.00         95.169         4.3810        0.04360        0.02880        0.78800        2.35860        0.33970        0.63150        0.00000        0.01710      146.36720        536.079
        12478.5      12478.500          15.00         95.726         4.3810        0.03980        0.02620        0.69650        2.30160        0.34270        0.63110        0.00000        0.02220      190.42970        536.098
        12479.0      12479.000          15.00         97.345         4.3240        0.04080        0.02660        0.71160        2.35880        0.34740        0.62600        0.00000        0.02150      184.17360        536.117
        12479.5      12479.501          15.00         98.963         4.2650        0.04780        0.03120        0.83350        2.51770        0.34750        0.62130        0.00000        0.01450      124.40170        536.136
        12480.0      12480.001          15.00         98.563         4.2050        0.04810        0.03140        0.84850        2.51990        0.34780        0.62080        0.00000        0.01330      113.85030        536.155
        12480.5      12480.500          15.00         98.020         4.1450        0.04960        0.03220        0.86340        2.55600        0.35090        0.61700        0.00000        0.01230      105.41860        536.174
        12481.0      12481.000          15.00         97.664         4.0850        0.05110        0.03310        0.88540        2.58130        0.35090        0.61600        0.00000        0.01060       91.02900        536.193
        12481.5      12481.499          15.00         99.057         4.0780        0.04750        0.03080        0.85640        2.53230        0.35240        0.61680        0.00000        0.01240      105.90720        536.212
        12482.0      12482.000          15.00        100.449         4.1290        0.04490        0.02900        0.81090        2.49820        0.35290        0.61810        0.00000        0.01540      131.55530        536.231
        12482.5      12482.500          15.00        101.841         4.1800        0.04360        0.02840        0.79540        2.47640        0.34910        0.62250        0.00000        0.01620      139.26370        536.250
        12483.0      12483.000          15.00        100.466         4.2310        0.04430        0.02930        0.84240        2.42730        0.33730        0.63330        0.00000        0.01290      110.82620        536.269
        12483.5      12483.500          15.00         98.264         4.2810        0.04490        0.03030        0.88590        2.36450        0.32510        0.64470        0.00000        0.00970       82.80200        536.288
        12484.0      12484.000          15.00         96.063         4.3020        0.04540        0.03100        0.91410        2.31910        0.31740        0.65150        0.00000        0.00750       63.88310        536.307
        12484.5      12484.500          15.00         94.555         4.2680        0.04610        0.03140        0.92560        2.31280        0.31760        0.65100        0.00000        0.00650       56.11630        536.326
        12485.0      12485.000          15.00         93.321         4.2340        0.04560        0.03110        0.92740        2.29100        0.31840        0.65050        0.00000        0.00630       54.12120        536.345
        12485.5      12485.500          15.00         92.087         4.2000        0.04250        0.02890        0.89820        2.22250        0.32060        0.65050        0.00000        0.00820       70.53950        536.364
        12486.0      12486.001          15.00         90.852         4.1650        0.03910        0.02650        0.84840        2.14480        0.32150        0.65190        0.00000        0.01130       96.46720        536.383
        12486.5      12486.501          15.00         93.131         4.1310        0.03810        0.02570        0.81330        2.16510        0.32530        0.64900        0.00000        0.01340      114.96270        536.402
        12487.0      12487.000          15.00         95.521         4.0920        0.04040        0.02720        0.86490        2.24550        0.32690        0.64590        0.00000        0.01030       87.98860        536.421
        12487.5      12487.500          15.00         97.852         4.0520        0.04270        0.02870        0.90700        2.32590        0.32790        0.64340        0.00000        0.00750       63.97420        536.440
        12488.0      12487.999          15.00         96.556         4.0110        0.04620        0.03120        0.96280        2.36720        0.32450        0.64430        0.00000        0.00320       27.80520        536.458
        12488.5      12488.500          15.00         95.523         3.9700        0.05230        0.03530        0.98500        2.48300        0.32600        0.63880        0.00000        0.00150       12.72590        536.477
        12489.0      12489.000          15.00         95.368         3.9540        0.05870        0.03940        0.97590        2.61410        0.32740        0.63310        0.00000        0.00270       22.75420        536.496
        12489.5      12489.499          15.00         95.214         3.9600        0.06130        0.04160        0.97620        2.64540        0.32180        0.63660        0.00000        0.00280       23.71150        536.515
        12490.0      12489.999          15.00         94.265         3.9660        0.06180        0.04230        0.98600        2.61370        0.31430        0.64330        0.00000        0.00170       14.21810        536.534
        12490.5      12490.500          15.00         92.119         3.9730        0.05560        0.03840        1.00000        2.44300        0.30940        0.65220        0.00000        0.00000        0.00000        536.553
        12491.0      12491.000          15.00         91.290         4.0550        0.04980        0.03450        1.00000        2.30780        0.30770        0.65780        0.00000        0.00000        0.00000        536.572
        12491.5      12491.500          15.00         91.333         4.1360        0.04610        0.03170        0.97510        2.25260        0.31220        0.65610        0.00000        0.00220       18.95410        536.591
        12492.0      12492.000          15.00         91.376         4.2170        0.04630        0.03180        0.94910        2.26570        0.31450        0.65380        0.00000        0.00450       38.76290        536.610
        12492.5      12492.500          15.00         90.202         4.2980        0.04500        0.03080        0.91870        2.22930        0.31550        0.65370        0.00000        0.00700       60.03890        536.629
        12493.0      12493.000          15.00         88.967         4.3800        0.03990        0.02720        0.82370        2.12650        0.31840        0.65440        0.00000        0.01340      114.98480        536.648
        12493.5      12493.500          15.00         89.943         4.4610        0.03400        0.02300        0.57860        2.05180        0.32550        0.65160        0.00000        0.02710      232.06940        536.667
        12494.0      12494.000          15.00         92.057         4.3960        0.03600        0.02430        0.67110        2.11740        0.32650        0.64920        0.00000        0.02230      191.39230        536.686
        12494.5      12494.500          15.00         92.278         4.2990        0.04720        0.03250        0.94360        2.28430        0.31180        0.65570        0.00000        0.00510       43.92510        536.705
        12495.0      12495.001          15.00         92.500         4.2030        0.04510        0.03080        0.93610        2.26640        0.31710        0.65210        0.00000        0.00550       47.24880        536.724
        12495.5      12495.500          15.00         92.874         4.1060        0.04370        0.02960        0.92640        2.26330        0.32260        0.64780        0.00000        0.00610       52.21600        536.743
