#--------------------------------------------------#
#-------------------ENVERUS, INC.------------------#
#------------------WWW.ENVERUS.COM-----------------#
#------------------COPYRIGHT 2020------------------#
#--------------------------------------------------#
#THIS FILE MAY BE USED ONLY IN ACCORDANCE WITH A CURRENT SUBSCRIPTION AGREEMENT BETWEEN
#THE USER AND ENVERUS, INC. NO PART OF THIS FILE MAY BE REPRODUCED, USED, COPIED,
#MODIFIED, PROPAGATED, OR DISTRIBUTED EXCEPT IN ACCORDANCE WITH THE SUBSCRIPTION
#AGREEMENT. UNAUTHORIZED USE OR DISTRIBUTION OF ALL OR ANY PART OF THIS FILE MAY VIOLATE
#COPYRIGHT, TRADEMARK, AND/OR OTHER LAWS AND IS SUBJECT TO CIVIL AS WELL AS CRIMINAL
#SANCTIONS.
#--------------------------------------------------#
#THIS FILE IS PROVIDED "AS-IS" AND ALL WARRANTIES ARE EXPRESSLY DISCLAIMED, WHETHER
#EXPRESS, ORAL, IMPLIED, STATUTORY OR OTHERWISE, INCLUDING ANY IMPLIED WARRANTY OF FITNESS
#FOR A PARTICULAR PURPOSE, MERCHANTABILITY, TITLE OR NON-INFRINGEMENT, AND ANY WARRANTIES
#ARISING BY VIRTUE OF CUSTOM OF TRADE OR COURSE OF DEALING.  FURTHER, ENVERUS, INC.
#AND ITS LICENSORS DO NOT REPRESENT OR WARRANT THAT THIS FILE WILL MEET USER'S
#REQUIREMENTS OR ARE SUITABLE FOR USER'S NEEDS OR THAT THE DATA OR RESULTS PROVIDED IN
#CONJUNCTION THEREWITH ARE CORRECT, ACCURATE, TIMELY OR RELIABLE. THESE DISCLAIMERS SHALL
#APPLY REGARDLESS OF ANY FAILURE OF ESSENTIAL PURPOSE OF ANY LIMITED REMEDY.  SOME
#JURISDICTIONS DO NOT ALLOW THE EXCLUSION OF CERTAIN WARRANTIES SO SOME OF THE ABOVE
#EXCLUSIONS MAY NOT APPLY. IN NO EVENT SHALL ENVERUS, INC. OR ANY OF ITS AFFILIATES
#BE LIABLE UNDER ANY LEGAL THEORY, WHETHER IN TORT (INCLUDING WITHOUT LIMITATION
#NEGLIGENCE), CONTRACT, STRICT LIABILITY, STATUTORY OR OTHERWISE, FOR ANY SPECIAL,
#INCIDENTAL, CONSEQUENTIAL, EXEMPLARY, PUNITIVE OR INDIRECT DAMAGE OF ANY KIND, INCLUDING
#WITHOUT LIMITATION LOSS OF REVENUE, PROFITS, GOODWILL, USE, AND/OR DATA OR THE COST OF
#PROCUREMENT OF SUBSTITUTE GOODS OR SERVICES, EVEN IF APPRISED OF THE POSSIBILITY OF SUCH
#DAMAGES IN ADVANCE.
#--------------------------------------------------#

~VERSION INFORMATION
VERS. 2.0 : CWLS LOG ASCII STANDARD - VERSION 2.0
WRAP.  NO : ONE LINE PER DEPTH STEP
~WELL INFORMATION
#MNEMONIC     .UNIT              VALUE :DESCRIPTION
STRT       .FT                429 :START DEPTH
STOP       .FT                6365 :STOP DEPTH
STEP       .FT                   0.500 :STEP
NULL       .                  -999.99 :NULL
UWI        .                42371100750000 :UNIQUE WELL ID
API        .                42371100750000 :API NUMBER
COMP       .         :COMPANY
WELL       .        :WELL
DATE       .                 :LOG DATE
FLD       .                 :FIELD NAME
LOC       .                  UNK :LOCATION
CNTY       .                 UNK :COUNTY
STAT       .                 UNK :STATE
CTRY       .                 UNK :COUNTY
SRVC       .                 UNK :SERVICE COMPANY
~CURVE INFORMATION
#MNEMONIC     .UNIT      API CODE :CURVE DESCRIPTION
DEPTH       .FT                      :MEASURED DEPTH
DT.MSEC/FT        UNKNOWN   :DT
GR.API        UNKNOWN   :GR
~A    DEPTH    DT    GR
# ...
 6298     57.96271   104.21416
 6298.5     58.74761   84.93946
 6299     58.93434   73.50568
 6299.5     56.80112   69.42471
 6300     54.78715   65.87136
 6300.5     53.73006   62.318
 6301     54.03354   58.76464
 6301.5     54.08943   55.21129
 6302     54.19755   46.53728
 6302.5     56.927   42.37569
 6303     59.47536   43.84412
 6303.5     61.74713   45.31255
 6304     63.565   53.26522
 6304.5     64.87037   60.60356
 6305     64.24914   66.53134
 6305.5     64.96429   70.42914
 6306     67.13454   67.96421
 6306.5     67.86009   65.49928
 6307     68.58563   64.97746
 6307.5     69.31117   64.48276
 6308     69.23917   65.75937
 6308.5     69.28488   67.62522
 6309     70.39089   68.10163
 6309.5     70.70864   65.15754
 6310     70.01733   62.21345
 6310.5     68.00198   59.26935
 6311     67.98451   60.67418
 6311.5     68.06132   63.76926
 6312     67.89777   67.87027
 6312.5     67.43301   71.97128
 6313     66.96825   76.07229
 6313.5     67.41925   74.38071
 6314     67.87424   70.91833
 6314.5     66.27692   69.27095
 6315     65.48241   68.48932
 6315.5     66.75881   68.49034
 6316     65.78505   68.49136
 6316.5     65.39979   65.99555
 6317     65.51145   64.78498
 6317.5     65.35252   64.95607
 6318     64.68279   67.81829
 6318.5     64.01306   71.43159
 6319     64.70975   68.65363
 6319.5     65.17294   65.87567
 6320     63.81789   63.09771
 6320.5     62.46284   60.31975
 6321     66.0345   61.40856
 6321.5     66.74508   68.20582
 6322     65.70187   82.38828
 6322.5     70.61492   157.28152
 6323     70.58679   176.05695
 6323.5     67.44108   174.10202
 6324     66.36084   143.75714
 6324.5     65.70507   118.42295
 6325     65.90394   106.29922
 6325.5     67.567   95.12724
 6326     69.35627   61.81287
 6326.5     69.88285   57.21456
 6327     70.7385   57.90668
 6327.5     76.86793   59.12278
 6328     78.40275   58.96064
 6328.5     79.25907   57.73776
 6329     79.19194   56.51487
 6329.5     74.93065   56.10646
 6330     71.377   58.90298
 6330.5     71.00971   61.69949
 6331     72.62677   63.10139
 6331.5     76.71349   60.50135
 6332     77.0878   57.90132
 6332.5     76.32329   55.30128
 6333     78.50472   52.70124
 6333.5     80.17546   50.1012
 6334     79.76271   47.50117
 6334.5     79.34996   47.19687
 6335     77.96801   47.66892
 6335.5     76.41877   49.02025
 6336     77.10284   51.7136
 6336.5     78.08984   54.40695
 6337     77.05234   55.75743
 6337.5     76.96851   56.11104
 6338     76.51624   56.46466
 6338.5     74.22582   56.81827
 6339     75.02613   59.11476
 6339.5     76.78018   61.44448
 6340     79.48597   63.7742
 6340.5     83.81131   64.24095
 6341     83.19015   64.20742
 6341.5     82.93007   64.17389
 6342     82.68308   64.14035
 6342.5     79.82242   63.68325
 6343     80.93685   61.54305
 6343.5     82.67569   59.40284
 6344     84.24861   57.26263
 6344.5     85.34974   55.12243
 6345     85.26582   52.98222
 6345.5     85.1819   50.84201
 6346     72.99684   49.3756
 6346.5     73.24948   49.30143
 6347     74.71572   50.002
 6347.5     78.5694   53.48053
 6348     82.69653   55.87934
 6348.5     79.79291   55.21572
 6349     70.1269   54.5521
 6349.5     72.76391   54.86616
 6350     76.64169   57.4159
 6350.5     80.65456   61.05775
 6351     82.61413   62.00205
 6351.5     78.78665   59.78786
 6352     78.3415   57.57368
 6352.5     78.67797   57.24897
 6353     77.77851   59.1451
 6353.5     77.59864   60.38732
 6354     77.41877   56.87376
 6354.5     69.53241   53.3602
 6355     63.77576   53.05255
 6355.5     63.37954   53.90745
 6356     64.14798   54.76234
 6356.5     59.84382   55.8161
 6357     57.62569   64.07797
 6357.5     57.83006   -999.99
 6358     58.66842   -999.99
 6358.5     59.52259   -999.99
 6359     59.64429   -999.99
 6359.5     59.46508   -999.99
 6360     59.93973   -999.99
 6360.5     61.21316   -999.99
 6361     64.20851   -999.99
 6361.5     66.40956   -999.99
 6362     67.52986   -999.99
 6362.5     68.52546   -999.99
 6363     72.20622   -999.99
 6363.5     76.46213   -999.99
 6364     75.43403   -999.99
 6364.5     69.57709   -999.99
 6365     73.2654   -999.99
