###############################################
##         ENVERUS                           ##
##         Petrophysical Curves              ##
##         PERMIAN / DELAWARE                ##
##         Jan 21 2022                       ##
##         42-389-10491-00-00                ##
###############################################
## Copyright 2017-2022  ENVERUS.  All Rights Reserved. 
## Confidential - Property of ENVERUS, use governed by terms and 
## conditions found within the existing Information Services Subscription Agreement 
## (as may be amended, the “ISSA”) between Customer and ENVERUS. 
## 
~VERSION INFORMATION
# MNEM.UNIT                               DATA : DESCRIPTION OF MNEMONIC
#-----.-----     ----------------------------- : -----------------------------
VERS.                                     2.00 : CWLS LOG ASCII STANDARD - VERSION 2.00
WRAP.                                       NO : MULTIPLE LINES PER DEPTH STEP
VEND.                                  ENVERUS : VENDOR
TYPE.                     PETROPHYSICAL CURVES : ENVERUS PETROPHYSICAL CURVES - ACCESSIBLE THROUGH ENVERUS CORE(TM)
#___________________________________________________________________________________________________ 
~WELL INFORMATION 
# uyaQ8P8kQDJ9DXFS5hR1PxmExEOYaAUkY5f3/tnOS+scoPAUWgXA1zCIHGRbWCuSuUcwDzaESCjqjWQ81XhadA== 
# MNEM.UNIT                                              DATA : DESCRIPTION OF MNEMONIC 
#-----.-----                    ----------------------------- : ----------------------------- 
CNTY.                                                  REEVES : COUNTY 
STATE.                                                  TEXAS : STATE 
CNTRY.                                                    USA : COUNTRY 
API.                                             42-389-10491 : API (10 Digit) 
API_14.                                    42-389-10491-00-00 : API (14 Digits) 
API_14_std.                                 42-389-10491-0000 : API (14 Digits Standard) 
UWI.                                           42389104910000 : UNIQUE WELL ID
STRT.FT                                                 102.0 : START DEPTH
STOP.FT                                                9071.0 : STOP DEPTH
STEP.FT                                                   0.5 : STEP BETWEEN DEPTHS
NULL.                                                 -999.25 : NULL VALUE
COMP.                                FLAT CREEK RESOURCES LLC : COMPANY 
WELL.                                         REEVES-AW-FEE 1 : WELL NAME 
FLD.                                                     TORO : FIELD NAME
#___________________________________________________________________________________________________ 
~CURVE INFORMATION 
#    Zone Description
#          1 = Upper Avalon
#          2 = Middle Avalon
#          3 = Lower Avalon
#          4 = 1st Bone Spring
#          5 = 2nd Bone Spring
#          6 = 2nd Bone Spring Sand
#          7 = 3rd Bone Spring
#          8 = 3rd Bone Spring Sand
#          9 = Wolfcamp XY
#          10 = Wolfcamp A Upper
#          11 = Wolfcamp A Lower
#          12 = Wolfcamp B Upper
#          13 = Wolfcamp B Lower
#          14 = Wolfcamp C
#          15 = Wolfcamp D
#          16 = Pennsylvanian Shale
#          17 = Lower Pennsylvanian Shale
#          18 = Barnett
#          19 = Barnett Lower
#          20 = Mississippian Lime
#          21 = Woodford
#          22 = Base Woodford 
# MNEM.UNIT           : CURVE DESCRIPTION 
#-----.-----          : ----------------------------- 
 DEPT.FT               : MEASURED DEPTH 
 TVD_I.FT              : ENVERUS TRUE VERTICAL DEPTH 
 ZONE_I.               : ENVERUS DEFINED ZONE CODE 
 GR_N_I.API            : ENVERUS NORMALIZED GAMMA RAY LEVERAGED IN GEOLOGICAL MODELLING 
 TEMP_I.DEGF           : ENVERUS INTERPRETED TEMPERATURE DERIVED FROM BOTTOM HOLE TEMPERATURES 
 #___________________________________________________________________________________________________ 
~A         DEPT          TVD_I         ZONE_I         GR_N_I         TEMP_I
# ...
         5455.0       5455.000        -999.25         72.031        120.775
         5455.5       5455.500        -999.25         74.972        120.781
         5456.0       5456.000        -999.25         79.980        120.786
         5456.5       5456.500        -999.25         84.987        120.791
         5457.0       5457.000        -999.25         89.993        120.797
         5457.5       5457.500        -999.25         90.774        120.802
         5458.0       5458.000        -999.25         89.270        120.807
         5458.5       5458.500        -999.25         83.830        120.812
         5459.0       5459.000        -999.25         78.388        120.818
         5459.5       5459.500        -999.25         72.948        120.823
         5460.0       5460.000        -999.25         75.156        120.828
         5460.5       5460.500        -999.25         77.589        120.834
         5461.0       5461.000        -999.25         77.063        120.839
         5461.5       5461.500        -999.25         71.671        120.844
         5462.0       5462.001        -999.25         65.234        120.850
         5462.5       5462.500        -999.25         64.603        120.855
         5463.0       5463.001        -999.25         65.985        120.860
         5463.5       5463.500        -999.25         70.064        120.865
         5464.0       5464.000        -999.25         74.143        120.871
         5464.5       5464.500        -999.25         78.222        120.876
         5465.0       5465.000        -999.25         82.301        120.881
         5465.5       5465.500        -999.25         86.378        120.887
         5466.0       5466.000        -999.25         82.891        120.892
         5466.5       5466.500        -999.25         76.195        120.897
         5467.0       5467.000        -999.25         69.500        120.902
         5467.5       5467.500        -999.25         62.806        120.908
         5468.0       5468.000        -999.25         58.087        120.913
         5468.5       5468.500        -999.25         54.224        120.918
         5469.0       5469.000        -999.25         50.359        120.924
         5469.5       5469.500        -999.25         47.847        120.929
         5470.0       5470.000        -999.25         46.397        120.934
         5470.5       5470.500        -999.25         44.948        120.940
         5471.0       5471.000        -999.25         43.498        120.945
         5471.5       5471.500        -999.25         42.204        120.950
         5472.0       5472.000        -999.25         44.105        120.955
         5472.5       5472.500        -999.25         46.005        120.961
         5473.0       5473.000        -999.25         47.904        120.966
         5473.5       5473.500        -999.25         49.805        120.971
         5474.0       5474.000        -999.25         51.016        120.977
         5474.5       5474.500        -999.25         51.521        120.982
         5475.0       5475.000        -999.25         52.407        120.987
         5475.5       5475.500        -999.25         53.754        120.992
         5476.0       5476.000        -999.25         55.100        120.998
         5476.5       5476.500        -999.25         56.447        121.003
         5477.0       5477.000        -999.25         57.793        121.008
         5477.5       5477.500        -999.25         58.735        121.014
         5478.0       5478.000        -999.25         59.636        121.019
         5478.5       5478.500        -999.25         60.767        121.024
         5479.0       5479.000        -999.25         62.030        121.030
         5479.5       5479.500        -999.25         63.292        121.035
         5480.0       5480.000        -999.25         64.553        121.040
         5480.5       5480.500        -999.25         64.935        121.045
         5481.0       5481.000        -999.25         64.526        121.051
         5481.5       5481.501        -999.25         63.672        121.056
         5482.0       5482.000        -999.25         62.821        121.061
         5482.5       5482.501        -999.25         62.625        121.067
         5483.0       5483.000        -999.25         62.706        121.072
         5483.5       5483.500        -999.25         62.786        121.077
         5484.0       5484.000        -999.25         62.867        121.083
         5484.5       5484.500        -999.25         62.949        121.088
         5485.0       5485.000        -999.25         63.029        121.093
         5485.5       5485.500        -999.25         63.110        121.098
         5486.0       5486.000        -999.25         66.151        121.104
         5486.5       5486.500        -999.25         68.808        121.109
         5487.0       5487.000        -999.25         70.918        121.114
         5487.5       5487.500        -999.25         73.027        121.120
         5488.0       5488.000        -999.25         75.136        121.125
         5488.5       5488.500        -999.25         75.994        121.130
         5489.0       5489.000        -999.25         76.226        121.135
         5489.5       5489.500        -999.25         77.553        121.141
         5490.0       5490.000        -999.25         80.757        121.146
         5490.5       5490.500        -999.25         91.228        121.151
         5491.0       5491.000        -999.25        101.699        121.157
         5491.5       5491.500        -999.25        114.955        121.162
         5492.0       5492.000        -999.25        129.355        121.167
         5492.5       5492.500        -999.25        143.757        121.173
         5493.0       5493.000        -999.25        156.964        121.178
         5493.5       5493.501        -999.25        165.115        121.183
         5494.0       5494.000        -999.25        173.266        121.188
         5494.5       5494.500        -999.25        181.419        121.194
         5495.0       5495.000        -999.25        181.762        121.199
         5495.5       5495.500        -999.25        179.428        121.204
         5496.0       5496.000        -999.25        163.579        121.210
         5496.5       5496.500        -999.25        147.408        121.215
         5497.0       5497.000        -999.25        131.175        121.220
         5497.5       5497.500        -999.25        114.942        121.225
         5498.0       5498.000        -999.25         98.708        121.231
         5498.5       5498.500        -999.25         82.475        121.236
         5499.0       5499.000        -999.25         79.572        121.241
         5499.5       5499.500        -999.25         72.142        121.247
         5500.0       5500.000        -999.25         66.625        121.252
         5500.5       5500.500        -999.25         65.773        121.257
         5501.0       5501.000        -999.25         64.922        121.263
         5501.5       5501.500        -999.25         62.918        121.268
         5502.0       5502.000        -999.25         58.561        121.273
         5502.5       5502.500        -999.25         52.392        121.278
         5503.0       5503.000        -999.25         46.224        121.284
         5503.5       5503.500        -999.25         44.762        121.289
         5504.0       5504.000        -999.25         44.212        121.294
         5504.5       5504.500        -999.25         43.661        121.300
         5505.0       5505.000        -999.25         43.959        121.305
         5505.5       5505.500        -999.25         47.294        121.310
         5506.0       5506.000        -999.25         50.628        121.316
         5506.5       5506.500        -999.25         53.964        121.321
         5507.0       5507.000        -999.25         57.300        121.326
         5507.5       5507.500        -999.25         60.636        121.331
