#--------------------------------------------------#
#-------------------ENVERUS, INC.------------------#
#------------------WWW.ENVERUS.COM-----------------#
#------------------COPYRIGHT 2020------------------#
#--------------------------------------------------#
#THIS FILE MAY BE USED ONLY IN ACCORDANCE WITH A CURRENT SUBSCRIPTION AGREEMENT BETWEEN
#THE USER AND ENVERUS, INC. NO PART OF THIS FILE MAY BE REPRODUCED, USED, COPIED,
#MODIFIED, PROPAGATED, OR DISTRIBUTED EXCEPT IN ACCORDANCE WITH THE SUBSCRIPTION
#AGREEMENT. UNAUTHORIZED USE OR DISTRIBUTION OF ALL OR ANY PART OF THIS FILE MAY VIOLATE
#COPYRIGHT, TRADEMARK, AND/OR OTHER LAWS AND IS SUBJECT TO CIVIL AS WELL AS CRIMINAL
#SANCTIONS.
#--------------------------------------------------#
#THIS FILE IS PROVIDED "AS-IS" AND ALL WARRANTIES ARE EXPRESSLY DISCLAIMED, WHETHER
#EXPRESS, ORAL, IMPLIED, STATUTORY OR OTHERWISE, INCLUDING ANY IMPLIED WARRANTY OF FITNESS
#FOR A PARTICULAR PURPOSE, MERCHANTABILITY, TITLE OR NON-INFRINGEMENT, AND ANY WARRANTIES
#ARISING BY VIRTUE OF CUSTOM OF TRADE OR COURSE OF DEALING.  FURTHER, ENVERUS, INC.
#AND ITS LICENSORS DO NOT REPRESENT OR WARRANT THAT THIS FILE WILL MEET USER'S
#REQUIREMENTS OR ARE SUITABLE FOR USER'S NEEDS OR THAT THE DATA OR RESULTS PROVIDED IN
#CONJUNCTION THEREWITH ARE CORRECT, ACCURATE, TIMELY OR RELIABLE. THESE DISCLAIMERS SHALL
#APPLY REGARDLESS OF ANY FAILURE OF ESSENTIAL PURPOSE OF ANY LIMITED REMEDY.  SOME
#JURISDICTIONS DO NOT ALLOW THE EXCLUSION OF CERTAIN WARRANTIES SO SOME OF THE ABOVE
#EXCLUSIONS MAY NOT APPLY. IN NO EVENT SHALL ENVERUS, INC. OR ANY OF ITS AFFILIATES
#BE LIABLE UNDER ANY LEGAL THEORY, WHETHER IN TORT (INCLUDING WITHOUT LIMITATION
#NEGLIGENCE), CONTRACT, STRICT LIABILITY, STATUTORY OR OTHERWISE, FOR ANY SPECIAL,
#INCIDENTAL, CONSEQUENTIAL, EXEMPLARY, PUNITIVE OR INDIRECT DAMAGE OF ANY KIND, INCLUDING
#WITHOUT LIMITATION LOSS OF REVENUE, PROFITS, GOODWILL, USE, AND/OR DATA OR THE COST OF
#PROCUREMENT OF SUBSTITUTE GOODS OR SERVICES, EVEN IF APPRISED OF THE POSSIBILITY OF SUCH
#DAMAGES IN ADVANCE.
#--------------------------------------------------#

~VERSION INFORMATION
VERS. 2.0 : CWLS LOG ASCII STANDARD - VERSION 2.0
WRAP.  NO : ONE LINE PER DEPTH STEP
~WELL INFORMATION
#MNEMONIC     .UNIT              VALUE :DESCRIPTION
STRT       .FT                -3 :START DEPTH
STOP       .FT                21524 :STOP DEPTH
STEP       .FT                   0.500 :STEP
NULL       .                  -999.99 :NULL
UWI        .                42389105080000 :UNIQUE WELL ID
API        .                42389105080000 :API NUMBER
COMP       .         :COMPANY
WELL       .        :WELL
DATE       .                 :LOG DATE
FLD       .                 :FIELD NAME
LOC       .                  UNK :LOCATION
CNTY       .                 UNK :COUNTY
STAT       .                 UNK :STATE
CTRY       .                 UNK :COUNTY
SRVC       .                 UNK :SERVICE COMPANY
~CURVE INFORMATION
#MNEMONIC     .UNIT      API CODE :CURVE DESCRIPTION
DEPTH       .FT                      :MEASURED DEPTH
CAL.IN        UNKNOWN   :CAL
DT.MSEC/FT        UNKNOWN   :DT
GR.API        UNKNOWN   :GR
~A    DEPTH    CAL    DT    GR
# ...
 11739     -999.99   -999.99   38.55765
 11739.5     -999.99   -999.99   38.16572
 11740     -999.99   -999.99   37.77378
 11740.5     -999.99   -999.99   37.60212
 11741     -999.99   -999.99   37.7751
 11741.5     -999.99   -999.99   37.94807
 11742     -999.99   -999.99   37.85113
 11742.5     -999.99   -999.99   37.15571
 11743     -999.99   -999.99   37.97237
 11743.5     -999.99   -999.99   39.09522
 11744     -999.99   -999.99   37.64342
 11744.5     -999.99   -999.99   36.19163
 11745     -999.99   -999.99   34.73984
 11745.5     -999.99   -999.99   34.69761
 11746     -999.99   -999.99   36.12158
 11746.5     -999.99   -999.99   37.29594
 11747     -999.99   -999.99   37.2979
 11747.5     -999.99   -999.99   37.29985
 11748     -999.99   -999.99   37.44384
 11748.5     -999.99   -999.99   38.62998
 11749     -999.99   -999.99   39.81612
 11749.5     -999.99   -999.99   41.00226
 11750     -999.99   -999.99   40.96269
 11750.5     -999.99   -999.99   39.43546
 11751     -999.99   -999.99   37.90823
 11751.5     -999.99   -999.99   36.381
 11752     -999.99   -999.99   33.85523
 11752.5     -999.99   -999.99   33.64758
 11753     -999.99   -999.99   33.52818
 11753.5     -999.99   -999.99   31.81625
 11754     -999.99   -999.99   29.69327
 11754.5     -999.99   -999.99   28.3522
 11755     -999.99   -999.99   28.2939
 11755.5     -999.99   -999.99   28.68789
 11756     -999.99   -999.99   30.85411
 11756.5     -999.99   -999.99   33.02032
 11757     -999.99   -999.99   35.18653
 11757.5     -999.99   -999.99   36.89932
 11758     -999.99   -999.99   36.07697
 11758.5     -999.99   -999.99   35.14013
 11759     -999.99   -999.99   34.20329
 11759.5     -999.99   -999.99   33.5943
 11760     -999.99   -999.99   35.01828
 11760.5     -999.99   -999.99   34.24491
 11761     -999.99   -999.99   32.73817
 11761.5     -999.99   -999.99   31.23144
 11762     -999.99   -999.99   32.30237
 11762.5     -999.99   -999.99   33.7584
 11763     -999.99   -999.99   35.21443
 11763.5     -999.99   -999.99   36.16766
 11764     -999.99   -999.99   34.44828
 11764.5     -999.99   -999.99   34.1486
 11765     -999.99   -999.99   34.65446
 11765.5     -999.99   -999.99   35.56372
 11766     -999.99   -999.99   36.47299
 11766.5     -999.99   -999.99   37.37678
 11767     -999.99   -999.99   37.67654
 11767.5     -999.99   -999.99   37.90461
 11768     -999.99   -999.99   37.90657
 11768.5     -999.99   -999.99   37.90853
 11769     -999.99   -999.99   37.91048
 11769.5     -999.99   -999.99   34.86541
 11770     -999.99   -999.99   35.12302
 11770.5     -999.99   -999.99   35.38064
 11771     -999.99   -999.99   34.70926
 11771.5     -999.99   -999.99   32.32951
 11772     -999.99   -999.99   31.45529
 11772.5     -999.99   -999.99   33.22699
 11773     -999.99   -999.99   34.99868
 11773.5     -999.99   -999.99   36.77038
 11774     -999.99   -999.99   38.54208
 11774.5     -999.99   -999.99   40.31378
 11775     -999.99   -999.99   37.73405
 11775.5     -999.99   -999.99   34.08788
 11776     -999.99   64.47433   32.81998
 11776.5     -999.99   71.09075   32.80565
 11777     -999.99   69.95919   32.80761
 11777.5     -999.99   68.19724   32.80956
 11778     -999.99   63.0051   35.13439
 11778.5     -999.99   63.03252   36.28478
 11779     -999.99   63.05993   35.4831
 11779.5     -999.99   63.08734   34.21554
 11780     -999.99   63.11475   34.43106
 11780.5     -999.99   63.23474   34.64658
 11781     -999.99   63.55422   34.76739
 11781.5     -999.99   63.59608   34.66822
 11782     -999.99   63.3004   34.56905
 11782.5     -999.99   63.00472   33.18598
 11783     -999.99   62.78605   33.48241
 11783.5     -999.99   62.66043   34.07264
 11784     -999.99   61.76004   34.08555
 11784.5     -999.99   60.44724   33.7818
 11785     -999.99   59.13444   33.86099
 11785.5     -999.99   57.82164   34.33569
 11786     -999.99   56.50884   34.70826
 11786.5     -999.99   55.97308   34.7962
 11787     -999.99   55.79008   34.88413
 11787.5     -999.99   55.60708   35.14049
 11788     -999.99   55.63781   36.08321
 11788.5     -999.99   55.87954   36.81942
 11789     -999.99   56.12127   37.21644
 11789.5     -999.99   56.363   37.61346
 11790     -999.99   56.60473   37.94133
 11790.5     -999.99   56.84646   38.24131
 11791     -999.99   56.73167   38.51623
 11791.5     -999.99   56.60225   38.7664
 11792     -999.99   56.47284   39.01658
 11792.5     -999.99   56.34342   37.77783
 11793     -999.99   56.3267   36.28333
 11793.5     -999.99   56.62615   35.69532
 11794     -999.99   56.92559   36.52141
 11794.5     -999.99   57.22504   37.3475
 11795     -999.99   57.52449   38.17358
 11795.5     -999.99   58.78958   38.99967
 11796     -999.99   59.11833   39.82576
 11796.5     -999.99   59.01614   38.87978
 11797     -999.99   58.91396   37.85944
 11797.5     -999.99   58.81177   36.83911
 11798     -999.99   58.86216   35.81877
 11798.5     -999.99   59.51319   34.79843
 11799     -999.99   60.16421   36.50322
 11799.5     -999.99   60.81524   38.38972
 11800     -999.99   61.46627   38.51825
 11800.5     -999.99   60.92992   37.27946
 11801     -999.99   59.99901   36.04066
 11801.5     -999.99   59.76142   34.80187
 11802     -999.99   60.39309   33.56337
 11802.5     -999.99   61.02477   36.04695
 11803     -999.99   61.36894   38.53052
 11803.5     -999.99   60.9227   39.04729
 11804     -999.99   60.47647   38.01807
 11804.5     -999.99   60.03023   36.98884
 11805     -999.99   59.58399   35.95962
 11805.5     -999.99   59.35108   34.9304
 11806     -999.99   59.13944   33.90118
 11806.5     -999.99   58.92781   32.87196
 11807     -999.99   58.71617   31.91112
 11807.5     -999.99   58.50453   33.30009
 11808     -999.99   58.24976   34.68907
 11808.5     -999.99   57.59708   36.07805
 11809     -999.99   56.9444   37.46702
 11809.5     -999.99   56.29171   36.4467
 11810     -999.99   57.04135   35.00948
 11810.5     -999.99   58.7887   33.57226
 11811     -999.99   60.53605   32.13505
 11811.5     -999.99   62.2834   32.81637
 11812     -999.99   60.61366   34.25592
 11812.5     -999.99   58.29513   35.69548
 11813     -999.99   55.9766   37.13503
 11813.5     -999.99   59.75784   38.57458
 11814     -999.99   64.25293   39.9565
 11814.5     -999.99   59.53678   41.01326
 11815     -999.99   58.79042   41.38928
 11815.5     -999.99   60.26769   41.57088
 11816     -999.99   61.74497   40.51879
 11816.5     -999.99   59.33786   38.55789
 11817     -999.99   55.67356   36.59699
 11817.5     -999.99   56.37174   34.63609
 11818     -999.99   57.06991   35.01705
 11818.5     -999.99   59.8828   36.55308
 11819     -999.99   60.56336   38.7385
 11819.5     -999.99   56.88144   40.83546
 11820     -999.99   55.65988   41.53111
 11820.5     -999.99   55.74023   41.71234
 11821     -999.99   55.82057   40.38946
 11821.5     -999.99   55.90091   37.69803
 11822     -999.99   55.98125   37.51877
 11822.5     -999.99   56.06159   37.74845
 11823     -999.99   56.14194   39.04931
 11823.5     -999.99   56.22228   40.35017
 11824     -999.99   56.30262   41.65102
 11824.5     -999.99   57.41043   41.87683
 11825     -999.99   61.02826   41.02954
 11825.5     -999.99   64.64609   39.63254
 11826     -999.99   68.26392   38.23553
 11826.5     -999.99   70.72446   37.09225
 11827     -999.99   70.87169   36.39542
 11827.5     -999.99   71.01892   36.6642
 11828     -999.99   71.16615   37.41616
 11828.5     -999.99   71.31338   38.16812
 11829     -999.99   71.46061   38.61615
 11829.5     -999.99   71.51924   38.76781
 11830     -999.99   71.44429   38.91948
 11830.5     -999.99   71.36934   39.07114
 11831     -999.99   71.29439   37.41283
 11831.5     -999.99   70.99292   35.73362
 11832     9.71788   69.08804   36.55226
 11832.5     9.71828   67.18316   37.56685
 11833     9.71868   63.92118   39.04878
 11833.5     9.71908   63.6255   39.76028
 11834     9.71949   63.32981   38.33995
 11834.5     9.71989   62.18292   36.91963
 11835     9.72029   59.36649   35.4993
 11835.5     9.72069   56.55005   34.87958
