#--------------------------------------------------#
#-------------------ENVERUS, INC.------------------#
#------------------WWW.ENVERUS.COM-----------------#
#------------------COPYRIGHT 2020------------------#
#--------------------------------------------------#
#THIS FILE MAY BE USED ONLY IN ACCORDANCE WITH A CURRENT SUBSCRIPTION AGREEMENT BETWEEN
#THE USER AND ENVERUS, INC. NO PART OF THIS FILE MAY BE REPRODUCED, USED, COPIED,
#MODIFIED, PROPAGATED, OR DISTRIBUTED EXCEPT IN ACCORDANCE WITH THE SUBSCRIPTION
#AGREEMENT. UNAUTHORIZED USE OR DISTRIBUTION OF ALL OR ANY PART OF THIS FILE MAY VIOLATE
#COPYRIGHT, TRADEMARK, AND/OR OTHER LAWS AND IS SUBJECT TO CIVIL AS WELL AS CRIMINAL
#SANCTIONS.
#--------------------------------------------------#
#THIS FILE IS PROVIDED "AS-IS" AND ALL WARRANTIES ARE EXPRESSLY DISCLAIMED, WHETHER
#EXPRESS, ORAL, IMPLIED, STATUTORY OR OTHERWISE, INCLUDING ANY IMPLIED WARRANTY OF FITNESS
#FOR A PARTICULAR PURPOSE, MERCHANTABILITY, TITLE OR NON-INFRINGEMENT, AND ANY WARRANTIES
#ARISING BY VIRTUE OF CUSTOM OF TRADE OR COURSE OF DEALING.  FURTHER, ENVERUS, INC.
#AND ITS LICENSORS DO NOT REPRESENT OR WARRANT THAT THIS FILE WILL MEET USER'S
#REQUIREMENTS OR ARE SUITABLE FOR USER'S NEEDS OR THAT THE DATA OR RESULTS PROVIDED IN
#CONJUNCTION THEREWITH ARE CORRECT, ACCURATE, TIMELY OR RELIABLE. THESE DISCLAIMERS SHALL
#APPLY REGARDLESS OF ANY FAILURE OF ESSENTIAL PURPOSE OF ANY LIMITED REMEDY.  SOME
#JURISDICTIONS DO NOT ALLOW THE EXCLUSION OF CERTAIN WARRANTIES SO SOME OF THE ABOVE
#EXCLUSIONS MAY NOT APPLY. IN NO EVENT SHALL ENVERUS, INC. OR ANY OF ITS AFFILIATES
#BE LIABLE UNDER ANY LEGAL THEORY, WHETHER IN TORT (INCLUDING WITHOUT LIMITATION
#NEGLIGENCE), CONTRACT, STRICT LIABILITY, STATUTORY OR OTHERWISE, FOR ANY SPECIAL,
#INCIDENTAL, CONSEQUENTIAL, EXEMPLARY, PUNITIVE OR INDIRECT DAMAGE OF ANY KIND, INCLUDING
#WITHOUT LIMITATION LOSS OF REVENUE, PROFITS, GOODWILL, USE, AND/OR DATA OR THE COST OF
#PROCUREMENT OF SUBSTITUTE GOODS OR SERVICES, EVEN IF APPRISED OF THE POSSIBILITY OF SUCH
#DAMAGES IN ADVANCE.
#--------------------------------------------------#

~VERSION INFORMATION
VERS. 2.0 : CWLS LOG ASCII STANDARD - VERSION 2.0
WRAP.  NO : ONE LINE PER DEPTH STEP
~WELL INFORMATION
#MNEMONIC     .UNIT              VALUE :DESCRIPTION
STRT       .FT                101 :START DEPTH
STOP       .FT                5382 :STOP DEPTH
STEP       .FT                   0.500 :STEP
NULL       .                  -999.990 :NULL
UWI        .              42389007790000 :UNIQUE WELL ID
API        .              42389007790000 :API NUMBER
COMP       .         :COMPANY
WELL       .         1, :WELL
DATE       .                            :LOG DATE
~CURVE INFORMATION
#MNEMONIC     .UNIT      API CODE :CURVE DESCRIPTION
DEPTH       .FT                      :MEASURED DEPTH
DT.US/FT        UNKNOWN   :DT
GR.API        UNKNOWN   :GR
~A    DEPTH    DT    GR
# ...
 4941.5     51.353   18.782
 4942     52.338   18.271
 4942.5     54.912   13.812
 4943     57.96   13.965
 4943.5     61.008   14.117
 4944     62.983   14.27
 4944.5     64.868   14.244
 4945     66.753   12.861
 4945.5     68.638   11.478
 4946     70.4   10.094
 4946.5     68.099   8.711
 4947     65.799   7.328
 4947.5     63.498   5.945
 4948     61.499   6.194
 4948.5     62.412   6.527
 4949     63.325   6.86
 4949.5     64.238   7.194
 4950     65.151   7.527
 4950.5     66.064   7.86
 4951     66.977   8.193
 4951.5     67.37   8.526
 4952     67.157   8.859
 4952.5     66.945   9.192
 4953     66.732   8.982
 4953.5     67.183   8.634
 4954     68.525   8.286
 4954.5     69.867   7.937
 4955     71.209   7.589
 4955.5     71.128   7.241
 4956     70.421   6.893
 4956.5     69.714   6.515
 4957     69.007   6.239
 4957.5     68.3   5.964
 4958     67.594   5.689
 4958.5     66.887   5.413
 4959     66.612   5.138
 4959.5     67.598   4.863
 4960     68.585   4.588
 4960.5     69.571   4.312
 4961     70.48   4.037
 4961.5     69.757   3.762
 4962     69.035   3.486
 4962.5     68.312   3.211
 4963     68.983   2.936
 4963.5     70.68   3.351
 4964     69.729   3.855
 4964.5     68.656   4.36
 4965     68.554   4.864
 4965.5     69.399   5.368
 4966     70.245   5.872
 4966.5     71.091   5.703
 4967     69.996   5.368
 4967.5     69.569   5.032
 4968     69.752   4.697
 4968.5     69.936   4.361
 4969     70.119   4.026
 4969.5     70.302   3.69
 4970     70.485   3.355
 4970.5     69.911   3.019
 4971     66.922   2.684
 4971.5     63.934   2.348
 4972     60.946   2.238
 4972.5     57.957   5.411
 4973     54.969   8.583
 4973.5     52.073   11.611
 4974     53.002   12.975
 4974.5     53.932   14.34
 4975     54.752   15.705
 4975.5     54.896   16.914
 4976     55.039   14.974
 4976.5     54.843   13.034
 4977     54.406   11.095
 4977.5     53.969   10.206
 4978     53.533   10.69
 4978.5     53.096   11.174
 4979     52.659   11.657
 4979.5     52.222   12.141
 4980     51.791   12.625
 4980.5     51.363   13.109
 4981     50.935   13.593
 4981.5     50.507   14.076
 4982     50.326   14.56
 4982.5     50.325   15.495
 4983     50.325   17.543
 4983.5     50.324   19.591
 4984     50.324   21.638
 4984.5     50.323   23.686
 4985     50.451   25.734
 4985.5     50.718   24.29
 4986     50.986   21.791
 4986.5     51.253   19.291
 4987     51.52   16.792
 4987.5     51.788   15.921
 4988     52.055   16.044
 4988.5     52.323   16.166
 4989     52.488   16.289
 4989.5     52.376   16.412
 4990     52.263   15.913
 4990.5     52.15   14.875
 4991     52.038   13.836
 4991.5     51.925   12.798
 4992     51.812   12.553
 4992.5     51.724   13.36
 4993     51.74   14.166
 4993.5     51.757   14.973
 4994     51.774   15.779
 4994.5     51.79   14.929
 4995     51.807   13.842
 4995.5     51.823   12.755
 4996     51.84   13.172
 4996.5     51.857   13.978
 4997     51.873   14.785
 4997.5     51.89   15.592
 4998     51.907   15.865
 4998.5     51.923   14.444
 4999     51.94   13.024
 4999.5     51.957   13.356
 5000     51.825   14.568
 5000.5     51.685   15.78
 5001     51.545   16.625
 5001.5     51.405   15.088
 5002     51.265   13.551
 5002.5     51.125   12.014
 5003     50.985   10.477
 5003.5     50.845   8.94
 5004     50.705   10.697
 5004.5     50.565   12.522
 5005     50.425   14.347
 5005.5     50.285   14.703
 5006     50.145   15.006
 5006.5     50.261   15.309
 5007     50.44   14.246
 5007.5     50.618   13.061
 5008     50.797   11.876
 5008.5     50.976   10.691
 5009     51.154   9.506
 5009.5     51.117   8.641
 5010     50.972   8.672
 5010.5     50.826   8.703
 5011     50.681   8.734
 5011.5     50.535   8.765
 5012     50.599   8.796
 5012.5     50.798   8.827
 5013     50.996   8.858
 5013.5     50.909   8.889
 5014     50.578   8.92
 5014.5     50.247   8.952
 5015     49.927   9.793
 5015.5     50.024   11.25
 5016     50.12   12.596
 5016.5     50.217   11.841
 5017     50.313   11.085
 5017.5     50.41   10.33
 5018     50.506   9.574
 5018.5     50.603   8.818
 5019     50.699   8.987
 5019.5     50.796   10.472
 5020     50.892   11.957
 5020.5     51.135   13.441
 5021     51.694   14.926
 5021.5     52.068   13.478
 5022     51.863   11.636
 5022.5     51.659   9.794
 5023     51.454   7.952
 5023.5     51.25   7.866
 5024     51.045   8.384
 5024.5     50.841   8.902
 5025     50.636   9.255
 5025.5     50.431   8.916
 5026     50.227   8.577
 5026.5     50.353   8.239
 5027     50.65   7.9
 5027.5     50.647   7.561
 5028     50.449   7.222
 5028.5     50.251   6.921
 5029     50.053   7.557
 5029.5     49.855   8.194
 5030     49.656   8.831
 5030.5     49.458   9.468
 5031     49.26   10.104
 5031.5     49.062   10.741
 5032     48.875   11.378
 5032.5     49.199   12.014
 5033     49.523   12.651
 5033.5     49.848   13.631
 5034     50.172   15.107
 5034.5     50.496   16.583
 5035     50.82   18.058
 5035.5     51.144   16.378
 5036     51.297   14.294
 5036.5     51.065   12.21
 5037     50.833   10.127
 5037.5     50.601   8.043
 5038     50.369   6.318
 5038.5     50.137   6.235
 5039     50.31   6.151
 5039.5     50.607   6.068
 5040     50.904   7.378
 5040.5     50.877   9.578
 5041     50.702   11.502
 5041.5     50.527   11.163
 5042     50.351   10.824
 5042.5     50.214   10.485
 5043     50.305   10.906
 5043.5     50.396   11.997
 5044     50.488   13.089
 5044.5     50.579   14.18
 5045     50.67   15.271
 5045.5     50.762   15.957
 5046     50.853   16.21
 5046.5     50.944   16.462
 5047     51.035   16.715
 5047.5     51.127   16.968
 5048     51.218   17.221
 5048.5     51.309   16.62
 5049     51.401   14.636
 5049.5     51.492   12.652
 5050     51.583   10.668
 5050.5     51.406   10.302
 5051     51.181   15.31
 5051.5     50.955   20.318
 5052     50.729   25.326
 5052.5     50.503   28.01
 5053     50.278   25.912
 5053.5     50.052   23.814
 5054     50.109   21.716
 5054.5     50.24   19.618
 5055     50.371   17.52
 5055.5     50.502   15.422
 5056     50.633   13.467
 5056.5     50.598   13.83
 5057     50.488   14.194
 5057.5     50.378   14.557
 5058     50.268   14.92
 5058.5     50.157   15.283
 5059     50.087   15.647
 5059.5     50.303   16.01
 5060     50.519   15.697
 5060.5     50.735   14.514
 5061     50.952   13.331
 5061.5     51.168   12.148
 5062     51.226   10.966
 5062.5     51.118   9.783
 5063     51.011   10.078
 5063.5     50.903   10.818
 5064     50.795   11.558
 5064.5     50.985   12.298
 5065     51.196   13.038
 5065.5     51.408   13.778
 5066     51.619   14.519
 5066.5     51.626   15.259
 5067     51.203   15.999
 5067.5     50.781   15.3
 5068     50.358   13.852
 5068.5     49.935   12.405
 5069     49.513   10.957
 5069.5     49.614   9.509
 5070     49.828   8.061
 5070.5     50.042   9.165
 5071     50.256   10.344
 5071.5     50.47   11.523
 5072     50.685   12.701
 5072.5     50.899   13.88
 5073     51.045   15.059
 5073.5     50.771   16.238
 5074     50.497   17.417
 5074.5     50.223   17.62
 5075     49.949   16.372
 5075.5     49.675   15.125
 5076     49.401   13.877
 5076.5     49.127   12.63
 5077     48.908   12.747
 5077.5     49.209   13.297
 5078     49.51   13.848
 5078.5     49.811   14.398
 5079     50.112   14.948
 5079.5     50.413   15.097
 5080     50.714   13.429
 5080.5     50.805   11.762
 5081     50.595   10.267
 5081.5     50.385   11.015
 5082     50.175   11.763
 5082.5     49.965   12.512
 5083     49.755   13.26
 5083.5     49.91   14.008
 5084     50.12   14.757
 5084.5     50.33   15.505
 5085     50.539   16.253
 5085.5     50.749   15.87
 5086     50.959   14.203
 5086.5     51.169   12.536
 5087     51.379   11.775
 5087.5     51.511   12.641
 5088     51.239   13.507
 5088.5     50.968   14.374
 5089     50.696   12.926
 5089.5     50.425   11.635
 5090     50.153   12.241
 5090.5     49.882   12.846
 5091     49.865   13.452
 5091.5     50.001   14.058
 5092     50.137   14.663
 5092.5     50.273   15.269
