###############################################
##         ENVERUS                           ##
##         ESS - Open Hole                   ##
##         PERMIAN / DELAWARE                ##
##         Nov 04 2023  V4.0                 ##
##         42-389-10116-00-00                ##
###############################################
## Copyright 2017-2023  ENVERUS.  All Rights Reserved. 
## Confidential - Property of ENVERUS, use governed by terms and 
## conditions found within the existing Information Services Subscription Agreement 
## (as may be amended, the “ISSA”) between Customer and ENVERUS. 
## 
~VERSION INFORMATION
# MNEM.UNIT                               DATA : DESCRIPTION OF MNEMONIC
#-----.-----     ----------------------------- : -----------------------------
VERS.                                     2.00 : CWLS LOG ASCII STANDARD - VERSION 2.00
WRAP.                                       NO : MULTIPLE LINES PER DEPTH STEP
VEND.                                  ENVERUS : VENDOR
TYPE.                          ESS - OPEN HOLE : ENVERUS ESSENTIAL CURVES – ACCESSIBLE THROUGH ENVERUS PRISM(TM)
DOC.                                  31818149 : ENVERUS HEADER RAW DOCUMENT ID
#___________________________________________________________________________________________________ 
~WELL INFORMATION 
# kxSJJvG4Ro99GqojvmaAoFb8nmZsGWyMBdB6Op61yYkHZj6VRdx+Ef4kBXz5Syac/VH6awax3Ll89xsC2rvs8g== 
# MNEM.UNIT                                              DATA : DESCRIPTION OF MNEMONIC 
#-----.-----                    ----------------------------- : ----------------------------- 
CNTY.                                                  REEVES : COUNTY 
STATE.                                                  TEXAS : STATE 
CNTRY.                                                    USA : COUNTRY 
API.                                             42-389-10116 : API (10 Digit) 
API_14.                                    42-389-10116-00-00 : API (14 Digits) 
API_14_std.                                 42-389-10116-0000 : API (14 Digits Standard) 
UWI.                                           42389101160000 : UNIQUE WELL ID 
WELL.                                            WOODS -A-  1 : WELL NAME
STRT.FT                                                 107.0 : START DEPTH
STOP.FT                                                5258.0 : STOP DEPTH
STEP.FT                                                   0.5 : STEP BETWEEN DEPTHS
NULL.                                                 -999.25 : NULL VALUE
COMP.                              PHILLIPS PETROLEUM COMPANY : COMPANY
#___________________________________________________________________________________________________ 
~CURVE INFORMATION 
# MNEM.UNIT           : CURVE DESCRIPTION 
#-----.-----          : ----------------------------- 
 DEPT.FT               : MEASURED DEPTH 
 GR.API                : GAMMA RAY (GR) 
 DT.US/FT              : SONIC DELTA TRANSIT TIME (DT) 
 #___________________________________________________________________________________________________ 
~A         DEPT             GR             DT
# ...
         3152.0          8.802         68.103
         3152.5          8.780         68.134
         3153.0          8.758         67.704
         3153.5          8.736         67.273
         3154.0          8.714         66.842
         3154.5          8.692         66.583
         3155.0          8.670         67.012
         3155.5          8.648         67.442
         3156.0          9.015         67.871
         3156.5          9.701         68.300
         3157.0         10.387         68.537
         3157.5         11.195         68.340
         3158.0         11.813         68.143
         3158.5         11.866         67.947
         3159.0         11.919         67.951
         3159.5         11.971         68.222
         3160.0         12.024         68.494
         3160.5         11.826         68.765
         3161.0         11.126         69.037
         3161.5         10.425         69.225
         3162.0          9.725         68.167
         3162.5          9.024         67.854
         3163.0          8.324         67.988
         3163.5          8.003         68.123
         3164.0          8.106         68.257
         3164.5          8.208         67.456
         3165.0          8.311         66.307
         3165.5          8.414         65.890
         3166.0          8.262         66.916
         3166.5          7.948         67.942
         3167.0          7.634         68.968
         3167.5          7.320         69.994
         3168.0          7.006         68.325
         3168.5          6.793         67.480
         3169.0          6.880         67.872
         3169.5          6.966         68.265
         3170.0          7.052         68.614
         3170.5          7.138         68.251
         3171.0          7.224         67.887
         3171.5          7.299         67.644
         3172.0          7.360         68.062
         3172.5          7.420         68.479
         3173.0          7.481         68.897
         3173.5          7.541         69.315
         3174.0          7.602         69.347
         3174.5          7.662         68.309
         3175.0          7.723         67.778
         3175.5          7.783         68.196
         3176.0          7.844         68.348
         3176.5          7.904         68.088
         3177.0          7.965         67.829
         3177.5          8.025         67.571
         3178.0          7.480         68.255
         3178.5          6.766         68.938
         3179.0          6.052         69.622
         3179.5          5.338         70.166
         3180.0          5.024         68.967
         3180.5          5.348         67.769
         3181.0          5.673         67.926
         3181.5          5.997         68.710
         3182.0          6.321         68.114
         3182.5          6.645         66.685
         3183.0          6.970         66.382
         3183.5          6.998         66.080
         3184.0          6.823         65.777
         3184.5          6.648         66.331
         3185.0          6.473         66.976
         3185.5          6.298         67.622
         3186.0          6.123         67.852
         3186.5          5.948         67.610
         3187.0          6.008         67.368
         3187.5          6.136         67.126
         3188.0          6.264         67.363
         3188.5          6.392         67.928
         3189.0          6.520         67.810
         3189.5          6.648         67.294
         3190.0          6.792         66.779
         3190.5          6.938         66.263
         3191.0          7.083         68.250
         3191.5          7.229         67.792
         3192.0          7.374         67.334
         3192.5          7.520         66.876
         3193.0          7.666         66.418
         3193.5          7.811         66.617
         3194.0          7.957         66.884
         3194.5          8.102         67.150
         3195.0          7.680         67.416
         3195.5          7.063         67.683
         3196.0          6.445         67.949
         3196.5          5.827         67.894
         3197.0          6.072         67.592
         3197.5          6.484         67.289
         3198.0          6.896         66.986
         3198.5          7.308         66.683
         3199.0          7.720         66.381
         3199.5          7.739         66.891
         3200.0          7.369         67.663
         3200.5          6.999         67.403
         3201.0          6.628         66.869
         3201.5          6.258         66.666
         3202.0          5.888         67.007
         3202.5          6.056         67.348
         3203.0          6.509         67.689
         3203.5          6.962         67.321
         3204.0          7.416         66.923
         3204.5          7.869         66.525
         3205.0          7.923         66.700
         3205.5          7.880         67.295
         3206.0          7.838         66.871
         3206.5          7.796         66.435
         3207.0          7.754         68.830
         3207.5          7.711         65.977
         3208.0          7.669         65.222
         3208.5          7.627         65.881
         3209.0          7.584         66.541
         3209.5          7.542         67.200
         3210.0          7.500         67.859
         3210.5          7.458         68.180
         3211.0          7.415         67.922
         3211.5          7.373         67.664
         3212.0          7.331         67.405
         3212.5          7.288         67.147
         3213.0          7.205         66.889
         3213.5          7.109         66.630
         3214.0          7.012         68.245
         3214.5          6.915         67.995
         3215.0          6.819         67.744
         3215.5          7.328         67.493
         3216.0          7.915         67.242
         3216.5          8.502         66.991
         3217.0          9.089         66.741
         3217.5          9.676         67.429
         3218.0         10.095         67.944
         3218.5          8.372         67.474
         3219.0          6.834         67.004
         3219.5          6.858         66.534
         3220.0          6.882         66.568
         3220.5          6.905         67.234
         3221.0          6.929         67.899
         3221.5          6.953         67.462
         3222.0          6.977         67.011
         3222.5          7.001         66.561
         3223.0          7.024         66.873
         3223.5          7.048         67.674
         3224.0          7.072         67.461
         3224.5          7.096         66.682
         3225.0          7.260         66.281
         3225.5          7.607         67.082
         3226.0          7.954         67.611
         3226.5          8.301         67.413
         3227.0          8.648         67.215
         3227.5          8.994         67.017
         3228.0          9.341         66.819
         3228.5          9.688         66.620
         3229.0         10.949         67.842
         3229.5         12.654         67.454
         3230.0         14.360         67.067
         3230.5         16.065         66.679
         3231.0         16.111         66.291
         3231.5         15.808         66.578
         3232.0         15.504         67.311
         3232.5         15.201         68.043
         3233.0         14.898         68.098
         3233.5         14.595         67.796
         3234.0         16.245         67.493
         3234.5         19.917         67.190
         3235.0         23.590         66.887
         3235.5         27.262         66.584
         3236.0         30.934         66.281
         3236.5         32.810         68.001
         3237.0         29.810         67.529
         3237.5         26.809         67.057
         3238.0         23.809         66.586
         3238.5         22.510         66.144
