#--------------------------------------------------#
#-------------------ENVERUS, INC.------------------#
#------------------WWW.ENVERUS.COM-----------------#
#------------------COPYRIGHT 2020------------------#
#--------------------------------------------------#
#THIS FILE MAY BE USED ONLY IN ACCORDANCE WITH A CURRENT SUBSCRIPTION AGREEMENT BETWEEN
#THE USER AND ENVERUS, INC. NO PART OF THIS FILE MAY BE REPRODUCED, USED, COPIED,
#MODIFIED, PROPAGATED, OR DISTRIBUTED EXCEPT IN ACCORDANCE WITH THE SUBSCRIPTION
#AGREEMENT. UNAUTHORIZED USE OR DISTRIBUTION OF ALL OR ANY PART OF THIS FILE MAY VIOLATE
#COPYRIGHT, TRADEMARK, AND/OR OTHER LAWS AND IS SUBJECT TO CIVIL AS WELL AS CRIMINAL
#SANCTIONS.
#--------------------------------------------------#
#THIS FILE IS PROVIDED "AS-IS" AND ALL WARRANTIES ARE EXPRESSLY DISCLAIMED, WHETHER
#EXPRESS, ORAL, IMPLIED, STATUTORY OR OTHERWISE, INCLUDING ANY IMPLIED WARRANTY OF FITNESS
#FOR A PARTICULAR PURPOSE, MERCHANTABILITY, TITLE OR NON-INFRINGEMENT, AND ANY WARRANTIES
#ARISING BY VIRTUE OF CUSTOM OF TRADE OR COURSE OF DEALING.  FURTHER, ENVERUS, INC.
#AND ITS LICENSORS DO NOT REPRESENT OR WARRANT THAT THIS FILE WILL MEET USER'S
#REQUIREMENTS OR ARE SUITABLE FOR USER'S NEEDS OR THAT THE DATA OR RESULTS PROVIDED IN
#CONJUNCTION THEREWITH ARE CORRECT, ACCURATE, TIMELY OR RELIABLE. THESE DISCLAIMERS SHALL
#APPLY REGARDLESS OF ANY FAILURE OF ESSENTIAL PURPOSE OF ANY LIMITED REMEDY.  SOME
#JURISDICTIONS DO NOT ALLOW THE EXCLUSION OF CERTAIN WARRANTIES SO SOME OF THE ABOVE
#EXCLUSIONS MAY NOT APPLY. IN NO EVENT SHALL ENVERUS, INC. OR ANY OF ITS AFFILIATES
#BE LIABLE UNDER ANY LEGAL THEORY, WHETHER IN TORT (INCLUDING WITHOUT LIMITATION
#NEGLIGENCE), CONTRACT, STRICT LIABILITY, STATUTORY OR OTHERWISE, FOR ANY SPECIAL,
#INCIDENTAL, CONSEQUENTIAL, EXEMPLARY, PUNITIVE OR INDIRECT DAMAGE OF ANY KIND, INCLUDING
#WITHOUT LIMITATION LOSS OF REVENUE, PROFITS, GOODWILL, USE, AND/OR DATA OR THE COST OF
#PROCUREMENT OF SUBSTITUTE GOODS OR SERVICES, EVEN IF APPRISED OF THE POSSIBILITY OF SUCH
#DAMAGES IN ADVANCE.
#--------------------------------------------------#

~VERSION INFORMATION
VERS. 2.0 : CWLS LOG ASCII STANDARD - VERSION 2.0
WRAP.  NO : ONE LINE PER DEPTH STEP
~WELL INFORMATION
#MNEMONIC     .UNIT              VALUE :DESCRIPTION
STRT       .FT                429 :START DEPTH
STOP       .FT                6365 :STOP DEPTH
STEP       .FT                   0.500 :STEP
NULL       .                  -999.99 :NULL
UWI        .                42371100750000 :UNIQUE WELL ID
API        .                42371100750000 :API NUMBER
COMP       .         :COMPANY
WELL       .        :WELL
DATE       .                 :LOG DATE
FLD       .                 :FIELD NAME
LOC       .                  UNK :LOCATION
CNTY       .                 UNK :COUNTY
STAT       .                 UNK :STATE
CTRY       .                 UNK :COUNTY
SRVC       .                 UNK :SERVICE COMPANY
~CURVE INFORMATION
#MNEMONIC     .UNIT      API CODE :CURVE DESCRIPTION
DEPTH       .FT                      :MEASURED DEPTH
DT.MSEC/FT        UNKNOWN   :DT
GR.API        UNKNOWN   :GR
~A    DEPTH    DT    GR
# ...
 2785.5     68.76535   24.35268
 2786     74.43223   25.18429
 2786.5     80.09911   25.35681
 2787     85.76599   24.68631
 2787.5     79.49775   22.99895
 2788     72.55871   21.29101
 2788.5     65.61966   19.57304
 2789     41.96753   17.85506
 2789.5     40.31976   16.13709
 2790     49.42408   14.49136
 2790.5     52.84868   14.49307
 2791     53.35296   14.83239
 2791.5     53.85724   15.34848
 2792     54.36152   15.86457
 2792.5     54.86581   15.68584
 2793     55.37009   15.43298
 2793.5     55.48044   14.56846
 2794     55.18049   13.56541
 2794.5     54.88053   12.56236
 2795     54.58057   12.66374
 2795.5     54.28061   12.95918
 2796     53.98066   13.77883
 2796.5     54.33291   14.59848
 2797     54.68868   15.41813
 2797.5     55.04446   16.23778
 2798     55.36954   17.05743
 2798.5     55.66747   17.87708
 2799     55.9654   18.69673
 2799.5     56.25591   19.52672
 2800     56.46565   20.56537
 2800.5     56.6754   20.60862
 2801     56.88514   18.72622
 2801.5     57.09488   16.84382
 2802     56.8643   14.96142
 2802.5     56.22484   14.30932
 2803     55.58538   14.02058
 2803.5     54.94591   14.47202
 2804     57.63139   16.0556
 2804.5     66.65393   16.91873
 2805     73.38534   17.78186
 2805.5     74.78825   18.32865
 2806     76.71767   17.88681
 2806.5     78.64708   17.44497
 2807     80.5765   16.85217
 2807.5     79.09757   16.07425
 2808     76.68721   15.29633
 2808.5     74.29216   14.51841
 2809     61.75521   14.02967
 2809.5     59.1872   13.7409
 2810     56.6192   13.45213
 2810.5     54.0512   13.16335
 2811     46.96242   12.87458
 2811.5     39.54314   13.1614
 2812     45.53441   13.67723
 2812.5     51.16434   14.19307
 2813     56.3069   14.80772
 2813.5     58.0548   15.48332
 2814     59.8027   16.15891
 2814.5     61.55059   16.8345
 2815     63.29849   17.32257
 2815.5     65.04639   16.78819
 2816     66.79429   16.25382
 2816.5     65.49162   15.71945
 2817     62.83521   15.18508
 2817.5     62.12289   14.6507
 2818     61.87383   14.37705
 2818.5     59.62726   15.06586
 2819     50.13334   15.75467
 2819.5     50.88298   16.44345
 2820     51.63261   17.13203
 2820.5     52.38225   17.82062
 2821     52.57203   18.5092
 2821.5     52.44843   19.19778
 2822     52.32483   19.88636
 2822.5     52.20123   20.57494
 2823     52.17925   21.26352
 2823.5     52.6046   20.26577
 2824     53.02995   19.10543
 2824.5     53.10594   17.94508
 2825     52.31327   16.78473
 2825.5     51.5206   15.62439
 2826     50.72793   14.46404
 2826.5     50.4874   13.61473
 2827     50.67215   13.92378
 2827.5     50.85689   14.23283
 2828     51.04163   14.54188
 2828.5     51.22637   14.15746
 2829     51.41111   12.41708
 2829.5     51.59586   10.6767
 2830     51.74588   10.26963
 2830.5     51.7148   10.19747
 2831     51.68373   11.13955
 2831.5     51.65265   12.08163
 2832     51.62158   13.02371
 2832.5     51.89851   13.35448
 2833     52.32383   12.84959
 2833.5     52.74916   12.34471
 2834     52.6296   11.83982
 2834.5     52.35261   11.53403
 2835     52.07561   11.89438
 2835.5     51.79862   12.25474
 2836     51.52162   12.61509
 2836.5     51.56899   13.09663
 2837     51.63801   13.61239
 2837.5     51.68316   14.12815
 2838     51.7283   14.7145
 2838.5     51.77345   15.33384
 2839     55.52319   16.75463
 2839.5     59.79736   18.20601
 2840     64.07154   19.65739
 2840.5     68.34572   21.10877
 2841     72.61989   22.34339
 2841.5     76.89407   22.72944
 2842     79.21316   21.97054
 2842.5     75.89875   20.96561
 2843     72.3754   19.96068
 2843.5     68.82658   18.10098
 2844     65.27777   15.79718
 2844.5     67.82907   14.79719
 2845     73.20636   15.05471
 2845.5     78.65404   15.31224
 2846     82.44371   15.56977
 2846.5     79.03059   15.82729
 2847     75.61747   16.08482
 2847.5     72.20435   16.34235
 2848     68.7524   15.8005
 2848.5     64.65212   14.7194
 2849     59.3879   13.6383
 2849.5     54.75214   12.5572
 2850     53.46546   11.51118
 2850.5     53.52503   12.11261
 2851     54.43872   12.71403
 2851.5     55.3524   14.05261
 2852     56.2293   15.42408
 2852.5     53.75727   16.79554
 2853     51.28523   17.69924
 2853.5     48.81319   16.86032
 2854     49.15205   15.9392
 2854.5     50.98065   14.33203
 2855     52.80925   12.72485
 2855.5     54.63785   11.11768
 2856     54.59713   11.1414
 2856.5     54.06525   12.68101
 2857     53.61756   14.4094
 2857.5     54.11199   16.13779
 2858     54.60641   17.86617
 2858.5     56.39994   18.82376
 2859     64.44886   18.921
 2859.5     72.49777   19.01823
 2860     77.40449   19.11547
 2860.5     80.79957   19.2127
 2861     84.19466   19.30993
 2861.5     73.9338   19.11529
 2862     71.48949   18.89879
 2862.5     70.22886   18.12842
 2863     66.34658   16.79327
 2863.5     63.46885   15.45812
 2864     60.59113   14.07114
 2864.5     59.11936   12.57278
 2865     65.19314   11.07441
 2865.5     70.05405   11.12338
 2866     71.25082   11.46652
 2866.5     71.79466   11.80965
 2867     71.41848   12.22475
 2867.5     71.04229   12.66601
 2868     70.66611   13.10727
 2868.5     69.49214   13.54853
 2869     67.74387   13.98979
 2869.5     65.97295   14.43105
 2870     63.89969   14.87231
 2870.5     61.82643   15.31357
 2871     59.75316   15.75483
 2871.5     57.6799   16.18411
 2872     56.59532   16.46993
 2872.5     61.6155   16.75574
 2873     66.63568   17.04155
 2873.5     71.65586   16.70843
 2874     76.67604   16.35436
 2874.5     61.8619   16.00029
 2875     55.24328   15.55582
 2875.5     48.62465   15.0144
 2876     51.63642   14.47298
 2876.5     60.07303   13.93157
 2877     66.3896   13.39015
 2877.5     72.70618   13.05005
 2878     79.02275   12.84788
 2878.5     78.97373   12.6457
 2879     77.89877   12.43088
 2879.5     68.09451   12.1195
 2880     63.44867   11.80812
 2880.5     63.16712   11.49674
 2881     63.02586   11.18537
 2881.5     62.8846   11.6007
 2882     62.79113   12.52386
 2882.5     65.30197   13.44703
 2883     67.8128   14.3702
 2883.5     65.93008   15.29337
 2884     64.03291   15.24901
 2884.5     64.23023   14.91788
 2885     66.18877   14.02257
 2885.5     66.66167   13.12726
 2886     67.13456   12.23195
 2886.5     67.17984   12.07757
 2887     67.15499   12.01512
 2887.5     67.21393   12.07707
 2888     68.69166   13.11162
 2888.5     70.16938   14.1463
 2889     71.6471   15.18117
 2889.5     67.31554   16.21603
 2890     62.65457   17.2509
 2890.5     57.9936   17.98401
 2891     53.79321   17.98537
 2891.5     55.22931   17.10312
 2892     56.66542   13.34921
 2892.5     58.10153   13.01218
 2893     64.41473   12.6912
 2893.5     72.37997   13.05127
 2894     69.19871   13.41134
 2894.5     66.01746   13.77142
 2895     63.43962   13.92714
 2895.5     64.54427   13.92849
 2896     65.64892   13.92984
 2896.5     66.00178   13.91976
 2897     66.06221   13.80773
 2897.5     66.12264   13.69571
 2898     66.18307   13.58368
 2898.5     65.94106   14.24172
 2899     64.55234   14.91965
 2899.5     63.16361   15.59757
 2900     61.77489   16.2755
 2900.5     62.43575   16.95342
 2901     64.45255   17.63135
 2901.5     66.46935   17.90268
 2902     66.86698   17.64991
 2902.5     64.52179   17.39714
 2903     64.30652   16.24834
 2903.5     64.30613   14.62514
 2904     64.30574   13.00194
 2904.5     64.30535   12.865
 2905     64.47521   13.05035
 2905.5     64.64929   13.23571
 2906     64.82337   13.42106
 2906.5     64.99744   13.60641
 2907     65.17152   13.79177
 2907.5     64.80153   13.97712
 2908     64.34553   14.16247
 2908.5     63.88954   14.334
 2909     63.43354   14.43764
 2909.5     64.59764   13.80355
 2910     67.11277   12.22113
 2910.5     67.64347   11.11348
 2911     68.17417   11.04202
 2911.5     68.0121   10.97056
 2912     67.67903   10.8991
 2912.5     67.34597   10.82764
 2913     67.54323   10.91856
 2913.5     68.26515   11.20439
 2914     68.98706   11.49021
 2914.5     69.90334   11.95322
 2915     70.97344   12.75506
 2915.5     72.04354   13.5569
