#--------------------------------------------------#
#-------------------ENVERUS, INC.------------------#
#------------------WWW.ENVERUS.COM-----------------#
#------------------COPYRIGHT 2020------------------#
#--------------------------------------------------#
#THIS FILE MAY BE USED ONLY IN ACCORDANCE WITH A CURRENT SUBSCRIPTION AGREEMENT BETWEEN
#THE USER AND ENVERUS, INC. NO PART OF THIS FILE MAY BE REPRODUCED, USED, COPIED,
#MODIFIED, PROPAGATED, OR DISTRIBUTED EXCEPT IN ACCORDANCE WITH THE SUBSCRIPTION
#AGREEMENT. UNAUTHORIZED USE OR DISTRIBUTION OF ALL OR ANY PART OF THIS FILE MAY VIOLATE
#COPYRIGHT, TRADEMARK, AND/OR OTHER LAWS AND IS SUBJECT TO CIVIL AS WELL AS CRIMINAL
#SANCTIONS.
#--------------------------------------------------#
#THIS FILE IS PROVIDED "AS-IS" AND ALL WARRANTIES ARE EXPRESSLY DISCLAIMED, WHETHER
#EXPRESS, ORAL, IMPLIED, STATUTORY OR OTHERWISE, INCLUDING ANY IMPLIED WARRANTY OF FITNESS
#FOR A PARTICULAR PURPOSE, MERCHANTABILITY, TITLE OR NON-INFRINGEMENT, AND ANY WARRANTIES
#ARISING BY VIRTUE OF CUSTOM OF TRADE OR COURSE OF DEALING.  FURTHER, ENVERUS, INC.
#AND ITS LICENSORS DO NOT REPRESENT OR WARRANT THAT THIS FILE WILL MEET USER'S
#REQUIREMENTS OR ARE SUITABLE FOR USER'S NEEDS OR THAT THE DATA OR RESULTS PROVIDED IN
#CONJUNCTION THEREWITH ARE CORRECT, ACCURATE, TIMELY OR RELIABLE. THESE DISCLAIMERS SHALL
#APPLY REGARDLESS OF ANY FAILURE OF ESSENTIAL PURPOSE OF ANY LIMITED REMEDY.  SOME
#JURISDICTIONS DO NOT ALLOW THE EXCLUSION OF CERTAIN WARRANTIES SO SOME OF THE ABOVE
#EXCLUSIONS MAY NOT APPLY. IN NO EVENT SHALL ENVERUS, INC. OR ANY OF ITS AFFILIATES
#BE LIABLE UNDER ANY LEGAL THEORY, WHETHER IN TORT (INCLUDING WITHOUT LIMITATION
#NEGLIGENCE), CONTRACT, STRICT LIABILITY, STATUTORY OR OTHERWISE, FOR ANY SPECIAL,
#INCIDENTAL, CONSEQUENTIAL, EXEMPLARY, PUNITIVE OR INDIRECT DAMAGE OF ANY KIND, INCLUDING
#WITHOUT LIMITATION LOSS OF REVENUE, PROFITS, GOODWILL, USE, AND/OR DATA OR THE COST OF
#PROCUREMENT OF SUBSTITUTE GOODS OR SERVICES, EVEN IF APPRISED OF THE POSSIBILITY OF SUCH
#DAMAGES IN ADVANCE.
#--------------------------------------------------#

~VERSION INFORMATION
VERS. 2.0 : CWLS LOG ASCII STANDARD - VERSION 2.0
WRAP.  NO : ONE LINE PER DEPTH STEP
~WELL INFORMATION
#MNEMONIC     .UNIT              VALUE :DESCRIPTION
STRT       .FT                -3 :START DEPTH
STOP       .FT                21524 :STOP DEPTH
STEP       .FT                   0.500 :STEP
NULL       .                  -999.99 :NULL
UWI        .                42389105080000 :UNIQUE WELL ID
API        .                42389105080000 :API NUMBER
COMP       .         :COMPANY
WELL       .        :WELL
DATE       .                 :LOG DATE
FLD       .                 :FIELD NAME
LOC       .                  UNK :LOCATION
CNTY       .                 UNK :COUNTY
STAT       .                 UNK :STATE
CTRY       .                 UNK :COUNTY
SRVC       .                 UNK :SERVICE COMPANY
~CURVE INFORMATION
#MNEMONIC     .UNIT      API CODE :CURVE DESCRIPTION
DEPTH       .FT                      :MEASURED DEPTH
CAL.IN        UNKNOWN   :CAL
DT.MSEC/FT        UNKNOWN   :DT
GR.API        UNKNOWN   :GR
~A    DEPTH    CAL    DT    GR
# ...
 20765.5     4.11951   55.91501   56.77468
 20766     4.12735   55.72836   59.78105
 20766.5     4.07316   55.54171   59.89464
 20767     3.96565   55.56653   59.29014
 20767.5     3.85814   57.90253   50.52986
 20768     3.75063   58.70008   33.8121
 20768.5     3.71122   57.86513   30.65026
 20769     3.75471   57.03017   32.09127
 20769.5     3.79819   56.19522   32.48928
 20770     3.84168   55.36027   29.62989
 20770.5     3.88517   54.52532   26.7705
 20771     3.92866   53.69037   23.91111
 20771.5     3.97214   53.70887   25.03279
 20772     3.99636   54.05408   26.3956
 20772.5     3.9994   54.39929   27.7584
 20773     4.00243   54.7445   29.12121
 20773.5     4.00547   55.0897   30.48402
 20774     4.00851   54.18228   30.28073
 20774.5     4.01154   52.72203   30.00218
 20775     4.01458   52.51972   29.72363
 20775.5     4.01762   52.77967   29.44508
 20776     4.02066   53.03962   25.56204
 20776.5     4.02369   53.29957   21.55923
 20777     4.02673   53.55952   22.15168
 20777.5     4.02977   53.42438   23.88621
 20778     4.03281   53.13842   25.70945
 20778.5     4.03584   52.85247   27.53269
 20779     4.03888   52.56651   29.35592
 20779.5     4.04767   52.28056   31.17916
 20780     4.09662   41.72168   32.19108
 20780.5     4.14556   50.00172   33.01812
 20781     4.19451   52.06037   33.84517
 20781.5     4.24345   52.16522   34.67221
 20782     4.2802   52.27006   35.49926
 20782.5     4.2869   52.37491   36.3263
 20783     4.29359   52.47976   37.15335
 20783.5     4.30028   53.08223   37.9804
 20784     4.30698   53.81204   38.80744
 20784.5     4.31367   54.54186   38.98279
 20785     4.32036   55.27167   38.94531
 20785.5     4.32706   55.56454   38.90783
 20786     4.33375   55.18764   38.68791
 20786.5     4.34044   54.81074   35.66883
 20787     4.34714   54.43383   32.64975
 20787.5     4.35383   54.05693   29.63067
 20788     4.36053   54.0242   27.14918
 20788.5     4.36489   54.26733   26.81385
 20789     4.31066   54.51045   27.99996
 20789.5     4.25643   54.26366   29.62344
 20790     4.2022   53.80607   30.07335
 20790.5     4.14797   53.34848   30.52325
 20791     4.09374   52.89089   30.05569
 20791.5     4.03951   52.4333   27.73858
 20792     4.00588   52.04052   25.42147
 20792.5     4.02296   51.91641   23.77007
 20793     4.04004   51.7923   23.85226
 20793.5     4.05713   51.6682   23.93444
 20794     4.07421   51.54409   24.01662
 20794.5     4.09129   51.41999   24.09881
 20795     4.10837   51.29588   24.56208
 20795.5     4.12545   50.98408   26.36962
 20796     4.14253   50.64956   28.17717
 20796.5     4.15962   50.7053   29.98471
 20797     4.1767   50.84955   31.79225
 20797.5     4.19378   50.99381   31.80734
 20798     4.21086   51.13806   30.18921
 20798.5     4.22794   51.28232   27.37284
 20799     4.24502   51.42657   24.55646
 20799.5     4.26211   51.57083   21.74009
 20800     4.27919   51.71508   21.02349
 20800.5     4.29627   51.60583   21.54853
 20801     4.31335   51.49554   22.07356
 20801.5     4.33043   51.38524   22.91441
 20802     4.34752   51.27495   25.08508
 20802.5     4.3646   51.16466   26.44643
 20803     4.38168   51.05436   26.2217
 20803.5     4.39876   51.16779   25.99696
 20804     4.41584   51.38054   25.77223
 20804.5     4.43292   51.59329   25.56009
 20805     4.45001   51.55648   26.35752
 20805.5     4.46709   51.47129   27.15496
 20806     4.48417   51.38609   27.9524
 20806.5     4.50125   51.3009   25.85117
 20807     4.51833   51.21571   23.35215
 20807.5     4.53542   51.13051   20.85314
 20808     4.5525   51.04532   20.48085
 20808.5     4.56958   50.96013   21.86687
 20809     4.58115   50.87494   23.2194
 20809.5     4.57634   50.78974   23.85094
 20810     4.57154   50.70455   24.48248
 20810.5     4.56673   50.75725   24.23512
 20811     4.56193   50.89684   23.46628
 20811.5     4.55712   51.03644   22.69745
 20812     4.55232   51.17604   22.21914
 20812.5     4.54751   51.31564   22.21912
 20813     4.54271   51.45523   22.21909
 20813.5     4.5379   51.59483   22.56762
 20814     4.5331   51.73443   23.0728
 20814.5     4.51169   51.87403   23.57798
 20815     4.40787   52.01363   24.08315
 20815.5     4.30405   51.93471   22.10073
 20816     4.20024   51.7479   18.23705
 20816.5     4.1132   51.56109   17.92526
 20817     4.19849   51.37428   18.26417
 20817.5     4.28378   51.18747   21.58372
 20818     4.36907   51.00066   25.65754
 20818.5     4.45436   50.81385   26.45794
 20819     4.53965   50.62704   26.18911
 20819.5     4.62494   50.60567   25.92029
 20820     4.71024   50.96733   25.65146
 20820.5     4.69516   51.24697   25.27188
 20821     4.68007   51.03315   23.96042
 20821.5     4.66498   50.81933   22.41827
 20822     4.64989   50.60552   20.66218
 20822.5     4.6348   50.3917   18.90608
 20823     4.61971   49.80031   17.14998
 20823.5     4.60463   49.41962   15.39388
 20824     4.58954   49.78153   13.63779
 20824.5     4.57445   50.14344   14.21136
 20825     4.55936   50.50535   16.39774
 20825.5     4.54427   50.86725   18.58413
 20826     4.52918   50.86935   20.77051
 20826.5     4.51409   50.61934   22.9569
 20827     4.53318   50.36934   22.5909
 20827.5     4.55808   50.11933   21.44696
 20828     4.58299   49.86932   20.30302
 20828.5     4.60789   49.97695   19.35324
 20829     4.6328   50.21973   18.99329
 20829.5     4.6577   50.46252   18.63334
 20830     4.68261   50.7053   18.94765
 20830.5     4.70751   50.79553   19.30922
 20831     4.73242   50.68921   19.67079
 20831.5     4.75732   50.5829   21.39695
 20832     4.76664   50.47658   23.34004
 20832.5     4.76989   50.37026   24.56608
 20833     4.77313   50.35373   24.04945
 20833.5     4.77637   50.41506   23.53282
 20834     4.77961   50.4764   22.66394
 20834.5     4.78285   50.53773   21.10053
 20835     4.78609   50.59907   19.53712
 20835.5     4.78933   50.66041   17.9737
 20836     4.79257   50.72174   17.18275
 20836.5     4.79581   50.70457   18.68327
 20837     4.79906   50.59825   20.18379
 20837.5     4.8023   50.49193   21.66158
 20838     4.80554   50.38561   21.62395
 20838.5     4.80878   50.27928   21.58633
 20839     4.81202   50.27197   21.54871
 20839.5     4.81526   50.3401   21.24246
 20840     4.8185   50.40822   20.38463
 20840.5     4.82174   50.47635   19.52679
 20841     4.82498   50.54447   19.1236
 20841.5     4.82823   50.6126   19.35954
 20842     4.38338   50.6525   19.59547
 20842.5     4.42976   50.58175   19.83141
 20843     4.47615   50.51099   20.06734
 20843.5     4.52253   50.44024   20.30328
 20844     4.56892   50.36949   20.53921
 20844.5     4.6153   50.29874   20.77515
 20845     4.66169   50.22799   21.01108
 20845.5     4.70807   50.15724   21.83967
 20846     4.75446   50.08649   23.07535
 20846.5     4.79553   50.01574   24.31103
 20847     4.79146   50.01348   25.54671
 20847.5     4.7874   50.12236   26.03103
 20848     4.78333   50.23124   24.94691
 20848.5     4.77927   50.34012   23.86278
 20849     4.7752   50.449   22.77865
 20849.5     4.77114   50.55788   21.69452
 20850     4.76707   50.66536   21.69502
 20850.5     4.76301   50.52983   21.90003
 20851     4.75894   50.3943   22.10503
 20851.5     4.75488   50.25876   22.31003
 20852     4.75081   50.12323   23.54785
 20852.5     4.74675   49.98769   25.08489
 20853     4.74268   49.85216   26.11679
 20853.5     4.73861   49.71663   25.60937
 20854     4.74728   49.71735   24.93787
 20854.5     4.78205   50.00823   24.15964
 20855     4.81683   50.2991   23.38141
 20855.5     4.8516   50.58998   22.60319
 20856     4.88638   50.48091   21.82496
 20856.5     4.92115   50.37103   21.04674
 20857     4.95593   50.52037   20.26851
 20857.5     4.99071   50.66971   20.69126
 20858     5.0027   50.81904   22.46528
 20858.5     5.01005   50.96838   24.23931
 20859     5.01741   51.11771   25.51107
 20859.5     5.02476   51.26705   24.552
 20860     5.03211   51.05342   23.59292
 20860.5     5.03946   50.82438   23.1278
 20861     5.04682   50.59534   23.88605
