#--------------------------------------------------#
#-------------------ENVERUS, INC.------------------#
#------------------WWW.ENVERUS.COM-----------------#
#------------------COPYRIGHT 2020------------------#
#--------------------------------------------------#
#THIS FILE MAY BE USED ONLY IN ACCORDANCE WITH A CURRENT SUBSCRIPTION AGREEMENT BETWEEN
#THE USER AND ENVERUS, INC. NO PART OF THIS FILE MAY BE REPRODUCED, USED, COPIED,
#MODIFIED, PROPAGATED, OR DISTRIBUTED EXCEPT IN ACCORDANCE WITH THE SUBSCRIPTION
#AGREEMENT. UNAUTHORIZED USE OR DISTRIBUTION OF ALL OR ANY PART OF THIS FILE MAY VIOLATE
#COPYRIGHT, TRADEMARK, AND/OR OTHER LAWS AND IS SUBJECT TO CIVIL AS WELL AS CRIMINAL
#SANCTIONS.
#--------------------------------------------------#
#THIS FILE IS PROVIDED "AS-IS" AND ALL WARRANTIES ARE EXPRESSLY DISCLAIMED, WHETHER
#EXPRESS, ORAL, IMPLIED, STATUTORY OR OTHERWISE, INCLUDING ANY IMPLIED WARRANTY OF FITNESS
#FOR A PARTICULAR PURPOSE, MERCHANTABILITY, TITLE OR NON-INFRINGEMENT, AND ANY WARRANTIES
#ARISING BY VIRTUE OF CUSTOM OF TRADE OR COURSE OF DEALING.  FURTHER, ENVERUS, INC.
#AND ITS LICENSORS DO NOT REPRESENT OR WARRANT THAT THIS FILE WILL MEET USER'S
#REQUIREMENTS OR ARE SUITABLE FOR USER'S NEEDS OR THAT THE DATA OR RESULTS PROVIDED IN
#CONJUNCTION THEREWITH ARE CORRECT, ACCURATE, TIMELY OR RELIABLE. THESE DISCLAIMERS SHALL
#APPLY REGARDLESS OF ANY FAILURE OF ESSENTIAL PURPOSE OF ANY LIMITED REMEDY.  SOME
#JURISDICTIONS DO NOT ALLOW THE EXCLUSION OF CERTAIN WARRANTIES SO SOME OF THE ABOVE
#EXCLUSIONS MAY NOT APPLY. IN NO EVENT SHALL ENVERUS, INC. OR ANY OF ITS AFFILIATES
#BE LIABLE UNDER ANY LEGAL THEORY, WHETHER IN TORT (INCLUDING WITHOUT LIMITATION
#NEGLIGENCE), CONTRACT, STRICT LIABILITY, STATUTORY OR OTHERWISE, FOR ANY SPECIAL,
#INCIDENTAL, CONSEQUENTIAL, EXEMPLARY, PUNITIVE OR INDIRECT DAMAGE OF ANY KIND, INCLUDING
#WITHOUT LIMITATION LOSS OF REVENUE, PROFITS, GOODWILL, USE, AND/OR DATA OR THE COST OF
#PROCUREMENT OF SUBSTITUTE GOODS OR SERVICES, EVEN IF APPRISED OF THE POSSIBILITY OF SUCH
#DAMAGES IN ADVANCE.
#--------------------------------------------------#

~VERSION INFORMATION
VERS. 2.0 : CWLS LOG ASCII STANDARD - VERSION 2.0
WRAP.  NO : ONE LINE PER DEPTH STEP
~WELL INFORMATION
#MNEMONIC     .UNIT              VALUE :DESCRIPTION
STRT       .FT                102 :START DEPTH
STOP       .FT                9071 :STOP DEPTH
STEP       .FT                   0.500 :STEP
NULL       .                  -999.99 :NULL
UWI        .                42389104910000 :UNIQUE WELL ID
API        .                42389104910000 :API NUMBER
COMP       .         :COMPANY
WELL       .        :WELL
DATE       .                 :LOG DATE
FLD       .                 :FIELD NAME
LOC       .                  UNK :LOCATION
CNTY       .                 UNK :COUNTY
STAT       .                 UNK :STATE
CTRY       .                 UNK :COUNTY
SRVC       .                 UNK :SERVICE COMPANY
~CURVE INFORMATION
#MNEMONIC     .UNIT      API CODE :CURVE DESCRIPTION
DEPTH       .FT                      :MEASURED DEPTH
DT.MSEC/FT        UNKNOWN   :DT
GR.API        UNKNOWN   :GR
~A    DEPTH    DT    GR
# ...
 3033     94.28201   1.19551
 3033.5     93.42123   1.36825
 3034     87.40387   1.57528
 3034.5     79.52453   1.78231
 3035     71.64518   1.98934
 3035.5     69.12234   2.19637
 3036     69.12263   2.4034
 3036.5     69.12292   2.61043
 3037     69.12321   2.81747
 3037.5     69.12351   3.0245
 3038     69.1238   3.23153
 3038.5     69.12409   3.43856
 3039     71.43072   3.64559
 3039.5     75.33779   3.72495
 3040     79.24487   3.60247
 3040.5     83.15195   3.47999
 3041     87.05903   3.3575
 3041.5     90.96611   3.23502
 3042     93.4979   3.85356
 3042.5     93.59518   4.57986
 3043     93.69246   5.30616
 3043.5     93.78973   6.03246
 3044     93.88701   6.75876
 3044.5     93.98429   7.48506
 3045     94.08157   8.21136
 3045.5     94.17885   8.93766
 3046     94.27613   9.66396
 3046.5     94.37341   10.39026
 3047     94.47069   11.11656
 3047.5     94.56797   11.84286
 3048     94.66525   12.56925
 3048.5     94.76253   13.31829
 3049     94.8598   14.06733
 3049.5     94.95708   14.81637
 3050     95.05436   15.42153
 3050.5     95.15164   14.5452
 3051     95.24892   13.66886
 3051.5     95.32367   12.79253
 3052     95.32828   11.9162
 3052.5     95.33288   11.03987
 3053     95.33749   10.16354
 3053.5     95.34209   9.28721
 3054     95.3467   8.52753
 3054.5     95.3513   8.55513
 3055     95.35591   8.58274
 3055.5     95.36051   8.61034
 3056     95.36512   8.63794
 3056.5     95.36973   8.66554
 3057     95.37433   8.69315
 3057.5     95.37894   8.72075
 3058     95.38354   8.74835
 3058.5     95.38815   8.77596
 3059     95.39275   8.80356
 3059.5     95.39736   8.83116
 3060     95.40196   8.85877
 3060.5     95.40657   8.86792
 3061     95.41117   8.78596
 3061.5     95.41578   8.70399
 3062     95.42039   8.62203
 3062.5     95.42499   8.54006
 3063     95.4296   8.4581
 3063.5     95.4342   8.37613
 3064     95.43881   8.23236
 3064.5     95.44341   7.99553
 3065     95.44802   7.7587
 3065.5     95.45262   7.52187
 3066     95.45723   7.28504
 3066.5     95.46183   7.04821
 3067     95.46644   6.91465
 3067.5     95.47105   7.24067
 3068     95.47565   7.5667
 3068.5     95.48026   7.89273
 3069     95.48486   7.95345
 3069.5     95.48947   7.95274
 3070     95.49407   7.95203
 3070.5     95.49868   7.95132
 3071     95.50328   7.95061
 3071.5     95.50789   7.9499
 3072     95.51249   7.9492
 3072.5     95.5171   7.94849
 3073     95.52171   8.11895
 3073.5     95.52631   8.30448
 3074     95.53092   8.49002
 3074.5     95.53552   8.67555
 3075     95.54013   8.86109
 3075.5     95.54473   9.04662
 3076     95.54934   9.23216
 3076.5     95.55394   9.41769
 3077     95.55855   9.60323
 3077.5     95.56315   9.78876
 3078     95.56776   9.9743
 3078.5     95.57237   10.10551
 3079     95.57697   9.75544
 3079.5     95.58158   9.40537
 3080     95.58618   9.0553
 3080.5     95.58693   8.70523
 3081     95.57817   8.35516
 3081.5     95.56941   8.00509
 3082     95.56065   7.65502
 3082.5     95.5519   7.62078
 3083     95.54314   7.69243
 3083.5     95.53438   7.76409
 3084     95.52562   7.83574
 3084.5     95.51686   7.9074
 3085     95.5081   7.86102
 3085.5     95.49935   7.75866
 3086     95.49059   7.6563
 3086.5     95.48183   7.55393
 3087     95.47307   7.45157
 3087.5     95.46431   7.3492
 3088     95.45555   7.24684
 3088.5     95.44679   7.14447
 3089     95.43804   7.04211
 3089.5     95.42928   7.00542
 3090     95.42052   7.00463
 3090.5     95.41176   7.00385
 3091     95.403   7.00306
 3091.5     95.39424   7.00227
 3092     95.38549   7.04798
 3092.5     95.37673   7.12848
 3093     95.36797   7.37102
 3093.5     95.35921   7.95882
 3094     95.35045   8.54662
 3094.5     95.34169   9.13442
 3095     95.33293   9.72223
 3095.5     95.32418   10.31003
 3096     95.31542   10.40918
 3096.5     95.30666   10.3084
 3097     95.2979   10.20761
 3097.5     95.28914   10.10682
 3098     95.28038   10.00604
 3098.5     95.27163   9.90525
 3099     95.26287   9.80447
 3099.5     95.25411   11.94666
 3100     95.24535   17.85446
 3100.5     95.23659   22.11921
 3101     95.27901   20.91595
 3101.5     95.33673   19.71269
 3102     95.39445   18.50942
 3102.5     95.45217   17.30616
 3103     95.50989   16.10289
 3103.5     95.56761   14.89963
 3104     95.62533   13.69637
 3104.5     95.68304   12.4931
 3105     95.74076   11.28984
 3105.5     95.79848   10.08657
 3106     95.8562   9.3342
 3106.5     95.91392   9.26124
 3107     95.97164   9.18828
 3107.5     95.96225   9.11531
 3108     95.9396   9.04235
 3108.5     95.91695   8.93701
 3109     95.8943   8.76289
 3109.5     95.87164   8.58878
 3110     95.84899   8.41466
 3110.5     95.82634   8.24055
 3111     95.80369   8.06644
 3111.5     95.78104   7.89232
 3112     95.75839   7.71821
 3112.5     95.75043   7.54409
 3113     95.83072   7.3417
 3113.5     95.91101   7.13421
 3114     95.9913   6.92672
 3114.5     96.07159   6.71923
 3115     96.15189   6.51174
 3115.5     96.23218   6.30425
 3116     96.17597   6.09676
 3116.5     96.11371   5.88927
 3117     96.05144   5.68178
 3117.5     95.98918   5.47429
 3118     95.92692   5.2668
 3118.5     95.86465   5.05931
 3119     95.80239   4.93748
 3119.5     95.74013   4.93657
 3120     95.67786   4.93567
 3120.5     95.6156   4.93476
 3121     95.55333   4.93385
 3121.5     95.51545   4.93295
 3122     95.6358   4.93204
 3122.5     95.75615   4.93114
 3123     95.87649   4.93023
 3123.5     95.99684   4.92933
 3124     96.11718   4.92842
 3124.5     96.23753   5.00341
 3125     96.20905   5.11098
 3125.5     96.17292   5.21855
 3126     96.1368   5.32613
 3126.5     96.10067   5.4337
 3127     96.06454   5.54128
 3127.5     96.02841   5.64885
 3128     95.99229   5.75643
 3128.5     95.95616   5.864
 3129     95.92003   5.97157
 3129.5     95.8839   6.32091
 3130     95.84778   6.86489
 3130.5     95.81165   7.40886
 3131     95.77552   8.06983
 3131.5     95.73939   9.24269
 3132     95.70327   10.41555
 3132.5     95.66714   11.58841
 3133     95.63101   12.38851
 3133.5     95.59488   12.22519
 3134     95.55876   12.06187
 3134.5     95.52263   11.89856
 3135     95.4865   13.19729
 3135.5     95.45037   14.67744
 3136     95.41425   14.69979
 3136.5     95.37812   13.97145
 3137     95.34199   13.2431
 3137.5     95.30586   12.51475
 3138     95.26974   11.91327
 3138.5     95.23361   12.23844
 3139     95.19748   12.56361
 3139.5     95.16135   12.88878
 3140     95.20132   13.21395
 3140.5     95.30325   13.53913
 3141     95.40518   13.8643
 3141.5     95.5071   13.37298
 3142     95.60903   12.82178
 3142.5     95.71096   12.27058
 3143     95.81288   11.71937
 3143.5     95.91481   11.16817
 3144     96.01674   10.61697
 3144.5     96.11866   10.06577
 3145     96.22059   9.51457
 3145.5     96.32252   8.96336
 3146     96.42444   8.41216
 3146.5     96.52637   7.86096
 3147     96.6283   7.44395
 3147.5     96.63932   7.11866
 3148     96.64428   6.94265
 3148.5     96.64923   7.06688
 3149     96.65419   7.19111
 3149.5     96.65915   7.31534
 3150     96.6641   7.43957
 3150.5     96.66906   7.5638
 3151     96.67402   7.68804
 3151.5     96.67897   7.81084
 3152     96.68393   7.59338
 3152.5     96.68889   7.37592
 3153     96.69384   7.15846
 3153.5     96.6988   6.941
 3154     96.70376   6.72354
 3154.5     96.70871   6.50608
 3155     96.71367   6.35721
 3155.5     96.71863   6.44917
 3156     96.72358   6.54114
 3156.5     96.72854   6.6331
 3157     96.73349   6.72507
 3157.5     96.73845   6.81704
 3158     96.74341   6.909
 3158.5     96.74836   7.00097
 3159     96.75332   7.09293
 3159.5     96.75828   7.1849
 3160     96.76323   7.27686
 3160.5     96.76819   7.36883
 3161     96.71428   7.26994
 3161.5     96.55822   6.86402
 3162     96.40215   6.51965
 3162.5     96.24609   6.64074
 3163     96.09003   6.76183
 3163.5     95.93397   6.88291
 3164     95.77791   7.004
 3164.5     95.62185   6.98069
 3165     95.46579   6.86499
 3165.5     95.30973   6.74928
 3166     95.15367   6.63358
