###############################################
##         ENVERUS                           ##
##         ESS - Open Hole                   ##
##         PERMIAN / DELAWARE                ##
##         Nov 04 2023  V4.0                 ##
##         42-389-10116-00-00                ##
###############################################
## Copyright 2017-2023  ENVERUS.  All Rights Reserved. 
## Confidential - Property of ENVERUS, use governed by terms and 
## conditions found within the existing Information Services Subscription Agreement 
## (as may be amended, the “ISSA”) between Customer and ENVERUS. 
## 
~VERSION INFORMATION
# MNEM.UNIT                               DATA : DESCRIPTION OF MNEMONIC
#-----.-----     ----------------------------- : -----------------------------
VERS.                                     2.00 : CWLS LOG ASCII STANDARD - VERSION 2.00
WRAP.                                       NO : MULTIPLE LINES PER DEPTH STEP
VEND.                                  ENVERUS : VENDOR
TYPE.                          ESS - OPEN HOLE : ENVERUS ESSENTIAL CURVES – ACCESSIBLE THROUGH ENVERUS PRISM(TM)
DOC.                                  31818149 : ENVERUS HEADER RAW DOCUMENT ID
#___________________________________________________________________________________________________ 
~WELL INFORMATION 
# kxSJJvG4Ro99GqojvmaAoFb8nmZsGWyMBdB6Op61yYkHZj6VRdx+Ef4kBXz5Syac/VH6awax3Ll89xsC2rvs8g== 
# MNEM.UNIT                                              DATA : DESCRIPTION OF MNEMONIC 
#-----.-----                    ----------------------------- : ----------------------------- 
CNTY.                                                  REEVES : COUNTY 
STATE.                                                  TEXAS : STATE 
CNTRY.                                                    USA : COUNTRY 
API.                                             42-389-10116 : API (10 Digit) 
API_14.                                    42-389-10116-00-00 : API (14 Digits) 
API_14_std.                                 42-389-10116-0000 : API (14 Digits Standard) 
UWI.                                           42389101160000 : UNIQUE WELL ID 
WELL.                                            WOODS -A-  1 : WELL NAME
STRT.FT                                                 107.0 : START DEPTH
STOP.FT                                                5258.0 : STOP DEPTH
STEP.FT                                                   0.5 : STEP BETWEEN DEPTHS
NULL.                                                 -999.25 : NULL VALUE
COMP.                              PHILLIPS PETROLEUM COMPANY : COMPANY
#___________________________________________________________________________________________________ 
~CURVE INFORMATION 
# MNEM.UNIT           : CURVE DESCRIPTION 
#-----.-----          : ----------------------------- 
 DEPT.FT               : MEASURED DEPTH 
 GR.API                : GAMMA RAY (GR) 
 DT.US/FT              : SONIC DELTA TRANSIT TIME (DT) 
 #___________________________________________________________________________________________________ 
~A         DEPT             GR             DT
# ...
         2108.0          6.470         67.143
         2108.5          6.190         67.866
         2109.0          5.911         68.588
         2109.5          5.631         69.310
         2110.0          5.352         70.033
         2110.5          6.192         68.315
         2111.0          7.043         68.723
         2111.5          7.794         69.132
         2112.0          7.860         69.540
         2112.5          7.927         69.862
         2113.0          7.993         69.135
         2113.5          8.060         68.408
         2114.0          8.126         67.883
         2114.5          8.192         67.913
         2115.0          8.259         67.942
         2115.5          9.239         67.971
         2116.0         11.808         67.081
         2116.5         14.377         64.601
         2117.0         16.946         61.474
         2117.5         25.574         56.154
         2118.0         37.074         53.403
         2118.5         48.573         55.565
         2119.0         54.766         58.293
         2119.5         56.746         64.696
         2120.0         52.959         67.183
         2120.5         29.429         56.874
         2121.0         12.508         57.652
         2121.5         12.655         58.431
         2122.0         12.802         57.178
         2122.5         12.949         57.138
         2123.0         12.133         60.218
         2123.5         11.196         63.283
         2124.0         10.258         66.079
         2124.5          9.321         68.291
         2125.0          8.384         69.271
         2125.5          7.447         68.480
         2126.0          7.212         67.181
         2126.5          7.848         65.881
         2127.0          8.484         64.474
         2127.5          9.120         62.415
         2128.0          9.756         60.357
         2128.5         10.392         58.299
         2129.0         10.248         56.240
         2129.5          9.758         54.182
         2130.0          9.268         52.670
         2130.5         13.848         51.825
         2131.0         20.136         52.612
         2131.5         26.424         54.552
         2132.0         32.232         56.491
         2132.5         36.994         58.431
         2133.0         41.755         60.625
         2133.5         36.375         63.664
         2134.0         25.881         66.703
         2134.5         16.711         66.848
         2135.0         13.969         67.944
         2135.5         11.227         69.393
         2136.0          8.670         67.973
         2136.5          8.250         66.554
         2137.0          7.830         65.134
         2137.5          7.409         65.595
         2138.0          6.989         66.905
         2138.5          6.569         67.569
         2139.0          6.149         67.996
         2139.5          6.044         68.424
         2140.0          7.067         66.534
         2140.5          8.091         65.311
         2141.0          8.444         67.762
         2141.5          7.630         68.224
         2142.0          6.816         67.774
         2142.5          6.560         67.324
         2143.0          7.141         66.873
         2143.5          7.722         66.876
         2144.0          8.267         67.538
         2144.5          7.940         67.922
         2145.0          7.613         67.861
         2145.5          7.286         67.800
         2146.0          6.960         67.739
         2146.5          6.839         67.678
         2147.0          6.836         67.618
         2147.5          6.833         67.557
         2148.0          6.830         67.496
         2148.5          6.827         67.435
         2149.0          6.823         68.198
         2149.5          6.820         69.407
         2150.0          6.817         70.617
         2150.5          6.814         70.414
         2151.0          6.811         69.353
         2151.5          6.808         70.502
         2152.0          6.805         71.458
         2152.5          6.801         70.491
         2153.0          6.798         70.195
         2153.5          6.795         70.181
         2154.0          6.792         70.167
         2154.5          6.789         70.153
         2155.0          6.786         68.059
         2155.5          6.782         67.428
         2156.0          6.779         66.796
         2156.5          6.776         66.164
         2157.0          6.773         67.035
         2157.5          6.770         68.615
         2158.0          6.767         68.412
         2158.5          6.764         68.210
         2159.0          6.760         68.097
         2159.5          6.757         68.462
         2160.0          6.754         68.828
         2160.5          6.751         69.194
         2161.0          6.748         69.427
         2161.5          6.745         69.060
         2162.0          6.741         68.693
         2162.5          6.738         68.326
         2163.0          6.735         67.960
         2163.5          6.732         62.974
         2164.0          6.774         62.729
         2164.5          7.028         64.186
         2165.0          7.283         65.643
         2165.5          7.537         67.100
         2166.0          7.792         68.555
         2166.5          8.046         69.201
         2167.0          8.301         69.847
         2167.5          8.555         70.133
         2168.0          8.810         70.029
         2168.5          9.064         69.925
         2169.0          8.939         69.757
         2169.5          8.448         68.936
         2170.0          7.958         68.114
         2170.5          7.467         67.293
         2171.0          6.977         67.311
         2171.5          6.486         67.510
         2172.0          5.995         67.709
         2172.5          6.145         67.907
         2173.0          6.653         68.106
         2173.5          7.161         68.304
         2174.0          7.669         68.503
         2174.5          8.018         68.701
         2175.0          8.022         68.900
         2175.5          8.025         67.555
         2176.0          8.029         64.462
         2176.5          8.032         61.825
         2177.0          8.036         59.940
         2177.5          8.039         58.056
         2178.0          8.043         56.935
         2178.5          8.046         56.114
         2179.0          8.050         55.294
         2179.5          8.769         56.689
         2180.0          9.965         60.825
         2180.5         11.161         64.961
         2181.0         11.153         67.680
         2181.5         10.752         67.574
         2182.0         10.350         67.468
         2182.5          9.949         67.362
         2183.0          9.547         67.436
         2183.5          9.621         67.721
         2184.0         10.513         68.006
         2184.5         11.406         68.292
         2185.0         12.299         68.224
         2185.5         12.634         68.154
         2186.0         12.513         68.085
         2186.5         12.392         68.283
         2187.0         12.271         68.660
         2187.5         12.818         69.037
         2188.0         13.718         69.414
         2188.5         14.618         69.725
         2189.0         15.518         69.576
         2189.5         16.418         69.427
         2190.0         17.318         69.277
         2190.5         18.218         69.128
         2191.0         19.118         68.979
         2191.5         19.265         68.830
         2192.0         18.774         68.079
         2192.5         18.284         67.216
         2193.0         17.793         66.353
         2193.5         17.302         65.489
         2194.0         16.811         65.090
         2194.5         16.320         66.779
