###############################################
##         ENVERUS                           ##
##         ESS - Open Hole                   ##
##         PERMIAN / DELAWARE                ##
##         Nov 04 2023  V4.0                 ##
##         42-389-10116-00-00                ##
###############################################
## Copyright 2017-2023  ENVERUS.  All Rights Reserved. 
## Confidential - Property of ENVERUS, use governed by terms and 
## conditions found within the existing Information Services Subscription Agreement 
## (as may be amended, the “ISSA”) between Customer and ENVERUS. 
## 
~VERSION INFORMATION
# MNEM.UNIT                               DATA : DESCRIPTION OF MNEMONIC
#-----.-----     ----------------------------- : -----------------------------
VERS.                                     2.00 : CWLS LOG ASCII STANDARD - VERSION 2.00
WRAP.                                       NO : MULTIPLE LINES PER DEPTH STEP
VEND.                                  ENVERUS : VENDOR
TYPE.                          ESS - OPEN HOLE : ENVERUS ESSENTIAL CURVES – ACCESSIBLE THROUGH ENVERUS PRISM(TM)
DOC.                                  31818149 : ENVERUS HEADER RAW DOCUMENT ID
#___________________________________________________________________________________________________ 
~WELL INFORMATION 
# kxSJJvG4Ro99GqojvmaAoFb8nmZsGWyMBdB6Op61yYkHZj6VRdx+Ef4kBXz5Syac/VH6awax3Ll89xsC2rvs8g== 
# MNEM.UNIT                                              DATA : DESCRIPTION OF MNEMONIC 
#-----.-----                    ----------------------------- : ----------------------------- 
CNTY.                                                  REEVES : COUNTY 
STATE.                                                  TEXAS : STATE 
CNTRY.                                                    USA : COUNTRY 
API.                                             42-389-10116 : API (10 Digit) 
API_14.                                    42-389-10116-00-00 : API (14 Digits) 
API_14_std.                                 42-389-10116-0000 : API (14 Digits Standard) 
UWI.                                           42389101160000 : UNIQUE WELL ID 
WELL.                                            WOODS -A-  1 : WELL NAME
STRT.FT                                                 107.0 : START DEPTH
STOP.FT                                                5258.0 : STOP DEPTH
STEP.FT                                                   0.5 : STEP BETWEEN DEPTHS
NULL.                                                 -999.25 : NULL VALUE
COMP.                              PHILLIPS PETROLEUM COMPANY : COMPANY
#___________________________________________________________________________________________________ 
~CURVE INFORMATION 
# MNEM.UNIT           : CURVE DESCRIPTION 
#-----.-----          : ----------------------------- 
 DEPT.FT               : MEASURED DEPTH 
 GR.API                : GAMMA RAY (GR) 
 DT.US/FT              : SONIC DELTA TRANSIT TIME (DT) 
 #___________________________________________________________________________________________________ 
~A         DEPT             GR             DT
# ...
         1412.0         15.277         57.658
         1412.5         14.609         53.941
         1413.0         15.400         52.431
         1413.5         16.376         51.926
         1414.0         17.352         51.420
         1414.5         18.328         50.915
         1415.0         19.304         50.410
         1415.5         18.889         56.146
         1416.0         17.682         55.430
         1416.5         16.474         54.715
         1417.0         16.217         54.000
         1417.5         16.489         53.284
         1418.0         16.761         53.821
         1418.5         17.033         54.433
         1419.0         17.304         55.045
         1419.5         17.576         55.657
         1420.0         17.848         56.270
         1420.5         18.119         55.422
         1421.0         17.767         54.417
         1421.5         16.526         53.411
         1422.0         15.284         52.897
         1422.5         14.043         53.994
         1423.0         14.811         55.091
         1423.5         15.760         56.188
         1424.0         16.709         57.285
         1424.5         16.909         58.318
         1425.0         16.553         57.682
         1425.5         16.197         57.046
         1426.0         15.842         56.411
         1426.5         15.486         55.775
         1427.0         15.130         55.139
         1427.5         14.774         54.503
         1428.0         14.337         53.868
         1428.5         13.608         53.232
         1429.0         12.879         52.596
         1429.5         12.936         51.960
         1430.0         15.290         51.469
         1430.5         17.644         51.029
         1431.0         19.998         50.588
         1431.5         20.350         50.148
         1432.0         18.986         49.708
         1432.5         17.621         49.333
         1433.0         17.257         50.092
         1433.5         17.767         50.831
         1434.0         18.277         50.645
         1434.5         18.787         50.458
         1435.0         19.297         50.272
         1435.5         19.806         50.236
         1436.0         20.316         50.911
         1436.5         19.824         51.585
         1437.0         19.065         52.259
         1437.5         18.306         52.769
         1438.0         17.547         52.156
         1438.5         16.787         51.542
         1439.0         16.028         50.929
         1439.5         15.269         50.315
         1440.0         14.510         49.702
         1440.5         15.226         51.371
         1441.0         16.146         54.677
         1441.5         17.066         55.921
         1442.0         17.985         57.166
         1442.5         18.704         58.570
         1443.0         17.615         61.663
         1443.5         16.526         60.674
         1444.0         15.438         59.211
         1444.5         14.633         78.350
         1445.0         15.954         84.465
         1445.5         17.276         88.275
         1446.0         18.597         88.920
         1446.5         19.315         88.761
         1447.0         19.881         87.392
         1447.5         20.447         86.023
         1448.0         21.013         84.654
         1448.5         20.101         83.286
         1449.0         17.507         95.433
         1449.5         15.971         94.447
         1450.0         14.435         93.462
         1450.5         14.895         92.477
         1451.0         15.533         91.491
         1451.5         16.170         90.199
         1452.0         16.807         88.680
         1452.5         17.444         87.161
         1453.0         17.901         85.643
         1453.5         17.354         84.124
         1454.0         16.807         82.605
         1454.5         16.260         81.086
         1455.0         15.999         79.251
         1455.5         16.788         74.236
         1456.0         17.576         67.600
         1456.5         18.365         60.993
         1457.0         19.154         55.421
         1457.5         19.942         57.389
         1458.0         18.940         59.357
         1458.5         17.835         61.325
         1459.0         16.730         63.293
         1459.5         16.871         77.277
         1460.0         18.485         78.467
         1460.5         20.099         79.658
         1461.0         21.713         73.686
         1461.5         23.651         66.068
         1462.0         24.435         58.450
         1462.5         22.017         50.831
         1463.0         19.598         55.442
         1463.5         17.180         54.970
         1464.0         15.171         54.498
         1464.5         14.888         54.026
         1465.0         14.606         64.791
         1465.5         14.324         65.557
         1466.0         14.042         62.719
         1466.5         13.760         59.882
         1467.0         13.635         57.044
         1467.5         13.851         54.206
         1468.0         14.066         51.369
         1468.5         14.281         53.941
         1469.0         14.496         56.525
         1469.5         14.711         56.804
         1470.0         15.237         56.103
         1470.5         16.073         55.402
         1471.0         16.908         54.701
         1471.5         17.744         61.327
         1472.0         18.579         68.175
         1472.5         18.279         75.024
         1473.0         14.323         72.286
         1473.5         13.655         64.981
         1474.0         14.783         57.677
         1474.5         15.911         55.448
         1475.0         17.038         65.270
         1475.5         18.166         75.093
         1476.0         17.258         69.328
         1476.5         16.099         62.567
         1477.0         14.939         55.807
         1477.5         13.780         52.604
         1478.0         12.620         53.249
         1478.5         13.810         53.894
         1479.0         15.252         54.539
         1479.5         16.695         55.184
         1480.0         18.137         55.829
         1480.5         19.121         68.352
         1481.0         17.961         62.343
         1481.5         16.802         56.334
         1482.0         15.642         50.325
         1482.5         14.483         48.180
         1483.0         13.525         56.997
         1483.5         13.432         65.571
         1484.0         13.340         65.521
         1484.5         14.036         65.471
         1485.0         14.995         65.421
         1485.5         15.953         65.370
         1486.0         16.912         68.374
         1486.5         15.793         67.781
         1487.0         14.521         67.146
         1487.5         13.250         70.605
         1488.0         11.978         65.342
         1488.5         10.707         60.079
         1489.0         10.430         54.815
         1489.5         11.454         49.552
         1490.0         12.478         47.759
         1490.5         13.403         49.106
         1491.0         13.410         50.452
         1491.5         13.417         51.799
         1492.0         13.423         52.647
         1492.5         13.430         52.335
         1493.0         13.437         52.024
         1493.5         13.444         51.712
         1494.0         14.678         51.400
         1494.5         16.279         51.089
         1495.0         17.880         54.898
         1495.5         19.481         54.264
         1496.0         20.971         53.630
         1496.5         20.648         52.996
         1497.0         20.325         52.362
         1497.5         20.002         51.727
         1498.0         19.679         54.069
         1498.5         19.356         53.533
