#--------------------------------------------------#
#-------------------ENVERUS, INC.------------------#
#------------------WWW.ENVERUS.COM-----------------#
#------------------COPYRIGHT 2020------------------#
#--------------------------------------------------#
#THIS FILE MAY BE USED ONLY IN ACCORDANCE WITH A CURRENT SUBSCRIPTION AGREEMENT BETWEEN
#THE USER AND ENVERUS, INC. NO PART OF THIS FILE MAY BE REPRODUCED, USED, COPIED,
#MODIFIED, PROPAGATED, OR DISTRIBUTED EXCEPT IN ACCORDANCE WITH THE SUBSCRIPTION
#AGREEMENT. UNAUTHORIZED USE OR DISTRIBUTION OF ALL OR ANY PART OF THIS FILE MAY VIOLATE
#COPYRIGHT, TRADEMARK, AND/OR OTHER LAWS AND IS SUBJECT TO CIVIL AS WELL AS CRIMINAL
#SANCTIONS.
#--------------------------------------------------#
#THIS FILE IS PROVIDED "AS-IS" AND ALL WARRANTIES ARE EXPRESSLY DISCLAIMED, WHETHER
#EXPRESS, ORAL, IMPLIED, STATUTORY OR OTHERWISE, INCLUDING ANY IMPLIED WARRANTY OF FITNESS
#FOR A PARTICULAR PURPOSE, MERCHANTABILITY, TITLE OR NON-INFRINGEMENT, AND ANY WARRANTIES
#ARISING BY VIRTUE OF CUSTOM OF TRADE OR COURSE OF DEALING.  FURTHER, ENVERUS, INC.
#AND ITS LICENSORS DO NOT REPRESENT OR WARRANT THAT THIS FILE WILL MEET USER'S
#REQUIREMENTS OR ARE SUITABLE FOR USER'S NEEDS OR THAT THE DATA OR RESULTS PROVIDED IN
#CONJUNCTION THEREWITH ARE CORRECT, ACCURATE, TIMELY OR RELIABLE. THESE DISCLAIMERS SHALL
#APPLY REGARDLESS OF ANY FAILURE OF ESSENTIAL PURPOSE OF ANY LIMITED REMEDY.  SOME
#JURISDICTIONS DO NOT ALLOW THE EXCLUSION OF CERTAIN WARRANTIES SO SOME OF THE ABOVE
#EXCLUSIONS MAY NOT APPLY. IN NO EVENT SHALL ENVERUS, INC. OR ANY OF ITS AFFILIATES
#BE LIABLE UNDER ANY LEGAL THEORY, WHETHER IN TORT (INCLUDING WITHOUT LIMITATION
#NEGLIGENCE), CONTRACT, STRICT LIABILITY, STATUTORY OR OTHERWISE, FOR ANY SPECIAL,
#INCIDENTAL, CONSEQUENTIAL, EXEMPLARY, PUNITIVE OR INDIRECT DAMAGE OF ANY KIND, INCLUDING
#WITHOUT LIMITATION LOSS OF REVENUE, PROFITS, GOODWILL, USE, AND/OR DATA OR THE COST OF
#PROCUREMENT OF SUBSTITUTE GOODS OR SERVICES, EVEN IF APPRISED OF THE POSSIBILITY OF SUCH
#DAMAGES IN ADVANCE.
#--------------------------------------------------#

~VERSION INFORMATION
VERS. 2.0 : CWLS LOG ASCII STANDARD - VERSION 2.0
WRAP.  NO : ONE LINE PER DEPTH STEP
~WELL INFORMATION
#MNEMONIC     .UNIT              VALUE :DESCRIPTION
STRT       .FT                429 :START DEPTH
STOP       .FT                6365 :STOP DEPTH
STEP       .FT                   0.500 :STEP
NULL       .                  -999.99 :NULL
UWI        .                42371100750000 :UNIQUE WELL ID
API        .                42371100750000 :API NUMBER
COMP       .         :COMPANY
WELL       .        :WELL
DATE       .                 :LOG DATE
FLD       .                 :FIELD NAME
LOC       .                  UNK :LOCATION
CNTY       .                 UNK :COUNTY
STAT       .                 UNK :STATE
CTRY       .                 UNK :COUNTY
SRVC       .                 UNK :SERVICE COMPANY
~CURVE INFORMATION
#MNEMONIC     .UNIT      API CODE :CURVE DESCRIPTION
DEPTH       .FT                      :MEASURED DEPTH
DT.MSEC/FT        UNKNOWN   :DT
GR.API        UNKNOWN   :GR
~A    DEPTH    DT    GR
# ...
 5129.5     50.57748   18.19502
 5130     50.55085   19.18185
 5130.5     50.37304   18.29287
 5131     50.19524   17.27285
 5131.5     50.17817   16.25283
 5132     50.33211   15.81217
 5132.5     50.437   16.70451
 5133     50.49366   16.70009
 5133.5     50.55033   16.69566
 5134     50.62049   16.69124
 5134.5     50.69437   16.68681
 5135     50.76826   16.68239
 5135.5     50.84215   16.51302
 5136     50.91604   16.2967
 5136.5     50.887   16.08038
 5137     50.78589   16.90484
 5137.5     50.68478   17.97936
 5138     50.73179   19.05388
 5138.5     50.86878   19.03328
 5139     50.84302   17.98323
 5139.5     50.56795   16.4181
 5140     50.29288   14.85297
 5140.5     50.6172   13.64437
 5141     50.9892   14.91552
 5141.5     51.3612   18.78176
 5142     51.58145   24.08315
 5142.5     51.62076   31.96724
 5143     51.52463   36.3896
 5143.5     51.16242   36.15739
 5144     50.43287   34.88375
 5144.5     50.7777   35.37402
 5145     53.98095   38.69526
 5145.5     53.85884   44.90039
 5146     51.2136   51.10551
 5146.5     49.94328   58.70159
 5147     49.76641   67.33184
 5147.5     49.88979   73.62651
 5148     64.36474   76.78579
 5148.5     77.04829   87.903
 5149     77.1696   89.2157
 5149.5     73.73081   90.52841
 5150     69.5459   92.20414
 5150.5     66.09895   95.93962
 5151     66.02333   103.96862
 5151.5     65.48851   112.9082
 5152     64.32582   121.84778
 5152.5     66.01557   122.4552
 5153     67.76786   118.75726
 5153.5     69.63552   115.05933
 5154     67.53166   110.86476
 5154.5     65.24941   106.38013
 5155     65.95031   103.36937
 5155.5     66.65121   103.99623
 5156     66.03846   105.69479
 5156.5     64.70093   107.16069
 5157     62.97729   104.62576
 5157.5     63.04256   102.09083
 5158     64.59843   99.5559
 5158.5     67.85053   98.18538
 5159     67.8515   97.72033
 5159.5     67.10567   100.42008
 5160     65.80718   103.99051
 5160.5     65.10513   107.56093
 5161     64.93131   111.13136
 5161.5     64.91038   110.4557
 5162     64.88944   105.51294
 5162.5     65.6376   100.57019
 5163     66.4322   98.49831
 5163.5     66.38604   98.55179
 5164     66.33988   98.7781
 5164.5     65.81904   100.19181
 5165     64.74145   101.60552
 5165.5     65.08613   103.01924
 5166     65.14726   102.56486
 5166.5     64.84142   90.05365
 5167     63.55185   77.54245
 5167.5     62.62889   71.57331
 5168     61.67009   65.87069
 5168.5     59.46912   60.16806
 5169     57.26814   56.56723
 5169.5     56.30948   54.67371
 5170     55.78819   53.0848
 5170.5     54.66044   51.03623
 5171     53.18702   45.5313
 5171.5     51.71361   41.73209
 5172     52.81986   41.62975
 5172.5     54.11335   39.41444
 5173     53.27856   38.55661
 5173.5     53.13814   40.07179
 5174     53.36806   41.64974
 5174.5     52.96998   43.90185
 5175     52.64027   45.61694
 5175.5     52.66165   45.22108
 5176     52.68304   42.22925
 5176.5     52.70442   38.39352
 5177     53.09758   34.5578
 5177.5     53.4913   33.59633
 5178     53.45805   33.726
 5178.5     52.58066   35.12899
 5179     52.4284   37.34329
 5179.5     52.45424   39.55759
 5180     52.54701   41.77189
 5180.5     52.39648   60.94765
 5181     51.90782   63.78408
 5181.5     51.39681   64.27807
 5182     50.95667   62.43603
 5182.5     52.5781   55.98551
 5183     55.92361   51.82861
 5183.5     59.26913   51.33735
 5184     59.25294   52.53395
 5184.5     57.48051   56.42467
 5185     56.23262   61.22389
 5185.5     56.46297   66.0231
 5186     56.69331   70.75632
 5186.5     58.55107   62.68062
 5187     61.66386   56.32118
 5187.5     61.23717   51.47219
 5188     60.14469   46.97272
 5188.5     61.47975   43.36447
 5189     64.81818   43.29906
 5189.5     65.16303   44.67726
 5190     64.03328   46.05545
 5190.5     59.98693   47.43364
 5191     58.6702   48.81183
 5191.5     60.48487   49.49263
 5192     66.23737   49.06457
 5192.5     73.07277   48.63651
 5193     70.85913   48.39457
 5193.5     67.33365   48.45721
 5194     69.85603   48.84939
 5194.5     71.58116   50.15544
 5195     72.27484   51.46148
 5195.5     72.98895   52.76753
 5196     73.87761   53.6256
 5196.5     74.76627   52.13763
 5197     75.3838   50.64966
 5197.5     75.78653   49.16168
 5198     76.18926   47.67371
 5198.5     76.59199   46.18574
 5199     76.54672   46.20615
 5199.5     76.1179   46.37141
 5200     76.34813   46.53668
 5200.5     77.43475   46.2252
 5201     77.75003   45.56227
 5201.5     78.00695   44.89934
 5202     77.93588   45.04833
 5202.5     77.86481   45.81868
 5203     77.79374   46.58904
 5203.5     77.89634   47.35939
 5204     78.20281   48.12974
 5204.5     78.50927   48.90009
 5205     78.81574   50.84069
 5205.5     77.37438   52.90848
 5206     79.33309   54.97628
 5206.5     77.43972   53.77138
 5207     76.08727   51.10325
 5207.5     74.64544   48.43513
 5208     73.20362   47.05167
 5208.5     75.73037   46.69671
 5209     77.46192   46.34175
 5209.5     77.50118   46.70975
 5210     76.93309   48.57245
 5210.5     76.21601   49.61813
 5211     76.09535   50.55819
 5211.5     77.47755   51.49826
 5212     78.57684   51.45882
 5212.5     78.27119   51.29559
 5213     77.62915   50.77752
 5213.5     77.20628   48.9751
 5214     77.08467   47.17267
 5214.5     76.96307   45.37024
 5215     77.10928   44.81381
 5215.5     78.02311   44.66818
 5216     78.5108   44.52255
 5216.5     78.66465   44.37691
 5217     78.81849   45.26304
 5217.5     78.55032   46.5026
 5218     76.81964   47.74217
 5218.5     77.77127   48.98173
 5219     79.3908   48.8862
 5219.5     81.47325   45.77407
 5220     81.51238   42.66194
 5220.5     81.13825   40.4078
 5221     80.29249   39.48634
 5221.5     78.8942   39.85701
 5222     77.3481   42.45071
 5222.5     75.04366   45.81369
 5223     72.22195   49.17667
 5223.5     68.82103   54.42491
 5224     66.57028   61.41962
 5224.5     65.09678   68.06643
 5225     68.30417   71.96067
 5225.5     74.21027   75.85491
 5226     73.55991   79.74915
 5226.5     72.24787   83.64339
 5227     70.93584   87.53763
 5227.5     69.95347   91.43187
 5228     69.17295   97.81844
 5228.5     68.39243   99.6965
 5229     68.87871   96.89069
 5229.5     69.51696   94.08489
 5230     70.4793   72.45366
 5230.5     71.69422   69.11182
 5231     72.90915   65.76998
 5231.5     73.41665   62.42814
 5232     72.47183   62.17902
 5232.5     71.4767   63.73554
 5233     70.09484   64.29942
 5233.5     67.39111   63.75889
 5234     66.40273   62.45283
 5234.5     72.67462   61.14677
 5235     75.44184   59.84071
 5235.5     74.09736   58.70228
 5236     72.73276   59.64208
 5236.5     72.08447   63.84062
 5237     72.25531   68.03915
 5237.5     72.25587   71.15333
 5238     72.40676   70.22089
 5238.5     75.40345   67.04756
 5239     79.86438   63.87423
 5239.5     80.23321   60.70091
 5240     79.48369   57.52758
 5240.5     78.80114   56.54634
 5241     77.94871   57.9209
 5241.5     76.04319   59.29546
 5242     76.57345   61.96704
 5242.5     76.16793   63.86959
 5243     75.33303   63.69949
 5243.5     74.49813   63.52938
 5244     75.70649   65.19621
 5244.5     75.84477   67.25186
 5245     75.70637   65.34495
 5245.5     77.11784   62.64116
 5246     80.02882   59.93736
 5246.5     79.4737   57.23357
 5247     78.91574   54.52978
 5247.5     81.1371   54.90941
 5248     80.60629   55.62005
 5248.5     78.76644   56.3307
 5249     80.46038   57.04134
 5249.5     82.15431   56.94769
 5250     82.07036   55.3513
 5250.5     79.81454   53.75491
 5251     81.80621   52.15852
 5251.5     83.0206   50.56213
 5252     83.07639   52.00517
 5252.5     82.832   53.47443
 5253     82.16758   54.94369
 5253.5     81.31281   56.41296
 5254     78.22273   57.88222
 5254.5     77.56826   59.03372
 5255     79.71573   59.1039
 5255.5     78.68655   58.19532
 5256     77.82503   55.34977
 5256.5     77.48501   52.50423
 5257     79.38483   49.65868
 5257.5     80.8242   48.17979
 5258     82.99103   47.16043
 5258.5     82.24087   46.14107
 5259     82.12166   48.14062
