#--------------------------------------------------#
#-------------------ENVERUS, INC.------------------#
#------------------WWW.ENVERUS.COM-----------------#
#------------------COPYRIGHT 2020------------------#
#--------------------------------------------------#
#THIS FILE MAY BE USED ONLY IN ACCORDANCE WITH A CURRENT SUBSCRIPTION AGREEMENT BETWEEN
#THE USER AND ENVERUS, INC. NO PART OF THIS FILE MAY BE REPRODUCED, USED, COPIED,
#MODIFIED, PROPAGATED, OR DISTRIBUTED EXCEPT IN ACCORDANCE WITH THE SUBSCRIPTION
#AGREEMENT. UNAUTHORIZED USE OR DISTRIBUTION OF ALL OR ANY PART OF THIS FILE MAY VIOLATE
#COPYRIGHT, TRADEMARK, AND/OR OTHER LAWS AND IS SUBJECT TO CIVIL AS WELL AS CRIMINAL
#SANCTIONS.
#--------------------------------------------------#
#THIS FILE IS PROVIDED "AS-IS" AND ALL WARRANTIES ARE EXPRESSLY DISCLAIMED, WHETHER
#EXPRESS, ORAL, IMPLIED, STATUTORY OR OTHERWISE, INCLUDING ANY IMPLIED WARRANTY OF FITNESS
#FOR A PARTICULAR PURPOSE, MERCHANTABILITY, TITLE OR NON-INFRINGEMENT, AND ANY WARRANTIES
#ARISING BY VIRTUE OF CUSTOM OF TRADE OR COURSE OF DEALING.  FURTHER, ENVERUS, INC.
#AND ITS LICENSORS DO NOT REPRESENT OR WARRANT THAT THIS FILE WILL MEET USER'S
#REQUIREMENTS OR ARE SUITABLE FOR USER'S NEEDS OR THAT THE DATA OR RESULTS PROVIDED IN
#CONJUNCTION THEREWITH ARE CORRECT, ACCURATE, TIMELY OR RELIABLE. THESE DISCLAIMERS SHALL
#APPLY REGARDLESS OF ANY FAILURE OF ESSENTIAL PURPOSE OF ANY LIMITED REMEDY.  SOME
#JURISDICTIONS DO NOT ALLOW THE EXCLUSION OF CERTAIN WARRANTIES SO SOME OF THE ABOVE
#EXCLUSIONS MAY NOT APPLY. IN NO EVENT SHALL ENVERUS, INC. OR ANY OF ITS AFFILIATES
#BE LIABLE UNDER ANY LEGAL THEORY, WHETHER IN TORT (INCLUDING WITHOUT LIMITATION
#NEGLIGENCE), CONTRACT, STRICT LIABILITY, STATUTORY OR OTHERWISE, FOR ANY SPECIAL,
#INCIDENTAL, CONSEQUENTIAL, EXEMPLARY, PUNITIVE OR INDIRECT DAMAGE OF ANY KIND, INCLUDING
#WITHOUT LIMITATION LOSS OF REVENUE, PROFITS, GOODWILL, USE, AND/OR DATA OR THE COST OF
#PROCUREMENT OF SUBSTITUTE GOODS OR SERVICES, EVEN IF APPRISED OF THE POSSIBILITY OF SUCH
#DAMAGES IN ADVANCE.
#--------------------------------------------------#

~VERSION INFORMATION
VERS. 2.0 : CWLS LOG ASCII STANDARD - VERSION 2.0
WRAP.  NO : ONE LINE PER DEPTH STEP
~WELL INFORMATION
#MNEMONIC     .UNIT              VALUE :DESCRIPTION
STRT       .FT                101 :START DEPTH
STOP       .FT                5382 :STOP DEPTH
STEP       .FT                   0.500 :STEP
NULL       .                  -999.990 :NULL
UWI        .              42389007790000 :UNIQUE WELL ID
API        .              42389007790000 :API NUMBER
COMP       .         :COMPANY
WELL       .         1, :WELL
DATE       .                            :LOG DATE
~CURVE INFORMATION
#MNEMONIC     .UNIT      API CODE :CURVE DESCRIPTION
DEPTH       .FT                      :MEASURED DEPTH
DT.US/FT        UNKNOWN   :DT
GR.API        UNKNOWN   :GR
~A    DEPTH    DT    GR
# ...
 4482.5     51.023   12.367
 4483     51.034   11.6
 4483.5     51.045   10.833
 4484     50.898   10.065
 4484.5     50.724   9.812
 4485     50.549   10.045
 4485.5     50.374   10.278
 4486     50.199   10.512
 4486.5     50.024   10.745
 4487     49.85   10.979
 4487.5     49.675   11.212
 4488     49.5   9.968
 4488.5     49.325   8.608
 4489     49.15   7.247
 4489.5     49.057   6.504
 4490     49.189   6.936
 4490.5     49.321   7.369
 4491     49.454   7.801
 4491.5     49.586   7.527
 4492     49.718   7.079
 4492.5     49.85   6.631
 4493     49.982   6.184
 4493.5     50.115   6.684
 4494     50.247   7.533
 4494.5     50.274   8.381
 4495     50.217   9.229
 4495.5     50.16   10.078
 4496     50.103   9.617
 4496.5     50.045   8.558
 4497     49.988   7.498
 4497.5     49.931   6.439
 4498     49.874   5.52
 4498.5     49.817   6.082
 4499     49.813   6.645
 4499.5     49.813   7.207
 4500     49.813   7.769
 4500.5     49.813   8.331
 4501     50.158   8.894
 4501.5     51.08   9.445
 4502     51.193   9.032
 4502.5     51.08   8.619
 4503     50.967   8.206
 4503.5     50.853   7.793
 4504     50.74   7.379
 4504.5     50.626   6.966
 4505     50.513   6.769
 4505.5     50.466   6.899
 4506     50.681   7.03
 4506.5     50.896   7.161
 4507     51.11   7.292
 4507.5     51.325   7.422
 4508     51.539   7.553
 4508.5     51.754   7.526
 4509     51.969   7.128
 4509.5     52.022   6.73
 4510     51.921   6.558
 4510.5     51.819   7.077
 4511     51.717   7.596
 4511.5     51.615   8.115
 4512     51.513   8.634
 4512.5     51.412   9.153
 4513     51.31   9.672
 4513.5     51.208   10.044
 4514     51.106   9.686
 4514.5     51.004   9.328
 4515     50.903   8.97
 4515.5     50.801   8.612
 4516     50.699   8.254
 4516.5     50.597   7.896
 4517     50.495   7.538
 4517.5     50.394   7.42
 4518     50.292   7.507
 4518.5     50.19   7.595
 4519     50.378   7.683
 4519.5     50.634   7.771
 4520     50.89   7.859
 4520.5     51.147   7.946
 4521     51.403   8.034
 4521.5     51.659   8.122
 4522     51.876   8.21
 4522.5     51.815   8.298
 4523     51.754   8.385
 4523.5     51.694   8.473
 4524     51.633   8.561
 4524.5     51.572   9.086
 4525     51.512   10.467
 4525.5     51.451   11.848
 4526     51.395   13.228
 4526.5     51.55   14.609
 4527     51.706   15.99
 4527.5     51.861   15.705
 4528     52.017   15.024
 4528.5     52.172   14.342
 4529     52.098   13.894
 4529.5     52.001   14.197
 4530     51.904   14.5
 4530.5     51.807   14.804
 4531     51.709   15.107
 4531.5     51.612   15.41
 4532     51.515   15.48
 4532.5     51.501   14.338
 4533     51.66   13.197
 4533.5     51.82   12.055
 4534     51.979   10.913
 4534.5     52.138   9.771
 4535     52.298   8.67
 4535.5     52.392   9.124
 4536     52.201   9.578
 4536.5     52.009   10.033
 4537     51.818   10.487
 4537.5     51.757   10.941
 4538     51.764   11.395
 4538.5     51.771   10.441
 4539     51.778   9.419
 4539.5     51.785   8.397
 4540     51.792   8.221
 4540.5     51.798   9.435
 4541     51.805   10.648
 4541.5     51.815   11.862
 4542     51.961   12.362
 4542.5     52.106   11.542
 4543     52.251   10.722
 4543.5     52.396   9.902
 4544     52.541   9.249
 4544.5     52.686   9.051
 4545     52.832   8.852
 4545.5     52.146   8.654
 4546     51.332   8.456
 4546.5     50.519   8.746
 4547     49.706   9.251
 4547.5     48.892   9.755
 4548     48.996   10.26
 4548.5     49.126   10.764
 4549     49.257   11.269
 4549.5     49.387   11.647
 4550     49.518   11.95
 4550.5     49.451   12.253
 4551     49.021   12.556
 4551.5     48.59   12.859
 4552     48.159   13.162
 4552.5     47.729   13.465
 4553     47.721   13.768
 4553.5     48.432   13.649
 4554     49.144   13.144
 4554.5     49.855   12.639
 4555     50.566   12.134
 4555.5     51.179   11.629
 4556     51.075   11.124
 4556.5     50.971   10.619
 4557     50.867   10.86
 4557.5     50.88   11.18
 4558     50.978   11.501
 4558.5     51.076   11.822
 4559     51.174   12.143
 4559.5     51.272   12.464
 4560     51.37   12.784
 4560.5     51.245   13.105
 4561     51.114   13.077
 4561.5     50.982   12.205
 4562     50.85   11.333
 4562.5     50.719   10.461
 4563     50.587   9.59
 4563.5     50.455   8.718
 4564     50.324   7.846
 4564.5     50.192   7.89
 4565     50.06   8.408
 4565.5     49.929   8.927
 4566     49.797   9.325
 4566.5     49.665   8.802
 4567     49.534   8.28
 4567.5     49.402   7.757
 4568     49.27   7.278
 4568.5     49.139   7.762
 4569     49.007   8.247
 4569.5     49.092   8.731
 4570     49.232   9.215
 4570.5     49.373   9.7
 4571     49.514   10.184
 4571.5     49.654   10.669
 4572     49.795   10.617
 4572.5     49.935   9.921
 4573     50.076   9.225
 4573.5     50.17   8.528
 4574     49.865   7.832
 4574.5     49.559   7.136
 4575     49.282   7.007
 4575.5     49.272   7.999
 4576     49.261   8.99
 4576.5     49.251   9.982
 4577     49.241   10.974
 4577.5     49.23   11.966
 4578     49.218   10.586
 4578.5     48.875   8.571
 4579     48.532   7.07
 4579.5     48.189   7.421
 4580     47.846   7.772
 4580.5     47.504   8.122
 4581     47.449   8.473
 4581.5     47.394   8.824
 4582     47.338   9.174
 4582.5     47.283   9.525
 4583     47.228   9.875
 4583.5     47.08   10.226
 4584     46.808   10.125
 4584.5     46.537   9.717
 4585     46.266   9.309
 4585.5     45.994   8.901
 4586     46.352   8.492
 4586.5     46.77   8.084
 4587     47.188   7.676
 4587.5     47.605   7.268
 4588     48.023   6.859
 4588.5     48.441   6.451
 4589     48.858   6.661
 4589.5     49.024   6.921
 4590     48.697   7.181
 4590.5     48.84   7.869
 4591     48.984   9.257
 4591.5     49.127   10.645
 4592     49.271   12.034
 4592.5     49.1   11.146
 4593     48.679   9.881
 4593.5     48.258   8.616
 4594     47.851   7.352
 4594.5     47.659   6.915
 4595     47.466   6.734
 4595.5     47.273   6.553
 4596     47.08   6.372
 4596.5     46.888   6.192
 4597     46.704   6.011
 4597.5     46.943   5.83
 4598     47.181   5.649
 4598.5     47.419   5.468
 4599     47.715   5.288
 4599.5     48.087   5.107
 4600     48.459   5.324
 4600.5     48.831   10.504
 4601     48.798   11.146
 4601.5     48.67   8.781
 4602     48.542   8.159
 4602.5     48.415   9.024
 4603     48.287   9.89
 4603.5     48.16   10.743
 4604     48.032   9.75
 4604.5     47.905   8.757
 4605     47.777   7.764
 4605.5     47.65   8.006
 4606     47.747   8.327
 4606.5     47.937   8.648
 4607     48.127   8.969
 4607.5     48.317   9.289
 4608     48.507   9.61
 4608.5     48.697   9.931
 4609     48.887   10.252
 4609.5     49.077   10.154
 4610     49.266   9.2
 4610.5     49.456   8.246
 4611     49.646   8.618
 4611.5     49.621   9.375
 4612     49.322   10.132
 4612.5     49.023   10.889
 4613     48.724   10.34
 4613.5     48.426   9.319
 4614     48.649   8.298
 4614.5     48.914   7.515
 4615     49.178   8.019
 4615.5     49.443   8.524
 4616     49.595   9.028
 4616.5     49.487   9.532
 4617     49.379   10.037
 4617.5     49.271   10.44
 4618     49.163   9.744
 4618.5     49.055   9.048
 4619     48.947   8.386
 4619.5     48.839   9.052
 4620     48.731   9.718
 4620.5     48.695   10.383
 4621     48.942   11.049
 4621.5     49.19   11.715
 4622     49.437   11.339
 4622.5     49.684   10.931
 4623     49.932   10.523
 4623.5     50.179   10.115
 4624     50.27   9.706
 4624.5     50.222   9.298
 4625     50.173   8.89
 4625.5     50.125   8.482
 4626     50.076   8.074
 4626.5     50.174   7.749
 4627     50.446   7.617
 4627.5     50.718   7.486
 4628     50.99   7.355
 4628.5     51.048   7.223
 4629     51.072   7.47
 4629.5     51.096   7.859
 4630     51.12   8.248
 4630.5     51.144   8.637
 4631     51.167   9.026
 4631.5     51.191   9.415
 4632     51.24   9.804
 4632.5     51.371   9.893
 4633     51.503   9.809
 4633.5     51.634   9.725
 4634     51.766   9.642
 4634.5     51.868   9.558
 4635     51.757   9.474
 4635.5     51.647   9.39
