###############################################
##         ENVERUS                           ##
##         ESS - Open Hole                   ##
##         PERMIAN / DELAWARE                ##
##         Nov 04 2023  V4.0                 ##
##         42-389-10116-00-00                ##
###############################################
## Copyright 2017-2023  ENVERUS.  All Rights Reserved. 
## Confidential - Property of ENVERUS, use governed by terms and 
## conditions found within the existing Information Services Subscription Agreement 
## (as may be amended, the “ISSA”) between Customer and ENVERUS. 
## 
~VERSION INFORMATION
# MNEM.UNIT                               DATA : DESCRIPTION OF MNEMONIC
#-----.-----     ----------------------------- : -----------------------------
VERS.                                     2.00 : CWLS LOG ASCII STANDARD - VERSION 2.00
WRAP.                                       NO : MULTIPLE LINES PER DEPTH STEP
VEND.                                  ENVERUS : VENDOR
TYPE.                          ESS - OPEN HOLE : ENVERUS ESSENTIAL CURVES – ACCESSIBLE THROUGH ENVERUS PRISM(TM)
DOC.                                  31818149 : ENVERUS HEADER RAW DOCUMENT ID
#___________________________________________________________________________________________________ 
~WELL INFORMATION 
# kxSJJvG4Ro99GqojvmaAoFb8nmZsGWyMBdB6Op61yYkHZj6VRdx+Ef4kBXz5Syac/VH6awax3Ll89xsC2rvs8g== 
# MNEM.UNIT                                              DATA : DESCRIPTION OF MNEMONIC 
#-----.-----                    ----------------------------- : ----------------------------- 
CNTY.                                                  REEVES : COUNTY 
STATE.                                                  TEXAS : STATE 
CNTRY.                                                    USA : COUNTRY 
API.                                             42-389-10116 : API (10 Digit) 
API_14.                                    42-389-10116-00-00 : API (14 Digits) 
API_14_std.                                 42-389-10116-0000 : API (14 Digits Standard) 
UWI.                                           42389101160000 : UNIQUE WELL ID 
WELL.                                            WOODS -A-  1 : WELL NAME
STRT.FT                                                 107.0 : START DEPTH
STOP.FT                                                5258.0 : STOP DEPTH
STEP.FT                                                   0.5 : STEP BETWEEN DEPTHS
NULL.                                                 -999.25 : NULL VALUE
COMP.                              PHILLIPS PETROLEUM COMPANY : COMPANY
#___________________________________________________________________________________________________ 
~CURVE INFORMATION 
# MNEM.UNIT           : CURVE DESCRIPTION 
#-----.-----          : ----------------------------- 
 DEPT.FT               : MEASURED DEPTH 
 GR.API                : GAMMA RAY (GR) 
 DT.US/FT              : SONIC DELTA TRANSIT TIME (DT) 
 #___________________________________________________________________________________________________ 
~A         DEPT             GR             DT
# ...
          455.0         44.921       -999.250
          455.5         44.755       -999.250
          456.0         44.590       -999.250
          456.5         45.947       -999.250
          457.0         46.942       -999.250
          457.5         45.459       -999.250
          458.0         43.977       -999.250
          458.5         44.293       -999.250
          459.0         46.174       -999.250
          459.5         48.055       -999.250
          460.0         49.926       -999.250
          460.5         51.748       -999.250
          461.0         53.570       -999.250
          461.5         53.075       -999.250
          462.0         51.872       -999.250
          462.5         50.669       -999.250
          463.0         50.328       -999.250
          463.5         51.716       -999.250
          464.0         51.650       -999.250
          464.5         49.436       -999.250
          465.0         48.465       -999.250
          465.5         49.157       -999.250
          466.0         49.849       -999.250
          466.5         50.540       -999.250
          467.0         50.525       -999.250
          467.5         49.938       -999.250
          468.0         49.351       -999.250
          468.5         48.764       -999.250
          469.0         48.177       -999.250
          469.5         47.825       -999.250
          470.0         48.552       -999.250
          470.5         49.279       -999.250
          471.0         50.006       -999.250
          471.5         50.732       -999.250
          472.0         49.808       -999.250
          472.5         48.522       -999.250
          473.0         48.305       -999.250
          473.5         49.949       -999.250
          474.0         50.340       -999.250
          474.5         49.138       -999.250
          475.0         47.936       -999.250
          475.5         46.763       -999.250
          476.0         51.078       -999.250
          476.5         50.416       -999.250
          477.0         49.754       -999.250
          477.5         49.092       -999.250
          478.0         48.431       -999.250
          478.5         47.769       -999.250
          479.0         47.319       -999.250
          479.5         47.744       -999.250
          480.0         48.170       -999.250
          480.5         48.595       -999.250
          481.0         49.021       -999.250
          481.5         49.447       -999.250
          482.0         49.872       -999.250
          482.5         48.295       -999.250
          483.0         46.465       -999.250
          483.5         44.635       -999.250
          484.0         43.843       -999.250
          484.5         44.396       -999.250
          485.0         44.950       -999.250
          485.5         45.503       -999.250
          486.0         46.057       -999.250
          486.5         45.126       -999.250
          487.0         43.422       -999.250
          487.5         43.925       -999.250
          488.0         44.428       -999.250
          488.5         44.931       -999.250
          489.0         45.434       -999.250
          489.5         46.108       -999.250
          490.0         47.275       -999.250
          490.5         48.442       -999.250
          491.0         49.609       -999.250
          491.5         50.775       -999.250
          492.0         51.942       -999.250
          492.5         53.109       -999.250
          493.0         54.276       -999.250
          493.5         54.057       -999.250
          494.0         52.646       -999.250
          494.5         51.235       -999.250
          495.0         49.823       -999.250
          495.5         48.412       -999.250
          496.0         47.001       -999.250
          496.5         45.590       -999.250
          497.0         44.614       -999.250
          497.5         43.870       -999.250
          498.0         43.126       -999.250
          498.5         42.383       -999.250
          499.0         46.951       -999.250
          499.5         50.760       -999.250
          500.0         49.524       -999.250
          500.5         48.288       -999.250
          501.0         47.052       -999.250
          501.5         45.817       -999.250
          502.0         45.704       -999.250
          502.5         47.069       -999.250
          503.0         48.433       -999.250
          503.5         49.798       -999.250
          504.0         51.162       -999.250
          504.5         50.647       -999.250
          505.0         48.957       -999.250
          505.5         47.267       -999.250
          506.0         46.017       -999.250
          506.5         46.986       -999.250
          507.0         47.955       -999.250
          507.5         48.925       -999.250
          508.0         49.894       -999.250
          508.5         50.863       -999.250
          509.0         51.833       -999.250
          509.5         51.360       -999.250
          510.0         50.699       -999.250
          510.5         50.038       -999.250
          511.0         50.721       -999.250
          511.5         51.477       -999.250
          512.0         52.232       -999.250
          512.5         52.987       -999.250
          513.0         53.460       -999.250
          513.5         51.680       -999.250
          514.0         49.901       -999.250
          514.5         48.121       -999.250
          515.0         46.342       -999.250
          515.5         44.562       -999.250
          516.0         42.782       -999.250
          516.5         44.016       -999.250
          517.0         46.565       -999.250
          517.5         47.165       -999.250
          518.0         47.238       -999.250
          518.5         47.311       -999.250
          519.0         45.963       -999.250
          519.5         42.325       -999.250
          520.0         42.103       -999.250
          520.5         47.482       -999.250
          521.0         47.321       -999.250
          521.5         47.032       -999.250
          522.0         46.743       -999.250
          522.5         46.454       -999.250
          523.0         46.165       -999.250
          523.5         46.189       -999.250
          524.0         48.429       -999.250
          524.5         50.668       -999.250
          525.0         50.258       -999.250
          525.5         48.887       -999.250
          526.0         47.516       -999.250
          526.5         46.145       -999.250
          527.0         45.857       -999.250
          527.5         48.030       -999.250
          528.0         50.204       -999.250
          528.5         52.377       -999.250
          529.0         54.550       -999.250
          529.5         56.477       -999.250
          530.0         53.078       -999.250
          530.5         49.680       -999.250
          531.0         46.393       -999.250
          531.5         45.685       -999.250
          532.0         44.977       -999.250
          532.5         44.269       -999.250
          533.0         46.810       -999.250
          533.5         48.917       -999.250
          534.0         51.024       -999.250
          534.5         50.419       -999.250
          535.0         48.940       -999.250
          535.5         47.461       -999.250
          536.0         45.982       -999.250
          536.5         44.504       -999.250
          537.0         43.595       -999.250
          537.5         42.803       -999.250
          538.0         43.887       -999.250
          538.5         48.021       -999.250
          539.0         48.441       -999.250
          539.5         48.743       -999.250
          540.0         49.046       -999.250
          540.5         49.348       -999.250
          541.0         49.650       -999.250
          541.5         49.952       -999.250
