###############################################
##         ENVERUS                           ##
##         Petrophysical Curves              ##
##         PERMIAN / DELAWARE                ##
##         Jan 21 2022                       ##
##         42-389-10491-00-00                ##
###############################################
## Copyright 2017-2022  ENVERUS.  All Rights Reserved. 
## Confidential - Property of ENVERUS, use governed by terms and 
## conditions found within the existing Information Services Subscription Agreement 
## (as may be amended, the “ISSA”) between Customer and ENVERUS. 
## 
~VERSION INFORMATION
# MNEM.UNIT                               DATA : DESCRIPTION OF MNEMONIC
#-----.-----     ----------------------------- : -----------------------------
VERS.                                     2.00 : CWLS LOG ASCII STANDARD - VERSION 2.00
WRAP.                                       NO : MULTIPLE LINES PER DEPTH STEP
VEND.                                  ENVERUS : VENDOR
TYPE.                     PETROPHYSICAL CURVES : ENVERUS PETROPHYSICAL CURVES - ACCESSIBLE THROUGH ENVERUS CORE(TM)
#___________________________________________________________________________________________________ 
~WELL INFORMATION 
# uyaQ8P8kQDJ9DXFS5hR1PxmExEOYaAUkY5f3/tnOS+scoPAUWgXA1zCIHGRbWCuSuUcwDzaESCjqjWQ81XhadA== 
# MNEM.UNIT                                              DATA : DESCRIPTION OF MNEMONIC 
#-----.-----                    ----------------------------- : ----------------------------- 
CNTY.                                                  REEVES : COUNTY 
STATE.                                                  TEXAS : STATE 
CNTRY.                                                    USA : COUNTRY 
API.                                             42-389-10491 : API (10 Digit) 
API_14.                                    42-389-10491-00-00 : API (14 Digits) 
API_14_std.                                 42-389-10491-0000 : API (14 Digits Standard) 
UWI.                                           42389104910000 : UNIQUE WELL ID
STRT.FT                                                 102.0 : START DEPTH
STOP.FT                                                9071.0 : STOP DEPTH
STEP.FT                                                   0.5 : STEP BETWEEN DEPTHS
NULL.                                                 -999.25 : NULL VALUE
COMP.                                FLAT CREEK RESOURCES LLC : COMPANY 
WELL.                                         REEVES-AW-FEE 1 : WELL NAME 
FLD.                                                     TORO : FIELD NAME
#___________________________________________________________________________________________________ 
~CURVE INFORMATION 
#    Zone Description
#          1 = Upper Avalon
#          2 = Middle Avalon
#          3 = Lower Avalon
#          4 = 1st Bone Spring
#          5 = 2nd Bone Spring
#          6 = 2nd Bone Spring Sand
#          7 = 3rd Bone Spring
#          8 = 3rd Bone Spring Sand
#          9 = Wolfcamp XY
#          10 = Wolfcamp A Upper
#          11 = Wolfcamp A Lower
#          12 = Wolfcamp B Upper
#          13 = Wolfcamp B Lower
#          14 = Wolfcamp C
#          15 = Wolfcamp D
#          16 = Pennsylvanian Shale
#          17 = Lower Pennsylvanian Shale
#          18 = Barnett
#          19 = Barnett Lower
#          20 = Mississippian Lime
#          21 = Woodford
#          22 = Base Woodford 
# MNEM.UNIT           : CURVE DESCRIPTION 
#-----.-----          : ----------------------------- 
 DEPT.FT               : MEASURED DEPTH 
 TVD_I.FT              : ENVERUS TRUE VERTICAL DEPTH 
 ZONE_I.               : ENVERUS DEFINED ZONE CODE 
 GR_N_I.API            : ENVERUS NORMALIZED GAMMA RAY LEVERAGED IN GEOLOGICAL MODELLING 
 TEMP_I.DEGF           : ENVERUS INTERPRETED TEMPERATURE DERIVED FROM BOTTOM HOLE TEMPERATURES 
 #___________________________________________________________________________________________________ 
~A         DEPT          TVD_I         ZONE_I         GR_N_I         TEMP_I
# ...
         8423.0       8423.000           2.00        107.356        152.210
         8423.5       8423.501           2.00         98.233        152.216
         8424.0       8424.000           2.00         89.367        152.221
         8424.5       8424.500           2.00         84.389        152.226
         8425.0       8425.000           2.00         79.564        152.231
         8425.5       8425.500           2.00         79.887        152.237
         8426.0       8426.000           2.00         81.578        152.242
         8426.5       8426.500           2.00         84.859        152.247
         8427.0       8426.999           2.00         85.918        152.253
         8427.5       8427.499           2.00         84.330        152.258
         8428.0       8428.000           2.00         82.740        152.263
         8428.5       8428.500           2.00         81.150        152.268
         8429.0       8429.000           2.00         76.299        152.274
         8429.5       8429.500           2.00         69.597        152.279
         8430.0       8430.000           2.00         62.896        152.284
         8430.5       8430.500           2.00         57.065        152.290
         8431.0       8431.000           2.00         53.976        152.295
         8431.5       8431.500           2.00         50.885        152.300
         8432.0       8432.000           2.00         47.796        152.306
         8432.5       8432.501           2.00         50.150        152.311
         8433.0       8433.001           2.00         62.909        152.316
         8433.5       8433.500           2.00         75.670        152.321
         8434.0       8434.000           2.00         88.432        152.327
         8434.5       8434.500           2.00         97.027        152.332
         8435.0       8435.000           2.00        100.622        152.337
         8435.5       8435.500           2.00        100.640        152.343
         8436.0       8436.000           2.00         97.975        152.348
         8436.5       8436.500           2.00         94.978        152.353
         8437.0       8437.000           2.00         92.308        152.359
         8437.5       8437.500           2.00         89.716        152.364
         8438.0       8438.000           2.00         87.018        152.369
         8438.5       8438.500           2.00         84.320        152.374
         8439.0       8439.000           2.00         78.702        152.380
         8439.5       8439.500           2.00         77.201        152.385
         8440.0       8440.000           2.00         80.825        152.390
         8440.5       8440.500           2.00         88.101        152.396
         8441.0       8441.000           2.00         95.379        152.401
         8441.5       8441.500           2.00         99.083        152.406
         8442.0       8441.999           2.00        101.923        152.411
         8442.5       8442.499           2.00        104.762        152.417
         8443.0       8443.000           2.00        107.601        152.422
         8443.5       8443.500           2.00        110.440        152.427
         8444.0       8444.000           2.00        108.436        152.433
         8444.5       8444.500           2.00        102.475        152.438
         8445.0       8445.000           2.00         98.639        152.443
         8445.5       8445.500           2.00         95.983        152.449
         8446.0       8446.000           2.00         93.268        152.454
         8446.5       8446.500           2.00         93.517        152.459
         8447.0       8447.000           2.00         97.089        152.464
         8447.5       8447.501           2.00        100.662        152.470
         8448.0       8448.001           2.00        104.234        152.475
         8448.5       8448.500           2.00        107.807        152.480
         8449.0       8449.000           2.00        108.086        152.486
         8449.5       8449.500           2.00        103.580        152.491
         8450.0       8450.000           2.00         86.649        152.496
         8450.5       8450.500           2.00         69.719        152.501
         8451.0       8451.000           2.00         52.790        152.507
         8451.5       8451.499           2.00         51.736        152.512
         8452.0       8452.000           2.00         54.956        152.517
         8452.5       8452.500           2.00         67.141        152.523
         8453.0       8453.000           2.00         79.327        152.528
         8453.5       8453.500           2.00         91.511        152.533
         8454.0       8454.000           2.00        113.145        152.539
         8454.5       8454.500           2.00        130.792        152.544
         8455.0       8455.000           2.00        131.095        152.549
         8455.5       8455.500           2.00        131.397        152.554
         8456.0       8456.001           2.00        131.700        152.560
         8456.5       8456.501           2.00        128.528        152.565
         8457.0       8457.000           2.00        119.004        152.570
         8457.5       8457.500           2.00        109.479        152.576
         8458.0       8457.999           2.00         99.953        152.581
         8458.5       8458.500           2.00         97.643        152.586
         8459.0       8459.000           2.00         95.394        152.592
         8459.5       8459.500           2.00         93.145        152.597
         8460.0       8460.000           2.00         92.530        152.602
         8460.5       8460.500           2.00         94.732        152.607
         8461.0       8461.000           2.00        102.360        152.613
         8461.5       8461.500           2.00        109.988        152.618
         8462.0       8462.000           2.00        109.224        152.623
         8462.5       8462.501           2.00         99.187        152.629
         8463.0       8463.000           2.00         89.339        152.634
         8463.5       8463.500           2.00         79.491        152.639
         8464.0       8464.000           2.00         69.645        152.644
         8464.5       8464.500           2.00         59.797        152.650
         8465.0       8465.001           2.00         49.951        152.655
         8465.5       8465.500           2.00         40.621        152.660
         8466.0       8466.000           2.00         35.398        152.666
         8466.5       8466.499           2.00         30.380        152.671
         8467.0       8467.000           2.00         25.428        152.676
         8467.5       8467.500           2.00         20.477        152.682
         8468.0       8468.000           2.00         15.525        152.687
         8468.5       8468.500           2.00         12.358        152.692
         8469.0       8469.000           2.00         11.234        152.697
         8469.5       8469.500           2.00         11.221        152.703
         8470.0       8470.000           2.00         11.755        152.708
         8470.5       8470.500           2.00         12.288        152.713
         8471.0       8471.000           2.00         12.820        152.719
         8471.5       8471.500           2.00         14.501        152.724
         8472.0       8472.000           2.00         16.355        152.729
         8472.5       8472.499           2.00         18.851        152.735
         8473.0       8472.999           2.00         22.675        152.740
         8473.5       8473.500           2.00         31.592        152.745
         8474.0       8474.000           2.00         40.677        152.750
         8474.5       8474.500           2.00         51.460        152.756
         8475.0       8475.000           2.00         62.244        152.761
         8475.5       8475.500           2.00         73.027        152.766
