#--------------------------------------------------#
#-------------------ENVERUS, INC.------------------#
#------------------WWW.ENVERUS.COM-----------------#
#------------------COPYRIGHT 2020------------------#
#--------------------------------------------------#
#THIS FILE MAY BE USED ONLY IN ACCORDANCE WITH A CURRENT SUBSCRIPTION AGREEMENT BETWEEN
#THE USER AND ENVERUS, INC. NO PART OF THIS FILE MAY BE REPRODUCED, USED, COPIED,
#MODIFIED, PROPAGATED, OR DISTRIBUTED EXCEPT IN ACCORDANCE WITH THE SUBSCRIPTION
#AGREEMENT. UNAUTHORIZED USE OR DISTRIBUTION OF ALL OR ANY PART OF THIS FILE MAY VIOLATE
#COPYRIGHT, TRADEMARK, AND/OR OTHER LAWS AND IS SUBJECT TO CIVIL AS WELL AS CRIMINAL
#SANCTIONS.
#--------------------------------------------------#
#THIS FILE IS PROVIDED "AS-IS" AND ALL WARRANTIES ARE EXPRESSLY DISCLAIMED, WHETHER
#EXPRESS, ORAL, IMPLIED, STATUTORY OR OTHERWISE, INCLUDING ANY IMPLIED WARRANTY OF FITNESS
#FOR A PARTICULAR PURPOSE, MERCHANTABILITY, TITLE OR NON-INFRINGEMENT, AND ANY WARRANTIES
#ARISING BY VIRTUE OF CUSTOM OF TRADE OR COURSE OF DEALING.  FURTHER, ENVERUS, INC.
#AND ITS LICENSORS DO NOT REPRESENT OR WARRANT THAT THIS FILE WILL MEET USER'S
#REQUIREMENTS OR ARE SUITABLE FOR USER'S NEEDS OR THAT THE DATA OR RESULTS PROVIDED IN
#CONJUNCTION THEREWITH ARE CORRECT, ACCURATE, TIMELY OR RELIABLE. THESE DISCLAIMERS SHALL
#APPLY REGARDLESS OF ANY FAILURE OF ESSENTIAL PURPOSE OF ANY LIMITED REMEDY.  SOME
#JURISDICTIONS DO NOT ALLOW THE EXCLUSION OF CERTAIN WARRANTIES SO SOME OF THE ABOVE
#EXCLUSIONS MAY NOT APPLY. IN NO EVENT SHALL ENVERUS, INC. OR ANY OF ITS AFFILIATES
#BE LIABLE UNDER ANY LEGAL THEORY, WHETHER IN TORT (INCLUDING WITHOUT LIMITATION
#NEGLIGENCE), CONTRACT, STRICT LIABILITY, STATUTORY OR OTHERWISE, FOR ANY SPECIAL,
#INCIDENTAL, CONSEQUENTIAL, EXEMPLARY, PUNITIVE OR INDIRECT DAMAGE OF ANY KIND, INCLUDING
#WITHOUT LIMITATION LOSS OF REVENUE, PROFITS, GOODWILL, USE, AND/OR DATA OR THE COST OF
#PROCUREMENT OF SUBSTITUTE GOODS OR SERVICES, EVEN IF APPRISED OF THE POSSIBILITY OF SUCH
#DAMAGES IN ADVANCE.
#--------------------------------------------------#

~VERSION INFORMATION
VERS. 2.0 : CWLS LOG ASCII STANDARD - VERSION 2.0
WRAP.  NO : ONE LINE PER DEPTH STEP
~WELL INFORMATION
#MNEMONIC     .UNIT              VALUE :DESCRIPTION
STRT       .FT                102 :START DEPTH
STOP       .FT                9071 :STOP DEPTH
STEP       .FT                   0.500 :STEP
NULL       .                  -999.99 :NULL
UWI        .                42389104910000 :UNIQUE WELL ID
API        .                42389104910000 :API NUMBER
COMP       .         :COMPANY
WELL       .        :WELL
DATE       .                 :LOG DATE
FLD       .                 :FIELD NAME
LOC       .                  UNK :LOCATION
CNTY       .                 UNK :COUNTY
STAT       .                 UNK :STATE
CTRY       .                 UNK :COUNTY
SRVC       .                 UNK :SERVICE COMPANY
~CURVE INFORMATION
#MNEMONIC     .UNIT      API CODE :CURVE DESCRIPTION
DEPTH       .FT                      :MEASURED DEPTH
DT.MSEC/FT        UNKNOWN   :DT
GR.API        UNKNOWN   :GR
~A    DEPTH    DT    GR
# ...
 6102     63.47094   38.03925
 6102.5     65.29412   36.64144
 6103     66.15261   34.08381
 6103.5     67.44677   31.52619
 6104     68.74092   28.96856
 6104.5     72.61899   30.27549
 6105     77.70981   32.81301
 6105.5     82.80063   35.35053
 6106     87.30709   36.74909
 6106.5     91.39948   36.38244
 6107     95.49188   36.01579
 6107.5     99.52716   34.70367
 6108     103.04754   33.15816
 6108.5     105.57326   31.61265
 6109     106.40877   30.06714
 6109.5     104.91132   28.52163
 6110     105.09989   26.97612
 6110.5     105.11499   25.43061
 6111     104.60125   24.87046
 6111.5     104.14003   26.50775
 6112     103.21306   28.14504
 6112.5     101.1602   29.78234
 6113     99.73872   31.34579
 6113.5     98.76977   30.11878
 6114     97.09659   28.89178
 6114.5     95.00571   27.66478
 6115     95.43723   26.43777
 6115.5     95.69484   25.21077
 6116     95.35747   25.15615
 6116.5     94.348   27.87855
 6117     90.93172   30.43847
 6117.5     87.51544   30.24532
 6118     84.09916   30.05217
 6118.5     81.869   29.85902
 6119     81.25482   29.99749
 6119.5     81.54464   30.1348
 6120     82.10963   30.13317
 6120.5     78.62334   30.13153
 6121     73.86912   30.09736
 6121.5     71.91816   29.99276
 6122     71.5265   29.88817
 6122.5     72.2124   30.30173
 6123     73.82975   31.65131
 6123.5     73.81172   31.73592
 6124     70.52912   30.78114
 6124.5     66.9444   29.82636
 6125     63.35968   30.62359
 6125.5     62.10672   32.5573
 6126     60.94881   31.88796
 6126.5     59.69262   31.25061
 6127     58.3464   30.63221
 6127.5     58.03972   30.0138
 6128     60.00227   30.69187
 6128.5     61.96482   32.04164
 6129     63.92737   33.39142
 6129.5     63.47166   34.7412
 6130     61.95131   35.50008
 6130.5     62.48114   35.24071
 6131     63.65766   34.98135
 6131.5     65.30464   34.72199
 6132     67.00012   34.46263
 6132.5     66.6048   34.20327
 6133     66.20948   33.88052
 6133.5     66.7385   33.47745
 6134     67.20029   33.00533
 6134.5     68.08095   32.16887
 6135     69.58967   31.33241
 6135.5     71.18522   30.49595
 6136     72.78077   30.01091
 6136.5     74.37632   29.87537
 6137     75.32228   30.01584
 6137.5     75.2816   31.11823
 6138     75.54549   32.22062
 6138.5     75.96664   31.77614
 6139     77.00182   31.59353
 6139.5     79.11581   31.59168
 6140     81.22979   31.58983
 6140.5     83.66956   29.91597
 6141     83.5282   27.26994
 6141.5     82.07739   24.78917
 6142     80.62659   23.92939
 6142.5     80.47436   23.06961
 6143     79.78041   22.20984
 6143.5     78.86349   22.7134
 6144     77.98831   23.38447
 6144.5     77.35473   24.05554
 6145     75.72273   24.72661
 6145.5     74.09073   25.0707
 6146     73.51057   25.33751
 6146.5     73.8924   26.36618
 6147     75.3343   28.05621
 6147.5     76.81862   28.90278
 6148     77.22542   29.43865
 6148.5     76.87715   29.623
 6149     76.52889   29.39763
 6149.5     76.18062   29.17227
 6150     74.21572   30.46342
 6150.5     73.74387   32.32388
 6151     73.78249   33.41627
 6151.5     74.04847   34.4456
 6152     74.30568   35.47494
 6152.5     73.84916   36.39208
 6153     73.39264   35.94395
 6153.5     72.90714   35.49583
 6154     72.10368   35.0477
 6154.5     71.30022   34.59958
 6155     69.92385   34.15146
 6155.5     67.69388   33.70333
 6156     65.93478   35.02445
 6156.5     65.7079   36.50977
 6157     65.48102   37.01711
 6157.5     65.37284   37.03633
 6158     65.55398   37.37008
 6158.5     64.706   37.70383
 6159     60.49892   37.25428
 6159.5     57.53339   34.11874
 6160     56.77287   29.38245
 6160.5     56.73221   26.94365
 6161     57.02076   27.72609
 6161.5     58.62804   30.44443
 6162     60.23532   31.73051
 6162.5     60.2155   32.10172
 6163     59.88685   32.47294
 6163.5     60.67629   32.84415
 6164     63.00013   32.16352
 6164.5     70.09435   30.51614
 6165     79.52413   28.86875
 6165.5     88.95391   27.22137
 6166     93.93869   25.57399
 6166.5     90.08211   25.07424
 6167     85.18457   25.10325
 6167.5     81.86603   25.3993
 6168     84.36157   25.69535
 6168.5     88.26116   25.9914
 6169     92.16074   26.27825
 6169.5     93.99595   25.83009
 6170     93.85075   25.38192
 6170.5     95.53951   24.93376
 6171     97.19586   24.74847
 6171.5     98.56976   24.64665
 6172     103.41765   24.19881
 6172.5     108.26555   23.75097
 6173     111.05605   23.38019
 6173.5     112.40798   23.09116
 6174     113.88373   22.80212
 6174.5     114.40473   22.59706
 6175     113.52221   22.59483
 6175.5     112.65427   22.4621
 6176     112.90017   22.08946
 6176.5     103.39931   23.16643
 6177     96.61141   24.2434
 6177.5     95.02384   24.50127
 6178     93.43627   24.60199
 6178.5     93.998   24.70271
 6179     96.82877   25.98795
 6179.5     97.9456   27.43415
 6180     97.32344   28.88035
 6180.5     95.42592   27.78917
 6181     90.42692   26.12314
 6181.5     83.82503   27.9827
 6182     77.82285   29.84226
 6182.5     78.67764   31.70183
 6183     81.71426   32.11425
 6183.5     85.73883   31.07991
 6184     89.7634   30.04558
 6184.5     93.78797   29.01124
 6185     93.14545   27.97691
 6185.5     93.40054   26.94257
 6186     95.64294   25.90824
 6186.5     97.97108   25.28905
 6187     100.59931   25.2867
 6187.5     103.22753   25.28435
 6188     104.06872   25.95336
 6188.5     98.62775   26.69901
 6189     97.06752   26.70834
 6189.5     97.7714   26.59451
 6190     99.22869   26.73235
 6190.5     97.17729   28.66426
 6191     88.69224   30.59618
 6191.5     80.82659   32.5281
 6192     75.69051   32.58787
 6192.5     76.17603   32.58547
 6193     76.40255   32.58306
 6193.5     76.35614   32.58065
 6194     76.2295   31.19098
 6194.5     76.09339   29.59338
 6195     75.98532   29.16773
 6195.5     76.01306   29.61293
 6196     76.0408   29.41872
 6196.5     76.06756   28.65354
 6197     76.09308   27.88835
 6197.5     76.11859   27.89163
 6198     75.08124   29.46574
 6198.5     72.88135   31.03984
 6199     70.44838   32.61394
 6199.5     68.00496   34.18805
 6200     67.60653   35.76215
 6200.5     67.72908   34.86648
 6201     68.73967   33.72174
 6201.5     69.58702   32.57701
 6202     68.60376   33.12879
 6202.5     66.20872   34.40057
 6203     62.76835   35.67235
 6203.5     59.97688   36.94414
 6204     59.55722   36.97013
 6204.5     59.55765   36.26446
 6205     59.55807   35.55878
 6205.5     58.75422   34.85311
 6206     56.51038   33.68905
 6206.5     55.01335   31.3917
 6207     54.8784   29.09435
 6207.5     55.42924   26.79701
 6208     55.98009   28.35879
 6208.5     56.53093   30.70822
 6209     57.03379   33.05764
 6209.5     57.4504   34.33205
 6210     57.86701   34.32948
 6210.5     58.15909   34.67555
 6211     57.7047   35.53048
 6211.5     57.70513   36.38541
 6212     57.70556   36.10719
 6212.5     57.706   35.84308
 6213     57.63549   35.84048
 6213.5     57.14084   35.83787
 6214     56.64619   35.83526
 6214.5     57.69335   36.88192
 6215     58.92964   38.43811
 6215.5     60.16592   39.99431
 6216     61.40221   39.84146
 6216.5     61.68746   39.07644
 6217     60.52824   38.31142
 6217.5     59.07533   37.04005
 6218     57.62243   35.32873
 6218.5     56.16953   33.61742
 6219     56.78416   32.62275
 6219.5     58.91333   33.05943
 6220     61.0425   33.05677
 6220.5     62.40178   33.0541
 6221     63.33163   33.05142
 6221.5     62.93705   33.04874
 6222     61.9186   33.04606
 6222.5     60.86979   32.39168
 6223     59.82099   31.05806
 6223.5     59.91998   29.55792
 6224     61.78677   27.37854
 6224.5     68.23133   25.19916
 6225     74.67589   23.01978
 6225.5     81.12045   22.63016
 6226     85.56957   22.09859
 6226.5     88.20465   20.43463
 6227     90.07867   19.17183
 6227.5     90.54117   18.80431
 6228     92.66557   18.43679
 6228.5     95.37108   20.81016
 6229     96.77395   23.87141
 6229.5     92.6922   26.71939
 6230     88.19995   27.83974
 6230.5     80.22179   28.96008
 6231     72.24362   30.08042
 6231.5     69.51586   31.12381
