#--------------------------------------------------#
#-------------------ENVERUS, INC.------------------#
#------------------WWW.ENVERUS.COM-----------------#
#------------------COPYRIGHT 2020------------------#
#--------------------------------------------------#
#THIS FILE MAY BE USED ONLY IN ACCORDANCE WITH A CURRENT SUBSCRIPTION AGREEMENT BETWEEN
#THE USER AND ENVERUS, INC. NO PART OF THIS FILE MAY BE REPRODUCED, USED, COPIED,
#MODIFIED, PROPAGATED, OR DISTRIBUTED EXCEPT IN ACCORDANCE WITH THE SUBSCRIPTION
#AGREEMENT. UNAUTHORIZED USE OR DISTRIBUTION OF ALL OR ANY PART OF THIS FILE MAY VIOLATE
#COPYRIGHT, TRADEMARK, AND/OR OTHER LAWS AND IS SUBJECT TO CIVIL AS WELL AS CRIMINAL
#SANCTIONS.
#--------------------------------------------------#
#THIS FILE IS PROVIDED "AS-IS" AND ALL WARRANTIES ARE EXPRESSLY DISCLAIMED, WHETHER
#EXPRESS, ORAL, IMPLIED, STATUTORY OR OTHERWISE, INCLUDING ANY IMPLIED WARRANTY OF FITNESS
#FOR A PARTICULAR PURPOSE, MERCHANTABILITY, TITLE OR NON-INFRINGEMENT, AND ANY WARRANTIES
#ARISING BY VIRTUE OF CUSTOM OF TRADE OR COURSE OF DEALING.  FURTHER, ENVERUS, INC.
#AND ITS LICENSORS DO NOT REPRESENT OR WARRANT THAT THIS FILE WILL MEET USER'S
#REQUIREMENTS OR ARE SUITABLE FOR USER'S NEEDS OR THAT THE DATA OR RESULTS PROVIDED IN
#CONJUNCTION THEREWITH ARE CORRECT, ACCURATE, TIMELY OR RELIABLE. THESE DISCLAIMERS SHALL
#APPLY REGARDLESS OF ANY FAILURE OF ESSENTIAL PURPOSE OF ANY LIMITED REMEDY.  SOME
#JURISDICTIONS DO NOT ALLOW THE EXCLUSION OF CERTAIN WARRANTIES SO SOME OF THE ABOVE
#EXCLUSIONS MAY NOT APPLY. IN NO EVENT SHALL ENVERUS, INC. OR ANY OF ITS AFFILIATES
#BE LIABLE UNDER ANY LEGAL THEORY, WHETHER IN TORT (INCLUDING WITHOUT LIMITATION
#NEGLIGENCE), CONTRACT, STRICT LIABILITY, STATUTORY OR OTHERWISE, FOR ANY SPECIAL,
#INCIDENTAL, CONSEQUENTIAL, EXEMPLARY, PUNITIVE OR INDIRECT DAMAGE OF ANY KIND, INCLUDING
#WITHOUT LIMITATION LOSS OF REVENUE, PROFITS, GOODWILL, USE, AND/OR DATA OR THE COST OF
#PROCUREMENT OF SUBSTITUTE GOODS OR SERVICES, EVEN IF APPRISED OF THE POSSIBILITY OF SUCH
#DAMAGES IN ADVANCE.
#--------------------------------------------------#

~VERSION INFORMATION
VERS. 2.0 : CWLS LOG ASCII STANDARD - VERSION 2.0
WRAP.  NO : ONE LINE PER DEPTH STEP
~WELL INFORMATION
#MNEMONIC     .UNIT              VALUE :DESCRIPTION
STRT       .FT                101 :START DEPTH
STOP       .FT                5382 :STOP DEPTH
STEP       .FT                   0.500 :STEP
NULL       .                  -999.990 :NULL
UWI        .              42389007790000 :UNIQUE WELL ID
API        .              42389007790000 :API NUMBER
COMP       .         :COMPANY
WELL       .         1, :WELL
DATE       .                            :LOG DATE
~CURVE INFORMATION
#MNEMONIC     .UNIT      API CODE :CURVE DESCRIPTION
DEPTH       .FT                      :MEASURED DEPTH
DT.US/FT        UNKNOWN   :DT
GR.API        UNKNOWN   :GR
~A    DEPTH    DT    GR
# ...
 3870.5     49.073   8.858
 3871     48.682   8.613
 3871.5     48.509   8.368
 3872     48.514   8.123
 3872.5     48.52   8.033
 3873     48.526   9.125
 3873.5     48.532   10.218
 3874     48.538   10.246
 3874.5     48.544   9.548
 3875     48.55   8.85
 3875.5     48.555   8.817
 3876     48.561   9.348
 3876.5     52.424   9.878
 3877     55.104   10.409
 3877.5     56.794   10.087
 3878     58.485   8.893
 3878.5     60.176   7.699
 3879     60.908   7.255
 3879.5     61.205   7.801
 3880     57.01   8.347
 3880.5     51.072   8.893
 3881     49.94   9.439
 3881.5     48.808   9.803
 3882     50.303   9.862
 3882.5     50.472   9.922
 3883     50.642   9.982
 3883.5     50.811   10.042
 3884     50.981   10.101
 3884.5     51.15   10.161
 3885     51.376   10.221
 3885.5     52.924   10.281
 3886     54.472   10.34
 3886.5     56.02   10.4
 3887     57.836   9.753
 3887.5     61.069   8.839
 3888     64.301   7.925
 3888.5     66.311   7.012
 3889     67.727   6.098
 3889.5     68.746   5.184
 3890     69.308   4.271
 3890.5     69.869   3.357
 3891     66.55   2.536
 3891.5     62.524   3.176
 3892     58.497   3.817
 3892.5     55.337   4.457
 3893     52.872   5.097
 3893.5     50.408   5.737
 3894     47.943   6.377
 3894.5     45.924   7.017
 3895     47.967   7.658
 3895.5     47.605   8.298
 3896     47.139   8.13
 3896.5     47.415   7.932
 3897     47.704   7.734
 3897.5     47.993   7.536
 3898     48.101   7.338
 3898.5     47.914   7.139
 3899     47.728   8.627
 3899.5     47.541   10.366
 3900     47.354   12.105
 3900.5     47.168   14.167
 3901     46.981   16.819
 3901.5     46.795   19.47
 3902     46.608   20.141
 3902.5     46.421   17.25
 3903     46.235   14.358
 3903.5     46.048   11.467
 3904     46.889   8.575
 3904.5     47.917   8.221
 3905     48.944   8.878
 3905.5     49.92   9.535
 3906     50.358   10.192
 3906.5     50.796   10.849
 3907     51.235   11.506
 3907.5     51.081   10.189
 3908     50.209   7.816
 3908.5     49.338   7.185
 3909     49.399   7.741
 3909.5     61.638   8.297
 3910     69.679   8.853
 3910.5     69.638   9.408
 3911     69.598   9.964
 3911.5     69.206   9.754
 3912     68.023   8.858
 3912.5     66.841   7.962
 3913     65.659   7.066
 3913.5     65.322   6.17
 3914     65.773   5.274
 3914.5     66.225   4.932
 3915     65.04   5.387
 3915.5     61.341   5.842
 3916     57.641   6.297
 3916.5     53.954   6.752
 3917     50.457   7.207
 3917.5     46.961   7.662
 3918     44.309   8.117
 3918.5     47.755   8.572
 3919     48.004   9.027
 3919.5     48.253   8.999
 3920     48.502   7.807
 3920.5     48.751   6.614
 3921     49   5.421
 3921.5     49.619   5.575
 3922     50.38   6.262
 3922.5     51.141   6.95
 3923     51.882   7.637
 3923.5     51.457   8.325
 3924     51.033   9.012
 3924.5     50.608   9.699
 3925     50.183   9.836
 3925.5     49.759   7.118
 3926     49.334   8.843
 3926.5     48.909   10.569
 3927     48.485   12.082
 3927.5     48.06   11.551
 3928     47.938   11.02
 3928.5     48.005   10.489
 3929     48.071   9.958
 3929.5     48.138   24.614
 3930     48.191   18.253
 3930.5     47.909   11.891
 3931     47.627   10.954
 3931.5     47.346   10.059
 3932     47.363   9.163
 3932.5     47.624   9.338
 3933     47.886   9.592
 3933.5     48.148   9.846
 3934     48.41   10.099
 3934.5     48.672   10.353
 3935     48.934   10.606
 3935.5     49.196   11.825
 3936     49.458   11.427
 3936.5     49.72   11.029
 3937     49.844   11.351
 3937.5     49.581   11.836
 3938     49.319   11.954
 3938.5     49.056   11.158
 3939     48.793   10.361
 3939.5     48.531   9.565
 3940     48.268   8.769
 3940.5     48.006   8.953
 3941     47.38   9.56
 3941.5     46.648   10.166
 3942     46.314   10.772
 3942.5     46.743   11.379
 3943     47.173   11.985
 3943.5     47.603   12.464
 3944     48.033   12.091
 3944.5     48.462   11.718
 3945     48.892   11.345
 3945.5     49.308   10.972
 3946     49.534   10.599
 3946.5     49.761   10.226
 3947     49.987   9.853
 3947.5     50.214   9.48
 3948     50.44   9.842
 3948.5     50.351   10.206
 3949     50.241   10.57
 3949.5     50.131   10.935
 3950     50.021   11.299
 3950.5     49.911   11.663
 3951     49.177   12.028
 3951.5     49.207   11.919
 3952     49.236   11.123
 3952.5     49.266   10.327
 3953     49.145   9.734
 3953.5     48.773   9.522
 3954     48.402   9.309
 3954.5     48.031   9.097
 3955     47.788   8.884
 3955.5     47.734   8.672
 3956     47.68   8.459
 3956.5     47.625   8.226
 3957     47.571   7.928
 3957.5     47.806   7.63
 3958     48.089   7.332
 3958.5     48.371   7.034
 3959     48.654   6.735
 3959.5     48.561   6.437
 3960     48.338   6.237
 3960.5     48.115   6.717
 3961     47.891   7.197
 3961.5     47.668   7.678
 3962     47.526   8.158
 3962.5     47.646   8.638
 3963     47.765   9.119
 3963.5     47.828   9.599
 3964     47.623   10.079
 3964.5     47.419   10.559
 3965     47.31   11.04
 3965.5     47.665   11.52
 3966     48.021   12
 3966.5     48.376   11.486
 3967     48.731   10.963
 3967.5     49.086   10.441
 3968     49.442   9.918
 3968.5     49.797   8.235
 3969     49.902   6.452
 3969.5     49.648   4.669
 3970     49.393   3.725
 3970.5     49.139   4.483
 3971     48.885   5.241
 3971.5     48.631   5.999
 3972     48.376   6.758
 3972.5     48.122   7.516
 3973     48.638   8.067
 3973.5     49.222   8.069
 3974     49.806   8.072
 3974.5     50.391   8.074
 3975     50.975   8.076
 3975.5     51.559   8.078
 3976     51.648   8.367
 3976.5     51.435   9.889
 3977     51.223   11.411
 3977.5     51.011   12.934
 3978     50.799   14.456
 3978.5     50.619   15.978
 3979     50.678   16.123
 3979.5     50.684   9.879
 3980     50.089   9.402
 3980.5     49.589   8.924
 3981     49.768   9.423
 3981.5     49.947   10.7
 3982     50.12   11.977
 3982.5     50.172   13.254
 3983     50.223   14.531
 3983.5     50.274   14.457
 3984     50.696   13.181
 3984.5     51.503   11.904
 3985     52.309   10.627
 3985.5     52.446   10.137
 3986     52.446   9.69
 3986.5     55.031   9.242
 3987     58.253   8.794
 3987.5     62.323   10.146
 3988     66.47   11.745
 3988.5     69.962   13.344
 3989     70.739   14.943
 3989.5     71.212   12.233
 3990     67.22   8.853
 3990.5     63.228   7.671
 3991     59.236   7.073
 3991.5     55.244   6.475
 3992     51.153   6.867
 3992.5     46.595   7.614
 3993     44.845   8.361
 3993.5     45.187   9.107
 3994     45.53   9.854
 3994.5     45.872   10.601
 3995     46.214   11.228
 3995.5     46.501   11.297
 3996     46.784   11.366
 3996.5     47.066   11.435
 3997     47.348   11.504
 3997.5     47.353   10.58
 3998     47.288   9.034
 3998.5     47.223   7.487
 3999     47.158   5.94
 3999.5     47.093   4.393
 4000     47.027   5.894
 4000.5     46.962   10.552
 4001     47.921   12.663
 4001.5     52.437   12.465
 4002     56.718   12.267
 4002.5     59.606   11.707
 4003     62.495   10.753
 4003.5     64.447   9.798
 4004     65.96   8.843
 4004.5     67.473   7.888
 4005     65.796   6.934
 4005.5     63.698   5.979
 4006     62.207   5.024
 4006.5     63.281   5.403
 4007     64.312   6.071
 4007.5     63.23   6.738
 4008     62.148   7.405
 4008.5     61.066   8.072
 4009     60.967   7.645
 4009.5     64.402   6.898
 4010     64.173   6.151
 4010.5     63.673   5.405
 4011     63.174   5.461
 4011.5     62.674   5.866
 4012     62.56   6.27
 4012.5     62.825   6.675
 4013     63.089   6.941
 4013.5     63.353   6.403
 4014     63.617   5.866
 4014.5     63.593   5.328
 4015     63.524   4.79
 4015.5     63.455   4.325
 4016     63.386   5.033
 4016.5     63.318   5.74
 4017     63.249   6.41
 4017.5     63.18   5.879
 4018     63.111   5.348
 4018.5     63.377   4.817
 4019     64.293   4.286
 4019.5     65.392   4.207
 4020     66.279   4.679
 4020.5     67.01   5.151
 4021     67.741   5.623
 4021.5     68.04   6.095
 4022     67.658   5.679
 4022.5     67.277   5.167
 4023     66.895   4.655
