###############################################
##         ENVERUS                           ##
##         Petrophysical Curves              ##
##         PERMIAN / DELAWARE                ##
##         Jan 21 2022                       ##
##         42-389-10508-00-00                ##
###############################################
## Copyright 2017-2022  ENVERUS.  All Rights Reserved. 
## Confidential - Property of ENVERUS, use governed by terms and 
## conditions found within the existing Information Services Subscription Agreement 
## (as may be amended, the “ISSA”) between Customer and ENVERUS. 
## 
~VERSION INFORMATION
# MNEM.UNIT                               DATA : DESCRIPTION OF MNEMONIC
#-----.-----     ----------------------------- : -----------------------------
VERS.                                     2.00 : CWLS LOG ASCII STANDARD - VERSION 2.00
WRAP.                                       NO : MULTIPLE LINES PER DEPTH STEP
VEND.                                  ENVERUS : VENDOR
TYPE.                     PETROPHYSICAL CURVES : ENVERUS PETROPHYSICAL CURVES - ACCESSIBLE THROUGH ENVERUS CORE(TM)
#___________________________________________________________________________________________________ 
~WELL INFORMATION 
# uyaQ8P8kQDJ9DXFS5hR1PxmExEOYaAUkY5f3/tnOS+scoPAUWgXA1zCIHGRbWCuSuUcwDzaESCjqjWQ81XhadA== 
# MNEM.UNIT                                              DATA : DESCRIPTION OF MNEMONIC 
#-----.-----                    ----------------------------- : ----------------------------- 
CNTY.                                                  REEVES : COUNTY 
STATE.                                                  TEXAS : STATE 
CNTRY.                                                    USA : COUNTRY 
API.                                             42-389-10508 : API (10 Digit) 
API_14.                                    42-389-10508-00-00 : API (14 Digits) 
API_14_std.                                 42-389-10508-0000 : API (14 Digits Standard) 
UWI.                                           42389105080000 : UNIQUE WELL ID
STRT.FT                                               11776.0 : START DEPTH
STOP.FT                                               33299.5 : STOP DEPTH
STEP.FT                                                   0.5 : STEP BETWEEN DEPTHS
NULL.                                                 -999.25 : NULL VALUE
COMP.                                                  SABINE : COMPANY 
WELL.                                                       1 : WELL NAME 
FLD.                                         ROJO CABALLOS W. : FIELD NAME
#___________________________________________________________________________________________________ 
~CURVE INFORMATION 
#    Zone Description
#          1 = Upper Avalon
#          2 = Middle Avalon
#          3 = Lower Avalon
#          4 = 1st Bone Spring
#          5 = 2nd Bone Spring
#          6 = 2nd Bone Spring Sand
#          7 = 3rd Bone Spring
#          8 = 3rd Bone Spring Sand
#          9 = Wolfcamp XY
#          10 = Wolfcamp A Upper
#          11 = Wolfcamp A Lower
#          12 = Wolfcamp B Upper
#          13 = Wolfcamp B Lower
#          14 = Wolfcamp C
#          15 = Wolfcamp D
#          16 = Pennsylvanian Shale
#          17 = Lower Pennsylvanian Shale
#          18 = Barnett
#          19 = Barnett Lower
#          20 = Mississippian Lime
#          21 = Woodford
#          22 = Base Woodford 
# MNEM.UNIT           : CURVE DESCRIPTION 
#-----.-----          : ----------------------------- 
 DEPT.FT               : MEASURED DEPTH 
 TVD_I.FT              : ENVERUS TRUE VERTICAL DEPTH 
 ZONE_I.               : ENVERUS DEFINED ZONE CODE 
 GR_N_I.API            : ENVERUS NORMALIZED GAMMA RAY LEVERAGED IN GEOLOGICAL MODELLING 
 TEMP_I.DEGF           : ENVERUS INTERPRETED TEMPERATURE DERIVED FROM BOTTOM HOLE TEMPERATURES 
 #___________________________________________________________________________________________________ 
~A         DEPT          TVD_I         ZONE_I         GR_N_I         TEMP_I
# ...
        14638.0      14638.000          16.00         27.345         94.628
        14638.5      14638.500          16.00         27.193         94.634
        14639.0      14639.000          16.00         27.117         94.639
        14639.5      14639.500          16.00         27.500         94.645
        14640.0      14640.000          16.00         27.883         94.650
        14640.5      14640.500          16.00         28.266         94.656
        14641.0      14641.000          16.00         28.596         94.662
        14641.5      14641.499          16.00         28.901         94.667
        14642.0      14642.001          16.00         28.912         94.673
        14642.5      14642.501          16.00         28.447         94.678
        14643.0      14643.001          16.00         27.747         94.684
        14643.5      14643.501          16.00         27.046         94.689
        14644.0      14644.000          16.00         26.345         94.695
        14644.5      14644.500          16.00         26.838         94.700
        14645.0      14645.000          16.00         27.846         94.706
        14645.5      14645.499          16.00         28.854         94.711
        14646.0      14645.999          16.00         29.580         94.717
        14646.5      14646.500          16.00         29.618         94.722
        14647.0      14647.000          16.00         29.656         94.728
        14647.5      14647.500          16.00         29.693         94.733
        14648.0      14648.000          16.00         29.453         94.739
        14648.5      14648.500          16.00         29.151         94.745
        14649.0      14649.000          16.00         28.942         94.750
        14649.5      14649.500          16.00         29.125         94.756
        14650.0      14650.000          16.00         29.308         94.761
        14650.5      14650.499          16.00         29.490         94.767
        14651.0      14651.001          16.00         29.673         94.772
        14651.5      14651.501          16.00         29.896         94.778
        14652.0      14652.001          16.00         30.102         94.783
        14652.5      14652.501          16.00         30.163         94.789
        14653.0      14653.000          16.00         30.223         94.794
        14653.5      14653.500          16.00         29.966         94.800
        14654.0      14653.999          16.00         29.696         94.805
        14654.5      14654.499          16.00         29.427         94.811
        14655.0      14655.001          16.00         29.159         94.816
        14655.5      14655.501          16.00         28.957         94.822
        14656.0      14656.000          16.00         28.755         94.827
        14656.5      14656.500          16.00         28.925         94.833
        14657.0      14657.000          16.00         29.618         94.839
        14657.5      14657.500          16.00         30.203         94.844
        14658.0      14658.000          16.00         30.741         94.850
        14658.5      14658.500          16.00         30.950         94.855
        14659.0      14659.000          16.00         31.154         94.861
        14659.5      14659.501          16.00         31.179         94.866
        14660.0      14660.000          16.00         30.919         94.872
        14660.5      14660.500          16.00         30.660         94.877
        14661.0      14661.000          16.00         30.400         94.883
        14661.5      14661.500          16.00         30.140         94.888
        14662.0      14662.000          16.00         29.881         94.894
        14662.5      14662.499          16.00         29.621         94.899
        14663.0      14662.999          16.00         29.361         94.905
        14663.5      14663.499          16.00         29.102         94.910
        14664.0      14664.001          16.00         28.869         94.916
        14664.5      14664.501          16.00         28.739         94.922
        14665.0      14665.000          16.00         28.608         94.927
        14665.5      14665.500          16.00         28.516         94.933
        14666.0      14666.000          16.00         28.623         94.938
        14666.5      14666.500          16.00         28.731         94.944
        14667.0      14667.000          16.00         28.839         94.949
        14667.5      14667.500          16.00         28.947         94.955
        14668.0      14668.001          16.00         29.055         94.960
        14668.5      14668.500          16.00         29.163         94.966
        14669.0      14669.000          16.00         29.271         94.971
        14669.5      14669.500          16.00         29.378         94.977
        14670.0      14670.000          16.00         29.486         94.982
        14670.5      14670.500          16.00         29.594         94.988
        14671.0      14671.000          16.00         29.702         94.993
        14671.5      14671.499          16.00         29.810         94.999
        14672.0      14671.999          16.00         29.918         95.004
        14672.5      14672.501          16.00         29.985         95.010
        14673.0      14673.001          16.00         30.035         95.016
        14673.5      14673.501          16.00         29.939         95.021
        14674.0      14674.000          16.00         28.657         95.027
        14674.5      14674.500          16.00         28.335         95.032
        14675.0      14675.000          16.00         28.301         95.038
        14675.5      14675.500          16.00         28.267         95.043
        14676.0      14675.999          16.00         28.233         95.049
        14676.5      14676.499          16.00         28.280         95.054
        14677.0      14677.000          16.00         28.341         95.060
        14677.5      14677.500          16.00         28.817         95.065
        14678.0      14678.000          16.00         29.485         95.071
        14678.5      14678.500          16.00         30.126         95.076
        14679.0      14679.000          16.00         30.555         95.082
        14679.5      14679.500          16.00         30.984         95.087
        14680.0      14680.000          16.00         30.570         95.093
        14680.5      14680.499          16.00         30.117         95.099
        14681.0      14681.001          16.00         29.878         95.104
        14681.5      14681.501          16.00         30.081         95.110
        14682.0      14682.001          16.00         30.285         95.115
        14682.5      14682.501          16.00         30.208         95.121
        14683.0      14683.001          16.00         30.026         95.126
        14683.5      14683.500          16.00         29.922         95.132
        14684.0      14684.000          16.00         29.884         95.137
        14684.5      14684.499          16.00         29.846         95.143
        14685.0      14684.999          16.00         29.812         95.148
        14685.5      14685.500          16.00         29.850         95.154
        14686.0      14686.000          16.00         29.888         95.159
        14686.5      14686.500          16.00         29.925         95.165
        14687.0      14687.000          16.00         29.957         95.170
        14687.5      14687.500          16.00         29.984         95.176
        14688.0      14688.000          16.00         30.012         95.181
        14688.5      14688.500          16.00         30.039         95.187
        14689.0      14689.000          16.00         30.067         95.193
        14689.5      14689.500          16.00         30.294         95.198
        14690.0      14690.001          16.00         30.569         95.204
        14690.5      14690.501          16.00         30.844         95.209
