#--------------------------------------------------#
#-------------------ENVERUS, INC.------------------#
#------------------WWW.ENVERUS.COM-----------------#
#------------------COPYRIGHT 2020------------------#
#--------------------------------------------------#
#THIS FILE MAY BE USED ONLY IN ACCORDANCE WITH A CURRENT SUBSCRIPTION AGREEMENT BETWEEN
#THE USER AND ENVERUS, INC. NO PART OF THIS FILE MAY BE REPRODUCED, USED, COPIED,
#MODIFIED, PROPAGATED, OR DISTRIBUTED EXCEPT IN ACCORDANCE WITH THE SUBSCRIPTION
#AGREEMENT. UNAUTHORIZED USE OR DISTRIBUTION OF ALL OR ANY PART OF THIS FILE MAY VIOLATE
#COPYRIGHT, TRADEMARK, AND/OR OTHER LAWS AND IS SUBJECT TO CIVIL AS WELL AS CRIMINAL
#SANCTIONS.
#--------------------------------------------------#
#THIS FILE IS PROVIDED "AS-IS" AND ALL WARRANTIES ARE EXPRESSLY DISCLAIMED, WHETHER
#EXPRESS, ORAL, IMPLIED, STATUTORY OR OTHERWISE, INCLUDING ANY IMPLIED WARRANTY OF FITNESS
#FOR A PARTICULAR PURPOSE, MERCHANTABILITY, TITLE OR NON-INFRINGEMENT, AND ANY WARRANTIES
#ARISING BY VIRTUE OF CUSTOM OF TRADE OR COURSE OF DEALING.  FURTHER, ENVERUS, INC.
#AND ITS LICENSORS DO NOT REPRESENT OR WARRANT THAT THIS FILE WILL MEET USER'S
#REQUIREMENTS OR ARE SUITABLE FOR USER'S NEEDS OR THAT THE DATA OR RESULTS PROVIDED IN
#CONJUNCTION THEREWITH ARE CORRECT, ACCURATE, TIMELY OR RELIABLE. THESE DISCLAIMERS SHALL
#APPLY REGARDLESS OF ANY FAILURE OF ESSENTIAL PURPOSE OF ANY LIMITED REMEDY.  SOME
#JURISDICTIONS DO NOT ALLOW THE EXCLUSION OF CERTAIN WARRANTIES SO SOME OF THE ABOVE
#EXCLUSIONS MAY NOT APPLY. IN NO EVENT SHALL ENVERUS, INC. OR ANY OF ITS AFFILIATES
#BE LIABLE UNDER ANY LEGAL THEORY, WHETHER IN TORT (INCLUDING WITHOUT LIMITATION
#NEGLIGENCE), CONTRACT, STRICT LIABILITY, STATUTORY OR OTHERWISE, FOR ANY SPECIAL,
#INCIDENTAL, CONSEQUENTIAL, EXEMPLARY, PUNITIVE OR INDIRECT DAMAGE OF ANY KIND, INCLUDING
#WITHOUT LIMITATION LOSS OF REVENUE, PROFITS, GOODWILL, USE, AND/OR DATA OR THE COST OF
#PROCUREMENT OF SUBSTITUTE GOODS OR SERVICES, EVEN IF APPRISED OF THE POSSIBILITY OF SUCH
#DAMAGES IN ADVANCE.
#--------------------------------------------------#

~VERSION INFORMATION
VERS. 2.0 : CWLS LOG ASCII STANDARD - VERSION 2.0
WRAP.  NO : ONE LINE PER DEPTH STEP
~WELL INFORMATION
#MNEMONIC     .UNIT              VALUE :DESCRIPTION
STRT       .FT                102 :START DEPTH
STOP       .FT                9071 :STOP DEPTH
STEP       .FT                   0.500 :STEP
NULL       .                  -999.99 :NULL
UWI        .                42389104910000 :UNIQUE WELL ID
API        .                42389104910000 :API NUMBER
COMP       .         :COMPANY
WELL       .        :WELL
DATE       .                 :LOG DATE
FLD       .                 :FIELD NAME
LOC       .                  UNK :LOCATION
CNTY       .                 UNK :COUNTY
STAT       .                 UNK :STATE
CTRY       .                 UNK :COUNTY
SRVC       .                 UNK :SERVICE COMPANY
~CURVE INFORMATION
#MNEMONIC     .UNIT      API CODE :CURVE DESCRIPTION
DEPTH       .FT                      :MEASURED DEPTH
DT.MSEC/FT        UNKNOWN   :DT
GR.API        UNKNOWN   :GR
~A    DEPTH    DT    GR
# ...
 8445     78.59893   59.99849
 8445.5     77.00057   58.38225
 8446     77.4507   56.73135
 8446.5     77.96013   56.88166
 8447     78.11299   59.05475
 8447.5     78.26585   61.22784
 8448     79.82026   63.40093
 8448.5     81.67773   65.57403
 8449     82.61743   65.74407
 8449.5     82.59215   63.00281
 8450     77.33939   52.70512
 8450.5     70.46361   42.40744
 8451     66.35592   32.10975
 8451.5     62.24823   31.46943
 8452     59.43717   33.42676
 8452.5     60.63787   40.83867
 8453     67.1415   48.25058
 8453.5     74.35893   55.66248
 8454     81.57637   68.82097
 8454.5     84.21351   79.55504
 8455     84.21337   79.73912
 8455.5     84.34061   79.9232
 8456     85.05739   80.10728
 8456.5     85.90736   78.17823
 8457     86.75733   72.38463
 8457.5     85.46374   66.59103
 8458     83.76888   60.79744
 8458.5     83.15673   59.39204
 8459     81.55413   58.02383
 8459.5     78.92784   56.65563
 8460     78.53652   56.28191
 8460.5     79.59405   57.62068
 8461     81.11866   62.26088
 8461.5     85.53618   66.90107
 8462     85.49457   66.43641
 8462.5     84.41975   60.33053
 8463     82.53637   54.34093
 8463.5     80.8996   48.35134
 8464     80.2314   42.36175
 8464.5     75.91407   36.37215
 8465     71.05882   30.38256
 8465.5     66.20357   24.70773
 8466     62.33663   21.53122
 8466.5     63.35536   18.47913
 8467     64.77049   15.4671
 8467.5     65.00131   12.45507
 8468     63.1434   9.44304
 8468.5     58.65665   7.51694
 8469     54.36026   6.83255
 8469.5     54.10073   6.82529
 8470     53.8521   7.14959
 8470.5     53.89322   7.4739
 8471     53.93434   7.7982
 8471.5     53.97547   8.81997
 8472     53.86876   9.94835
 8472.5     53.58254   11.46558
 8473     53.72781   13.79178
 8473.5     55.07565   19.21593
 8474     59.85258   24.74177
 8474.5     64.62951   31.30077
 8475     71.5151   37.85977
 8475.5     78.50802   44.41877
 8476     80.59072   46.58345
 8476.5     80.86317   45.44299
 8477     80.98747   44.30253
 8477.5     82.48849   44.88353
 8478     84.25289   45.71024
 8478.5     85.73828   45.56914
 8479     84.65636   44.88395
 8479.5     83.57445   44.19877
 8480     82.49008   43.4404
 8480.5     80.29353   41.31734
 8481     78.16349   39.27321
 8481.5     77.76269   40.65458
 8482     78.09812   43.19105
 8482.5     80.94227   45.84468
 8483     83.1038   47.26438
 8483.5     83.24381   44.7843
 8484     81.97924   42.30422
 8484.5     81.04614   41.70912
 8485     80.92942   41.70986
 8485.5     80.8127   42.32553
 8486     80.69597   43.15221
 8486.5     80.57925   43.69796
 8487     79.78868   43.44887
 8487.5     79.89692   42.38501
 8488     80.43377   42.07781
 8488.5     80.85039   43.06316
 8489     81.25481   42.04035
 8489.5     79.82662   40.53556
 8490     78.15829   39.43377
 8490.5     76.53789   38.65083
 8491     76.5377   38.79235
 8491.5     76.54106   38.94634
 8492     76.97386   41.30472
 8492.5     78.81866   43.72592
 8493     80.66345   46.14711
 8493.5     81.96508   46.62563
 8494     82.34126   44.35187
 8494.5     82.2994   42.07811
 8495     82.30954   39.91077
 8495.5     82.49046   40.89556
 8496     82.67139   41.88036
 8496.5     81.61169   42.86515
 8497     80.17546   42.86162
 8497.5     78.91721   42.7569
 8498     78.91705   42.65218
 8498.5     79.75866   45.70806
 8499     80.83794   48.78103
 8499.5     81.91723   51.854
 8500     82.99652   54.92697
 8500.5     84.06897   57.99994
 8501     84.83835   57.99747
 8501.5     85.60773   56.64595
 8502     85.51618   53.24505
 8502.5     85.41616   50.10589
 8503     85.86509   51.23446
 8503.5     86.49218   52.36303
 8504     86.32178   51.88312
 8504.5     85.35503   50.34516
 8505     84.38828   50.98152
 8505.5     83.42153   52.14826
 8506     83.93103   53.315
 8506.5     85.34088   53.63653
 8507     86.75074   52.35056
 8507.5     87.56189   49.86957
 8508     87.14744   47.57844
 8508.5     86.73299   47.47369
 8509     86.31855   47.36894
 8509.5     85.9041   47.64579
 8510     85.48965   49.81909
 8510.5     84.88105   49.52123
 8511     84.21078   47.6429
 8511.5     84.42595   49.84622
 8512     84.65808   52.04908
 8512.5     85.36617   51.42612
 8513     86.24446   50.80317
 8513.5     86.59309   50.18022
 8514     86.71759   49.55726
 8514.5     86.47343   49.4397
 8515     86.19307   50.39367
 8515.5     85.91271   51.34763
 8516     85.63235   51.51182
 8516.5     85.35198   50.57025
 8517     85.29512   49.62869
 8517.5     85.6882   48.68713
 8518     86.08128   49.54728
 8518.5     86.47435   50.78882
 8519     86.4911   51.06145
 8519.5     86.37203   50.6322
 8520     86.25296   48.71928
 8520.5     86.13388   46.80636
 8521     86.01481   46.37478
 8521.5     85.89574   46.37546
 8522     85.63724   46.37614
 8522.5     85.22586   49.36745
 8523     84.81447   52.66706
 8523.5     84.70574   54.23142
 8524     84.81636   55.79579
 8524.5     84.392   57.36015
 8525     83.55267   53.95919
 8525.5     82.87062   50.38943
 8526     82.23072   48.15818
 8526.5     82.06694   47.37631
 8527     82.70031   46.93861
 8527.5     83.19652   46.5355
 8528     83.69273   46.13238
 8528.5     83.69751   45.91496
 8529     83.53072   47.3866
 8529.5     83.36393   48.85824
 8530     83.19713   50.32988
 8530.5     82.86153   52.84443
 8531     82.46033   55.70085
 8531.5     82.48734   58.55727
 8532     82.956   60.63983
 8532.5     83.42467   59.19373
 8533     83.44665   56.76902
 8533.5     82.74097   53.17065
 8534     79.21879   46.4286
 8534.5     70.93414   39.68655
 8535     66.53421   37.89617
 8535.5     66.86827   42.59226
 8536     72.99964   47.28836
 8536.5     79.54766   51.98445
 8537     84.12201   54.33881
 8537.5     83.60701   54.79788
 8538     83.09201   54.26944
 8538.5     82.86158   52.90067
 8539     83.08275   52.8568
 8539.5     83.30392   52.85744
 8540     83.52509   52.59273
 8540.5     83.42215   51.64481
 8541     82.71405   50.69688
 8541.5     82.31173   50.84224
 8542     82.68024   52.91456
 8542.5     83.29402   52.98963
 8543     83.9078   51.62279
 8543.5     84.35087   51.5946
 8544     84.39226   51.9385
 8544.5     84.28872   50.19537
 8545     84.0448   49.33882
 8545.5     83.80087   49.73276
 8546     83.55695   48.23602
 8546.5     83.31303   45.05659
 8547     83.06911   44.16285
 8547.5     83.08041   44.04869
 8548     83.19888   44.2055
 8548.5     83.31735   46.08887
 8549     83.20033   47.97224
 8549.5     82.90346   49.85561
 8550     82.60658   51.73898
 8550.5     82.30971   53.50388
 8551     82.37963   53.5671
 8551.5     82.74778   51.11308
 8552     82.86576   49.01059
 8552.5     82.76159   50.52889
 8553     82.65742   52.04718
 8553.5     82.55325   51.99874
 8554     83.12934   51.69414
 8554.5     84.28   51.87805
 8555     84.60031   51.81262
 8555.5     84.59138   51.82042
 8556     84.84936   52.92301
 8556.5     85.0465   54.02559
 8557     84.73636   53.91502
 8557.5     84.42623   53.70424
 8558     84.1161   53.47789
 8558.5     84.22996   51.97391
 8559     84.3507   50.46993
 8559.5     84.29701   48.96596
 8560     84.08244   47.46198
 8560.5     83.86787   46.1067
 8561     83.78149   44.89115
 8561.5     83.85335   44.2007
 8562     83.18281   44.04828
 8562.5     80.97984   44.43943
 8563     78.1706   45.4236
 8563.5     77.24221   47.56246
 8564     79.4485   49.80909
 8564.5     81.89405   52.05573
 8565     84.33959   52.81707
 8565.5     85.06771   50.88227
 8566     84.93965   48.94746
 8566.5     84.7992   48.01853
 8567     84.65874   47.62093
 8567.5     84.51829   47.22332
 8568     82.70506   46.82571
 8568.5     80.29037   46.42811
 8569     77.87568   46.0305
 8569.5     77.59356   45.63289
 8570     77.55645   48.7903
 8570.5     79.45314   53.42741
 8571     80.99997   53.68536
 8571.5     82.5468   52.2132
 8572     84.09363   50.74104
 8572.5     84.93962   49.26888
 8573     85.22979   47.79672
 8573.5     85.00177   46.32455
 8574     83.8672   46.30777
 8574.5     81.72381   46.63546
 8575     79.98911   47.26181
