###############################################
##         ENVERUS                           ##
##         Petrophysical Curves              ##
##         PERMIAN / DELAWARE                ##
##         Jan 21 2022                       ##
##         42-371-36857-00-00                ##
###############################################
## Copyright 2017-2022  ENVERUS.  All Rights Reserved. 
## Confidential - Property of ENVERUS, use governed by terms and 
## conditions found within the existing Information Services Subscription Agreement 
## (as may be amended, the “ISSA”) between Customer and ENVERUS. 
## 
~VERSION INFORMATION
# MNEM.UNIT                               DATA : DESCRIPTION OF MNEMONIC
#-----.-----     ----------------------------- : -----------------------------
VERS.                                     2.00 : CWLS LOG ASCII STANDARD - VERSION 2.00
WRAP.                                       NO : MULTIPLE LINES PER DEPTH STEP
VEND.                                  ENVERUS : VENDOR
TYPE.                     PETROPHYSICAL CURVES : ENVERUS PETROPHYSICAL CURVES - ACCESSIBLE THROUGH ENVERUS CORE(TM)
#___________________________________________________________________________________________________ 
~WELL INFORMATION 
# uyaQ8P8kQDJ9DXFS5hR1PxmExEOYaAUkY5f3/tnOS+scoPAUWgXA1zCIHGRbWCuSuUcwDzaESCjqjWQ81XhadA== 
# MNEM.UNIT                                              DATA : DESCRIPTION OF MNEMONIC 
#-----.-----                    ----------------------------- : ----------------------------- 
CNTY.                                                   PECOS : COUNTY 
STATE.                                                  TEXAS : STATE 
CNTRY.                                                    USA : COUNTRY 
API.                                             42-371-36857 : API (10 Digit) 
API_14.                                    42-371-36857-00-00 : API (14 Digits) 
API_14_std.                                 42-371-36857-0000 : API (14 Digits Standard) 
UWI.                                           42371368570000 : UNIQUE WELL ID
STRT.FT                                                7870.0 : START DEPTH
STOP.FT                                               16592.5 : STOP DEPTH
STEP.FT                                                   0.5 : STEP BETWEEN DEPTHS
NULL.                                                 -999.25 : NULL VALUE
COMP.                                             DIAMONDBACK : COMPANY 
WELL.                                         MOORE-GILMORE 1 : WELL NAME 
FLD.                                               WAHA  WEST : FIELD NAME
#___________________________________________________________________________________________________ 
~CURVE INFORMATION 
#    Zone Description
#          1 = Upper Avalon
#          2 = Middle Avalon
#          3 = Lower Avalon
#          4 = 1st Bone Spring
#          5 = 2nd Bone Spring
#          6 = 2nd Bone Spring Sand
#          7 = 3rd Bone Spring
#          8 = 3rd Bone Spring Sand
#          9 = Wolfcamp XY
#          10 = Wolfcamp A Upper
#          11 = Wolfcamp A Lower
#          12 = Wolfcamp B Upper
#          13 = Wolfcamp B Lower
#          14 = Wolfcamp C
#          15 = Wolfcamp D
#          16 = Pennsylvanian Shale
#          17 = Lower Pennsylvanian Shale
#          18 = Barnett
#          19 = Barnett Lower
#          20 = Mississippian Lime
#          21 = Woodford
#          22 = Base Woodford 
# MNEM.UNIT           : CURVE DESCRIPTION 
#-----.-----          : ----------------------------- 
 DEPT.FT               : MEASURED DEPTH 
 TVD_I.FT              : ENVERUS TRUE VERTICAL DEPTH 
 ZONE_I.               : ENVERUS DEFINED ZONE CODE 
 GR_N_I.API            : ENVERUS NORMALIZED GAMMA RAY LEVERAGED IN GEOLOGICAL MODELLING 
 RESD_I.OHMM           : ENVERUS DEEP RESISTIVITY LEVERAGED IN GEOLOGICAL MODELLING 
 DPHI_I.V/V            : ENVERUS INTERPRETED DENSITY POROSITY USING A 2.71 G/CC MATRIX DENSITY 
 PHIE_I.V/V            : ENVERUS INTERPRETED EFFECTIVE POROSITY 
 SW_I.V/V              : ENVERUS INTERPRETED WATER SATURATION USING MODIFIED SIMANDOUX EQUATION 
 TOC_I.WT%             : ENVERUS INTERPRETED TOTAL ORGANIC CARBON USING MULTI-LINEAR REGRESSION 
 VCLAY_I.V/V           : ENVERUS INTERPRETED CLAY VOLUMES USING MULTI-LINEAR REGRESSION 
 NVCLAY_I.V/V          : ENVERUS INTERPRETED NON CLAY VOLUMES 
 HCPV_I.V/V            : ENVERUS INTERPRETED HYDROCARBON PORE VOLUME 
 OOIP_I.MMBBL/SEC      : ENVERUS INTERPRETED ORIGINAL OIL IN PLACE 
 OGIP_I.BCF/SEC        : ENVERUS INTERPRETED ORIGINAL GAS IN PLACE 
 TEMP_I.DEGF           : ENVERUS INTERPRETED TEMPERATURE DERIVED FROM BOTTOM HOLE TEMPERATURES 
 #___________________________________________________________________________________________________ 
~A         DEPT          TVD_I         ZONE_I         GR_N_I         RESD_I         DPHI_I         PHIE_I           SW_I          TOC_I        VCLAY_I       NVCLAY_I         HCPV_I         OOIP_I         OGIP_I         TEMP_I
# ...
        11758.0      11758.000          15.00        101.696         3.6680        0.05700        0.03830        1.00000        2.66500        0.32690        0.63480        0.00000        0.00000        0.00000        508.782
        11758.5      11758.500          15.00        103.611         3.6920        0.06050        0.04060        1.00000        2.76860        0.32800        0.63140        0.00000        0.00000        0.00000        508.801
        11759.0      11759.001          15.00        103.974         3.7360        0.06390        0.04300        1.00000        2.84180        0.32710        0.62990        0.00000        0.00000        0.00000        508.820
        11759.5      11759.500          15.00        102.267         3.7810        0.06740        0.04550        0.98900        2.87650        0.32400        0.63050        0.00000        0.00140       11.58090        508.839
        11760.0      11760.000          15.00        101.124         3.8250        0.07080        0.04770        0.96200        2.93290        0.32520        0.62710        0.00000        0.00510       42.05570        508.858
        11760.5      11760.500          15.00        101.333         3.8690        0.07220        0.04830        0.94030        2.98340        0.33070        0.62100        0.00000        0.00810       66.80060        508.877
        11761.0      11761.000          15.00        101.078         3.9130        0.07200        0.04780        0.92530        2.99880        0.33700        0.61530        0.00000        0.01000       82.61810        508.896
        11761.5      11761.500          15.00         98.605         3.9190        0.06790        0.04510        0.94270        2.87680        0.33620        0.61870        0.00000        0.00720       59.79550        508.915
        11762.0      11762.000          15.00         96.132         3.8800        0.05640        0.03730        0.97650        2.62150        0.33850        0.62410        0.00000        0.00250       20.30500        508.934
        11762.5      11762.499          15.00         96.548         3.8400        0.04270        0.02790        0.87850        2.37980        0.34560        0.62640        0.00000        0.00950       78.59800        508.953
        11763.0      11762.999          15.00         98.735         3.8010        0.04630        0.03020        0.93430        2.47990        0.34640        0.62340        0.00000        0.00560       45.95060        508.971
        11763.5      11763.500          15.00         99.446         3.7610        0.05570        0.03660        0.99350        2.66630        0.34300        0.62040        0.00000        0.00070        5.50770        508.990
        11764.0      11764.000          15.00        100.157         3.7210        0.06420        0.04240        0.99080        2.83590        0.33970        0.61790        0.00000        0.00110        9.06400        509.009
        11764.5      11764.500          15.00        102.746         3.6820        0.06330        0.04140        0.99110        2.87690        0.34610        0.61250        0.00000        0.00100        8.53440        509.028
        11765.0      11765.000          15.00        105.797         3.6420        0.06120        0.03980        0.99950        2.88850        0.34960        0.61060        0.00000        0.00010        0.44180        509.047
        11765.5      11765.500          15.00        105.882         3.6280        0.05900        0.03860        1.00000        2.83330        0.34600        0.61540        0.00000        0.00000        0.00000        509.066
        11766.0      11766.000          15.00        105.570         3.6320        0.05700        0.03750        1.00000        2.77290        0.34190        0.62060        0.00000        0.00000        0.00000        509.085
        11766.5      11766.500          15.00        104.668         3.6360        0.05810        0.03830        1.00000        2.78020        0.34090        0.62080        0.00000        0.00000        0.00000        509.104
        11767.0      11767.000          15.00        102.897         3.6400        0.06010        0.03970        1.00000        2.79180        0.33990        0.62040        0.00000        0.00000        0.00000        509.123
        11767.5      11767.500          15.00        101.127         3.6440        0.06220        0.04130        1.00000        2.79140        0.33510        0.62360        0.00000        0.00000        0.00000        509.142
        11768.0      11768.001          15.00         99.356         3.6480        0.06420        0.04310        1.00000        2.78150        0.32790        0.62900        0.00000        0.00000        0.00000        509.161
        11768.5      11768.500          15.00         99.733         3.6520        0.06500        0.04390        1.00000        2.79180        0.32420        0.63190        0.00000        0.00000        0.00000        509.180
        11769.0      11769.000          15.00        101.201         3.6550        0.06270        0.04240        1.00000        2.76740        0.32430        0.63330        0.00000        0.00000        0.00000        509.199
        11769.5      11769.499          15.00        102.722         3.6590        0.05980        0.04050        1.00000        2.72710        0.32350        0.63610        0.00000        0.00000        0.00000        509.218
        11770.0      11770.000          15.00        106.055         3.6630        0.06090        0.04090        1.00000        2.81610        0.32830        0.63080        0.00000        0.00000        0.00000        509.237
        11770.5      11770.500          15.00        106.011         3.6670        0.06440        0.04300        1.00000        2.89770        0.33170        0.62520        0.00000        0.00000        0.00000        509.256
        11771.0      11771.000          15.00        104.024         3.6710        0.06430        0.04270        1.00000        2.88270        0.33660        0.62070        0.00000        0.00000        0.00000        509.275
        11771.5      11771.499          15.00        102.038         3.6750        0.06370        0.04210        1.00000        2.85310        0.33980        0.61810        0.00000        0.00000        0.00000        509.294
        11772.0      11772.000          15.00        100.051         3.6790        0.06320        0.04280        1.00000        2.75130        0.32210        0.63510        0.00000        0.00000        0.00000        509.313
        11772.5      11772.500          15.00         98.064         3.6830        0.06110        0.04160        1.00000        2.67050        0.31940        0.63900        0.00000        0.00000        0.00000        509.332
        11773.0      11773.000          15.00         97.462         3.6840        0.05830        0.03950        1.00000        2.61850        0.32290        0.63760        0.00000        0.00000        0.00000        509.351
        11773.5      11773.500          15.00         98.456         3.6830        0.05590        0.03750        1.00000        2.60390        0.32860        0.63390        0.00000        0.00000        0.00000        509.370
        11774.0      11774.000          15.00        103.202         3.6810        0.05580        0.03710        1.00000        2.69050        0.33490        0.62800        0.00000        0.00000        0.00000        509.389
        11774.5      11774.500          15.00        103.261         3.6790        0.05340        0.03540        1.00000        2.64710        0.33620        0.62830        0.00000        0.00000        0.00000        509.407
        11775.0      11775.000          15.00        103.321         3.6780        0.04810        0.03140        0.97890        2.58050        0.34770        0.62090        0.00000        0.00180       15.31060        509.426
        11775.5      11775.500          15.00        103.380         3.6760        0.04710        0.03020        0.92870        2.60320        0.35900        0.61080        0.00000        0.00600       49.84080        509.445
