#--------------------------------------------------#
#-------------------ENVERUS, INC.------------------#
#------------------WWW.ENVERUS.COM-----------------#
#------------------COPYRIGHT 2020------------------#
#--------------------------------------------------#
#THIS FILE MAY BE USED ONLY IN ACCORDANCE WITH A CURRENT SUBSCRIPTION AGREEMENT BETWEEN
#THE USER AND ENVERUS, INC. NO PART OF THIS FILE MAY BE REPRODUCED, USED, COPIED,
#MODIFIED, PROPAGATED, OR DISTRIBUTED EXCEPT IN ACCORDANCE WITH THE SUBSCRIPTION
#AGREEMENT. UNAUTHORIZED USE OR DISTRIBUTION OF ALL OR ANY PART OF THIS FILE MAY VIOLATE
#COPYRIGHT, TRADEMARK, AND/OR OTHER LAWS AND IS SUBJECT TO CIVIL AS WELL AS CRIMINAL
#SANCTIONS.
#--------------------------------------------------#
#THIS FILE IS PROVIDED "AS-IS" AND ALL WARRANTIES ARE EXPRESSLY DISCLAIMED, WHETHER
#EXPRESS, ORAL, IMPLIED, STATUTORY OR OTHERWISE, INCLUDING ANY IMPLIED WARRANTY OF FITNESS
#FOR A PARTICULAR PURPOSE, MERCHANTABILITY, TITLE OR NON-INFRINGEMENT, AND ANY WARRANTIES
#ARISING BY VIRTUE OF CUSTOM OF TRADE OR COURSE OF DEALING.  FURTHER, ENVERUS, INC.
#AND ITS LICENSORS DO NOT REPRESENT OR WARRANT THAT THIS FILE WILL MEET USER'S
#REQUIREMENTS OR ARE SUITABLE FOR USER'S NEEDS OR THAT THE DATA OR RESULTS PROVIDED IN
#CONJUNCTION THEREWITH ARE CORRECT, ACCURATE, TIMELY OR RELIABLE. THESE DISCLAIMERS SHALL
#APPLY REGARDLESS OF ANY FAILURE OF ESSENTIAL PURPOSE OF ANY LIMITED REMEDY.  SOME
#JURISDICTIONS DO NOT ALLOW THE EXCLUSION OF CERTAIN WARRANTIES SO SOME OF THE ABOVE
#EXCLUSIONS MAY NOT APPLY. IN NO EVENT SHALL ENVERUS, INC. OR ANY OF ITS AFFILIATES
#BE LIABLE UNDER ANY LEGAL THEORY, WHETHER IN TORT (INCLUDING WITHOUT LIMITATION
#NEGLIGENCE), CONTRACT, STRICT LIABILITY, STATUTORY OR OTHERWISE, FOR ANY SPECIAL,
#INCIDENTAL, CONSEQUENTIAL, EXEMPLARY, PUNITIVE OR INDIRECT DAMAGE OF ANY KIND, INCLUDING
#WITHOUT LIMITATION LOSS OF REVENUE, PROFITS, GOODWILL, USE, AND/OR DATA OR THE COST OF
#PROCUREMENT OF SUBSTITUTE GOODS OR SERVICES, EVEN IF APPRISED OF THE POSSIBILITY OF SUCH
#DAMAGES IN ADVANCE.
#--------------------------------------------------#

~VERSION INFORMATION
VERS. 2.0 : CWLS LOG ASCII STANDARD - VERSION 2.0
WRAP.  NO : ONE LINE PER DEPTH STEP
~WELL INFORMATION
#MNEMONIC     .UNIT              VALUE :DESCRIPTION
STRT       .FT                101 :START DEPTH
STOP       .FT                5382 :STOP DEPTH
STEP       .FT                   0.500 :STEP
NULL       .                  -999.990 :NULL
UWI        .              42389007790000 :UNIQUE WELL ID
API        .              42389007790000 :API NUMBER
COMP       .         :COMPANY
WELL       .         1, :WELL
DATE       .                            :LOG DATE
~CURVE INFORMATION
#MNEMONIC     .UNIT      API CODE :CURVE DESCRIPTION
DEPTH       .FT                      :MEASURED DEPTH
DT.US/FT        UNKNOWN   :DT
GR.API        UNKNOWN   :GR
~A    DEPTH    DT    GR
# ...
 819     -999.990   9.678
 819.5     -999.990   10.377
 820     -999.990   11.077
 820.5     -999.990   11.777
 821     -999.990   12.477
 821.5     -999.990   13.177
 822     -999.990   13.876
 822.5     -999.990   14.576
 823     -999.990   17.275
 823.5     -999.990   17.124
 824     -999.990   16.974
 824.5     -999.990   16.824
 825     -999.990   16.673
 825.5     -999.990   16.523
 826     -999.990   16.373
 826.5     -999.990   16.222
 827     -999.990   16.072
 827.5     -999.990   15.921
 828     -999.990   15.771
 828.5     -999.990   15.818
 829     -999.990   16.908
 829.5     -999.990   17.997
 830     -999.990   19.086
 830.5     -999.990   20.176
 831     -999.990   21.265
 831.5     -999.990   22.277
 832     -999.990   21.527
 832.5     -999.990   20.812
 833     -999.990   21.902
 833.5     -999.990   22.992
 834     -999.990   24.081
 834.5     -999.990   22.152
 835     -999.990   20.101
 835.5     -999.990   18.051
 836     -999.990   16
 836.5     -999.990   13.949
 837     -999.990   13.437
 837.5     -999.990   13.038
 838     -999.990   12.638
 838.5     -999.990   12.238
 839     -999.990   12.29
 839.5     -999.990   13.102
 840     -999.990   13.913
 840.5     -999.990   14.724
 841     -999.990   15.535
 841.5     -999.990   16.346
 842     -999.990   15.678
 842.5     -999.990   14.576
 843     -999.990   13.475
 843.5     -999.990   13.44
 844     -999.990   13.773
 844.5     -999.990   14.106
 845     -999.990   14.44
 845.5     -999.990   14.773
 846     -999.990   15.106
 846.5     -999.990   15.44
 847     -999.990   15.773
 847.5     -999.990   16.106
 848     -999.990   16.439
 848.5     -999.990   16.773
 849     -999.990   17.106
 849.5     -999.990   17.4
 850     -999.990   16.83
 850.5     -999.990   16.26
 851     -999.990   15.69
 851.5     -999.990   15.12
 852     -999.990   14.55
 852.5     -999.990   13.98
 853     -999.990   13.41
 853.5     -999.990   12.84
 854     -999.990   12.27
 854.5     -999.990   11.7
 855     -999.990   12.423
 855.5     -999.990   13.256
 856     -999.990   14.089
 856.5     -999.990   14.922
 857     -999.990   15.754
 857.5     -999.990   15.742
 858     -999.990   15.557
 858.5     -999.990   15.372
 859     -999.990   15.187
 859.5     -999.990   15.003
 860     -999.990   14.818
 860.5     -999.990   14.999
 861     -999.990   16.335
 861.5     -999.990   17.237
 862     -999.990   16.406
 862.5     -999.990   15.575
 863     -999.990   14.744
 863.5     -999.990   13.912
 864     -999.990   13.081
 864.5     -999.990   12.25
 865     -999.990   12.635
 865.5     -999.990   13.739
 866     -999.990   14.843
 866.5     -999.990   15.866
 867     -999.990   15.64
 867.5     -999.990   15.415
 868     -999.990   15.19
 868.5     -999.990   14.964
 869     -999.990   14.739
 869.5     -999.990   14.514
 870     -999.990   14.289
 870.5     -999.990   14.063
 871     -999.990   15.185
 871.5     -999.990   16.374
 872     -999.990   16.528
 872.5     -999.990   15.153
 873     -999.990   13.777
 873.5     -999.990   12.402
 874     -999.990   13.032
 874.5     -999.990   13.951
 875     -999.990   14.871
 875.5     -999.990   15.79
 876     -999.990   16.709
 876.5     -999.990   16.216
 877     -999.990   16.099
 877.5     -999.990   17.189
 878     -999.990   18.279
 878.5     -999.990   19.37
 879     -999.990   20.46
 879.5     -999.990   21.55
 880     -999.990   21.657
 880.5     -999.990   21.257
 881     -999.990   20.857
 881.5     -999.990   23.618
 882     -999.990   28.309
 882.5     -999.990   32.999
 883     -999.990   36.447
 883.5     -999.990   38.741
 884     -999.990   41.035
 884.5     -999.990   43.329
 885     -999.990   42.563
 885.5     -999.990   37.623
 886     -999.990   32.682
 886.5     -999.990   27.741
 887     -999.990   22.801
 887.5     -999.990   19.341
 888     -999.990   17.685
 888.5     -999.990   16.716
 889     -999.990   16.636
 889.5     -999.990   16.555
 890     -999.990   16.474
 890.5     -999.990   16.394
 891     -999.990   16.313
 891.5     -999.990   16.233
 892     -999.990   16.152
 892.5     -999.990   15.939
 893     -999.990   15.699
 893.5     -999.990   15.458
 894     -999.990   15.218
 894.5     -999.990   14.978
 895     -999.990   14.738
 895.5     -999.990   14.498
 896     -999.990   14.51
 896.5     -999.990   15.36
 897     -999.990   16.21
 897.5     -999.990   17.06
 898     -999.990   16.826
 898.5     -999.990   16.054
 899     -999.990   15.282
 899.5     -999.990   15.803
 900     -999.990   19.017
 900.5     -999.990   18.278
 901     -999.990   17.539
 901.5     -999.990   16.8
 902     -999.990   16.061
 902.5     -999.990   15.322
 903     -999.990   14.609
 903.5     -999.990   14.741
 904     -999.990   14.873
 904.5     -999.990   15.005
 905     -999.990   15.136
 905.5     -999.990   15.593
 906     -999.990   16.427
 906.5     -999.990   17.26
 907     -999.990   18.094
 907.5     -999.990   18.927
 908     -999.990   19.213
 908.5     -999.990   18.583
 909     -999.990   17.952
 909.5     -999.990   17.322
 910     -999.990   16.692
 910.5     -999.990   16.062
 911     -999.990   15.431
 911.5     -999.990   14.801
 912     -999.990   14.171
 912.5     -999.990   13.54
 913     -999.990   13.449
 913.5     -999.990   14.907
 914     -999.990   16.365
 914.5     -999.990   17.824
 915     -999.990   19.282
 915.5     -999.990   20.74
 916     -999.990   21.182
 916.5     -999.990   21.069
 917     -999.990   20.956
 917.5     -999.990   20.843
 918     -999.990   20.73
 918.5     -999.990   20.617
 919     -999.990   20.505
 919.5     -999.990   20.392
 920     -999.990   23.17
 920.5     -999.990   28.438
 921     -999.990   31.642
 921.5     -999.990   32.476
 922     -999.990   33.31
 922.5     -999.990   34.143
 923     -999.990   34.977
 923.5     -999.990   36.895
 924     -999.990   40.599
 924.5     -999.990   44.304
 925     -999.990   48.009
 925.5     -999.990   48.719
 926     -999.990   48.569
 926.5     -999.990   48.419
 927     -999.990   48.268
 927.5     -999.990   49.398
 928     -999.990   51.018
 928.5     -999.990   52.639
 929     -999.990   54.259
 929.5     -999.990   55.88
 930     -999.990   56.681
 930.5     -999.990   50.917
 931     -999.990   45.153
 931.5     -999.990   39.389
 932     -999.990   32.455
 932.5     -999.990   26.392
 933     -999.990   28.321
 933.5     -999.990   30.249
 934     -999.990   32.178
 934.5     -999.990   34.106
 935     -999.990   36.035
 935.5     -999.990   37.876
 936     -999.990   36.975
 936.5     -999.990   36.09
 937     -999.990   36.805
 937.5     -999.990   37.52
 938     -999.990   36.913
 938.5     -999.990   34.802
 939     -999.990   32.69
 939.5     -999.990   30.578
 940     -999.990   28.467
 940.5     -999.990   26.792
 941     -999.990   25.676
 941.5     -999.990   24.56
 942     -999.990   23.444
 942.5     -999.990   21.921
 943     -999.990   20.356
 943.5     -999.990   18.79
 944     -999.990   17.225
 944.5     -999.990   15.659
 945     -999.990   15.276
 945.5     -999.990   15.076
 946     -999.990   14.876
 946.5     -999.990   14.676
 947     -999.990   14.475
 947.5     -999.990   14.275
 948     -999.990   14.075
 948.5     -999.990   14.719
 949     -999.990   17.674
 949.5     -999.990   19.338
 950     -999.990   16.311
 950.5     -999.990   13.285
 951     -999.990   11.551
 951.5     -999.990   14.702
 952     -999.990   17.852
 952.5     -999.990   21.003
 953     -999.990   24.153
 953.5     -999.990   27.304
 954     -999.990   30.25
 954.5     -999.990   29.349
 955     -999.990   28.448
 955.5     -999.990   27.599
 956     -999.990   29.459
 956.5     -999.990   31.32
 957     -999.990   33.18
 957.5     -999.990   35.041
 958     -999.990   36.901
 958.5     -999.990   38.762
 959     -999.990   40.622
 959.5     -999.990   42.027
 960     -999.990   42.623
 960.5     -999.990   43.22
 961     -999.990   41.567
 961.5     -999.990   39.422
 962     -999.990   37.277
 962.5     -999.990   35.131
