#--------------------------------------------------#
#-------------------ENVERUS, INC.------------------#
#------------------WWW.ENVERUS.COM-----------------#
#------------------COPYRIGHT 2020------------------#
#--------------------------------------------------#
#THIS FILE MAY BE USED ONLY IN ACCORDANCE WITH A CURRENT SUBSCRIPTION AGREEMENT BETWEEN
#THE USER AND ENVERUS, INC. NO PART OF THIS FILE MAY BE REPRODUCED, USED, COPIED,
#MODIFIED, PROPAGATED, OR DISTRIBUTED EXCEPT IN ACCORDANCE WITH THE SUBSCRIPTION
#AGREEMENT. UNAUTHORIZED USE OR DISTRIBUTION OF ALL OR ANY PART OF THIS FILE MAY VIOLATE
#COPYRIGHT, TRADEMARK, AND/OR OTHER LAWS AND IS SUBJECT TO CIVIL AS WELL AS CRIMINAL
#SANCTIONS.
#--------------------------------------------------#
#THIS FILE IS PROVIDED "AS-IS" AND ALL WARRANTIES ARE EXPRESSLY DISCLAIMED, WHETHER
#EXPRESS, ORAL, IMPLIED, STATUTORY OR OTHERWISE, INCLUDING ANY IMPLIED WARRANTY OF FITNESS
#FOR A PARTICULAR PURPOSE, MERCHANTABILITY, TITLE OR NON-INFRINGEMENT, AND ANY WARRANTIES
#ARISING BY VIRTUE OF CUSTOM OF TRADE OR COURSE OF DEALING.  FURTHER, ENVERUS, INC.
#AND ITS LICENSORS DO NOT REPRESENT OR WARRANT THAT THIS FILE WILL MEET USER'S
#REQUIREMENTS OR ARE SUITABLE FOR USER'S NEEDS OR THAT THE DATA OR RESULTS PROVIDED IN
#CONJUNCTION THEREWITH ARE CORRECT, ACCURATE, TIMELY OR RELIABLE. THESE DISCLAIMERS SHALL
#APPLY REGARDLESS OF ANY FAILURE OF ESSENTIAL PURPOSE OF ANY LIMITED REMEDY.  SOME
#JURISDICTIONS DO NOT ALLOW THE EXCLUSION OF CERTAIN WARRANTIES SO SOME OF THE ABOVE
#EXCLUSIONS MAY NOT APPLY. IN NO EVENT SHALL ENVERUS, INC. OR ANY OF ITS AFFILIATES
#BE LIABLE UNDER ANY LEGAL THEORY, WHETHER IN TORT (INCLUDING WITHOUT LIMITATION
#NEGLIGENCE), CONTRACT, STRICT LIABILITY, STATUTORY OR OTHERWISE, FOR ANY SPECIAL,
#INCIDENTAL, CONSEQUENTIAL, EXEMPLARY, PUNITIVE OR INDIRECT DAMAGE OF ANY KIND, INCLUDING
#WITHOUT LIMITATION LOSS OF REVENUE, PROFITS, GOODWILL, USE, AND/OR DATA OR THE COST OF
#PROCUREMENT OF SUBSTITUTE GOODS OR SERVICES, EVEN IF APPRISED OF THE POSSIBILITY OF SUCH
#DAMAGES IN ADVANCE.
#--------------------------------------------------#

~VERSION INFORMATION
VERS. 2.0 : CWLS LOG ASCII STANDARD - VERSION 2.0
WRAP.  NO : ONE LINE PER DEPTH STEP
~WELL INFORMATION
#MNEMONIC     .UNIT              VALUE :DESCRIPTION
STRT       .FT                429 :START DEPTH
STOP       .FT                6365 :STOP DEPTH
STEP       .FT                   0.500 :STEP
NULL       .                  -999.99 :NULL
UWI        .                42371100750000 :UNIQUE WELL ID
API        .                42371100750000 :API NUMBER
COMP       .         :COMPANY
WELL       .        :WELL
DATE       .                 :LOG DATE
FLD       .                 :FIELD NAME
LOC       .                  UNK :LOCATION
CNTY       .                 UNK :COUNTY
STAT       .                 UNK :STATE
CTRY       .                 UNK :COUNTY
SRVC       .                 UNK :SERVICE COMPANY
~CURVE INFORMATION
#MNEMONIC     .UNIT      API CODE :CURVE DESCRIPTION
DEPTH       .FT                      :MEASURED DEPTH
DT.MSEC/FT        UNKNOWN   :DT
GR.API        UNKNOWN   :GR
~A    DEPTH    DT    GR
# ...
 3958     49.45593   17.12178
 3958.5     49.63348   17.63328
 3959     49.81103   18.14477
 3959.5     49.98858   18.65627
 3960     50.16613   19.16776
 3960.5     50.34368   19.59133
 3961     50.52123   19.59056
 3961.5     50.47909   18.41217
 3962     50.32518   17.21752
 3962.5     50.17128   16.55807
 3963     50.01738   15.89862
 3963.5     49.86347   15.23918
 3964     49.70957   15.08838
 3964.5     49.55566   15.01473
 3965     49.6173   15.23806
 3965.5     49.68915   15.85295
 3966     49.761   16.46783
 3966.5     49.83285   17.08272
 3967     49.9047   18.31763
 3967.5     49.97655   19.56975
 3968     50.0484   20.25678
 3968.5     50.12025   20.51161
 3969     50.19211   20.25712
 3969.5     50.04193   19.46142
 3970     49.4937   18.62851
 3970.5     48.94547   16.62679
 3971     48.39724   14.62506
 3971.5     47.84901   14.12436
 3972     50.23064   13.78463
 3972.5     50.51281   14.25347
 3973     50.78734   14.91265
 3973.5     50.65615   15.09238
 3974     50.52496   14.5207
 3974.5     50.39377   13.94902
 3975     50.26258   13.66535
 3975.5     50.13139   13.57999
 3976     50.00021   13.96718
 3976.5     49.86902   15.09576
 3977     49.73783   16.53546
 3977.5     49.71419   17.97515
 3978     49.755   19.41485
 3978.5     49.79582   20.85455
 3979     49.83664   21.06687
 3979.5     49.87745   20.65982
 3980     50.20313   18.7892
 3980.5     50.76009   16.71642
 3981     50.72849   14.28219
 3981.5     50.5684   12.52751
 3982     50.40831   11.72981
 3982.5     50.24821   11.42344
 3983     50.08812   11.51454
 3983.5     49.86737   11.99549
 3984     49.82746   12.79399
 3984.5     49.93451   13.5925
 3985     50.12863   14.391
 3985.5     50.32276   15.1895
 3986     50.32628   15.988
 3986.5     50.25271   16.2894
 3987     50.17914   15.49779
 3987.5     50.10556   14.70618
 3988     50.03199   13.91457
 3988.5     49.97029   13.12295
 3989     50.01111   12.33134
 3989.5     50.05193   12.41477
 3990     50.09275   12.86469
 3990.5     50.13357   13.31461
 3991     50.17007   13.76453
 3991.5     50.06956   14.21445
 3992     49.96905   14.66437
 3992.5     49.86854   15.11429
 3993     49.76803   15.56421
 3993.5     49.66752   16.01381
 3994     49.56701   16.45693
 3994.5     49.68042   16.90004
 3995     49.82639   17.34316
 3995.5     49.97236   17.78628
 3996     50.11833   18.2294
 3996.5     50.2643   17.83147
 3997     50.37045   17.2873
 3997.5     50.32035   16.74313
 3998     50.27026   16.19896
 3998.5     50.22017   15.65479
 3999     50.17008   16.41081
 3999.5     50.11998   17.22629
 4000     50.06989   18.04177
 4000.5     50.0198   18.85725
 4001     49.96971   19.67272
 4001.5     49.91961   20.50715
 4002     49.86952   21.53636
 4002.5     49.81943   22.54637
 4003     49.76934   22.71574
 4003.5     49.83132   22.8851
 4004     49.91273   21.71202
 4004.5     49.99413   20.45174
 4005     50.07554   20.19066
 4005.5     50.15695   20.13886
 4006     50.14428   20.08706
 4006.5     50.10348   19.87714
 4007     50.06269   19.36936
 4007.5     50.02189   18.3368
 4008     49.9811   16.95192
 4008.5     49.94031   15.56703
 4009     49.89951   14.86529
 4009.5     49.85872   14.35708
 4010     49.81792   15.13515
 4010.5     49.77713   16.30924
 4011     49.73634   17.37546
 4011.5     49.69554   18.44169
 4012     49.65475   19.50791
 4012.5     49.61395   20.57413
 4013     49.57316   19.82922
 4013.5     49.60456   18.71835
 4014     49.68306   17.60748
 4014.5     49.76156   16.4966
 4015     49.84006   15.38573
 4015.5     49.91856   14.89575
 4016     49.99706   14.895
 4016.5     50.07556   14.89425
 4017     50.15406   14.98109
 4017.5     50.17777   15.18508
 4018     50.17786   16.02098
 4018.5     50.17794   17.13701
 4019     50.17803   17.18725
 4019.5     50.19663   16.60685
 4020     50.29046   16.13066
 4020.5     50.38429   16.12991
 4021     50.47813   16.98655
 4021.5     50.57196   18.07361
 4022     50.66579   19.16067
 4022.5     50.75962   19.54071
 4023     50.85345   19.60381
 4023.5     50.76258   19.6669
 4024     50.63958   19.09586
 4024.5     50.51658   18.46133
 4025     50.39357   17.81546
 4025.5     50.27057   17.07834
 4026     50.14756   16.34121
 4026.5     50.02456   15.60409
 4027     49.93218   15.05615
 4027.5     49.86209   15.0554
 4028     49.792   15.05466
 4028.5     49.72191   16.33034
 4029     49.65183   17.88231
 4029.5     49.58174   19.43428
 4030     49.51165   19.58073
 4030.5     49.44156   19.22799
 4031     49.37148   18.87526
 4031.5     49.30139   18.52252
 4032     49.2313   18.15547
 4032.5     49.16121   17.73162
 4033     49.09489   17.30776
 4033.5     49.0295   16.88391
 4034     48.9641   16.45992
 4034.5     48.89871   16.02368
 4035     48.83332   15.58743
 4035.5     48.76792   15.766
 4036     48.70253   16.41536
 4036.5     48.63714   17.06471
 4037     48.60309   17.71407
 4037.5     48.61846   18.36343
 4038     48.63382   18.33607
 4038.5     48.64919   17.21466
 4039     48.66456   16.09324
 4039.5     48.70244   15.33639
 4040     48.74327   15.89484
 4040.5     48.78411   16.45328
 4041     48.80452   17.01172
 4041.5     48.94225   17.57016
 4042     48.94234   18.1286
 4042.5     49.01125   18.68704
 4043     49.09429   19.24548
 4043.5     49.24399   18.93903
 4044     49.39369   18.07153
 4044.5     49.54339   17.33536
 4045     49.69309   16.32094
 4045.5     49.84279   15.06069
 4046     49.99248   14.55569
 4046.5     50.10101   14.38519
 4047     50.0329   14.2147
 4047.5     49.96478   14.04421
 4048     49.89667   13.87371
 4048.5     49.82856   13.7608
 4049     49.77004   13.71364
 4049.5     49.77013   13.66648
 4050     49.77022   13.61932
 4050.5     49.77031   13.88306
 4051     49.7704   14.32126
 4051.5     49.77993   14.75945
 4052     49.8394   15.19765
 4052.5     49.88301   15.63584
 4053     49.92892   16.02103
 4053.5     49.97483   16.39224
 4054     50.02073   16.76346
 4054.5     50.01053   17.13467
 4055     49.92873   16.83092
 4055.5     49.84692   16.51248
 4056     49.76512   16.15819
 4056.5     49.68332   15.65
 4057     49.64828   15.14181
 4057.5     49.68501   14.47331
 4058     49.72174   13.7492
 4058.5     49.75847   13.16154
 4059     49.7952   12.90646
 4059.5     49.83193   12.80432
 4060     49.72376   13.31592
 4060.5     49.56971   13.82752
 4061     49.4967   14.33912
 4061.5     49.35914   14.85072
 4062     49.35923   15.36232
 4062.5     49.45935   15.87392
 4063     49.59841   16.38552
 4063.5     49.73746   16.23591
 4064     49.87651   16.03719
 4064.5     49.86121   15.83847
 4065     49.79581   15.63975
 4065.5     49.7304   15.44103
 4066     49.66499   15.24231
 4066.5     49.59959   15.14056
 4067     49.53418   15.08877
 4067.5     49.46877   15.03697
 4068     49.40337   14.91291
 4068.5     49.43209   14.4607
 4069     49.64146   14.00849
 4069.5     49.85083   13.56369
 4070     50.0602   13.3089
 4070.5     50.26958   13.05411
 4071     50.47895   12.88756
 4071.5     50.61229   12.98859
 4072     49.98113   13.60868
 4072.5     49.59796   14.72442
 4073     49.51293   15.84015
 4073.5     49.4279   16.95589
 4074     49.34288   17.61673
 4074.5     49.25785   17.54323
 4075     49.17282   17.46974
 4075.5     49.0878   17.39625
 4076     49.01955   17.32276
 4076.5     49.03327   17.42674
 4077     49.04698   17.70124
 4077.5     49.06069   17.97574
 4078     49.07441   18.25024
 4078.5     49.03449   18.52391
 4079     48.53285   17.83929
 4079.5     48.29383   17.15466
 4080     48.36708   16.47003
 4080.5     48.44032   15.7854
 4081     48.47597   15.10077
 4081.5     48.59775   14.41615
 4082     48.76551   13.73163
 4082.5     48.88076   13.6037
 4083     48.87736   13.47577
 4083.5     48.84678   13.48475
 4084     48.81619   13.99628
 4084.5     48.7856   14.46535
 4085     48.75502   14.66895
 4085.5     48.85882   14.87255
 4086     49.04491   15.07615
 4086.5     49.23099   15.48525
 4087     49.41708   15.997
 4087.5     49.60317   16.50875
