###############################################
##         ENVERUS                           ##
##         Petrophysical Curves              ##
##         PERMIAN / DELAWARE                ##
##         Jan 21 2022                       ##
##         42-389-10491-00-00                ##
###############################################
## Copyright 2017-2022  ENVERUS.  All Rights Reserved. 
## Confidential - Property of ENVERUS, use governed by terms and 
## conditions found within the existing Information Services Subscription Agreement 
## (as may be amended, the “ISSA”) between Customer and ENVERUS. 
## 
~VERSION INFORMATION
# MNEM.UNIT                               DATA : DESCRIPTION OF MNEMONIC
#-----.-----     ----------------------------- : -----------------------------
VERS.                                     2.00 : CWLS LOG ASCII STANDARD - VERSION 2.00
WRAP.                                       NO : MULTIPLE LINES PER DEPTH STEP
VEND.                                  ENVERUS : VENDOR
TYPE.                     PETROPHYSICAL CURVES : ENVERUS PETROPHYSICAL CURVES - ACCESSIBLE THROUGH ENVERUS CORE(TM)
#___________________________________________________________________________________________________ 
~WELL INFORMATION 
# uyaQ8P8kQDJ9DXFS5hR1PxmExEOYaAUkY5f3/tnOS+scoPAUWgXA1zCIHGRbWCuSuUcwDzaESCjqjWQ81XhadA== 
# MNEM.UNIT                                              DATA : DESCRIPTION OF MNEMONIC 
#-----.-----                    ----------------------------- : ----------------------------- 
CNTY.                                                  REEVES : COUNTY 
STATE.                                                  TEXAS : STATE 
CNTRY.                                                    USA : COUNTRY 
API.                                             42-389-10491 : API (10 Digit) 
API_14.                                    42-389-10491-00-00 : API (14 Digits) 
API_14_std.                                 42-389-10491-0000 : API (14 Digits Standard) 
UWI.                                           42389104910000 : UNIQUE WELL ID
STRT.FT                                                 102.0 : START DEPTH
STOP.FT                                                9071.0 : STOP DEPTH
STEP.FT                                                   0.5 : STEP BETWEEN DEPTHS
NULL.                                                 -999.25 : NULL VALUE
COMP.                                FLAT CREEK RESOURCES LLC : COMPANY 
WELL.                                         REEVES-AW-FEE 1 : WELL NAME 
FLD.                                                     TORO : FIELD NAME
#___________________________________________________________________________________________________ 
~CURVE INFORMATION 
#    Zone Description
#          1 = Upper Avalon
#          2 = Middle Avalon
#          3 = Lower Avalon
#          4 = 1st Bone Spring
#          5 = 2nd Bone Spring
#          6 = 2nd Bone Spring Sand
#          7 = 3rd Bone Spring
#          8 = 3rd Bone Spring Sand
#          9 = Wolfcamp XY
#          10 = Wolfcamp A Upper
#          11 = Wolfcamp A Lower
#          12 = Wolfcamp B Upper
#          13 = Wolfcamp B Lower
#          14 = Wolfcamp C
#          15 = Wolfcamp D
#          16 = Pennsylvanian Shale
#          17 = Lower Pennsylvanian Shale
#          18 = Barnett
#          19 = Barnett Lower
#          20 = Mississippian Lime
#          21 = Woodford
#          22 = Base Woodford 
# MNEM.UNIT           : CURVE DESCRIPTION 
#-----.-----          : ----------------------------- 
 DEPT.FT               : MEASURED DEPTH 
 TVD_I.FT              : ENVERUS TRUE VERTICAL DEPTH 
 ZONE_I.               : ENVERUS DEFINED ZONE CODE 
 GR_N_I.API            : ENVERUS NORMALIZED GAMMA RAY LEVERAGED IN GEOLOGICAL MODELLING 
 TEMP_I.DEGF           : ENVERUS INTERPRETED TEMPERATURE DERIVED FROM BOTTOM HOLE TEMPERATURES 
 #___________________________________________________________________________________________________ 
~A         DEPT          TVD_I         ZONE_I         GR_N_I         TEMP_I
# ...
         9006.0       9006.000           3.00        103.235        158.385
         9006.5       9006.500           3.00        107.864        158.390
         9007.0       9007.000           3.00        112.578        158.396
         9007.5       9007.500           3.00        117.234        158.401
         9008.0       9008.000           3.00        121.312        158.406
         9008.5       9008.500           3.00        125.393        158.411
         9009.0       9009.000           3.00        127.642        158.417
         9009.5       9009.501           3.00        128.709        158.422
         9010.0       9010.000           3.00        120.323        158.427
         9010.5       9010.500           3.00        112.083        158.433
         9011.0       9011.000           3.00        106.874        158.438
         9011.5       9011.500           3.00        108.535        158.443
         9012.0       9012.000           3.00        113.262        158.448
         9012.5       9012.500           3.00        117.834        158.454
         9013.0       9012.999        -999.25        116.563        158.459
         9013.5       9013.499        -999.25        114.320        158.464
         9014.0       9014.000        -999.25        107.466        158.470
         9014.5       9014.500        -999.25         89.834        158.475
         9015.0       9015.000        -999.25         72.202        158.480
         9015.5       9015.500        -999.25         54.569        158.486
         9016.0       9016.000        -999.25         53.201        158.491
         9016.5       9016.500        -999.25         62.217        158.496
         9017.0       9017.000        -999.25         71.233        158.501
         9017.5       9017.500        -999.25         80.251        158.507
         9018.0       9018.000        -999.25         87.141        158.512
         9018.5       9018.501        -999.25         86.123        158.517
         9019.0       9019.000        -999.25         83.138        158.523
         9019.5       9019.500        -999.25         81.392        158.528
         9020.0       9020.000        -999.25         82.321        158.533
         9020.5       9020.500        -999.25         83.250        158.539
         9021.0       9021.000        -999.25         84.178        158.544
         9021.5       9021.500        -999.25         83.128        158.549
         9022.0       9022.000        -999.25         80.249        158.554
         9022.5       9022.500        -999.25         77.369        158.560
         9023.0       9023.000        -999.25         76.063        158.565
         9023.5       9023.500        -999.25         78.699        158.570
         9024.0       9024.000        -999.25         85.073        158.576
         9024.5       9024.500        -999.25         91.514        158.581
         9025.0       9025.000        -999.25         99.498        158.586
         9025.5       9025.500        -999.25        107.481        158.591
         9026.0       9026.000        -999.25        115.241        158.597
         9026.5       9026.500        -999.25        118.546        158.602
         9027.0       9027.001        -999.25        117.871        158.607
         9027.5       9027.501        -999.25        116.326        158.613
         9028.0       9028.000        -999.25        110.304        158.618
         9028.5       9028.500        -999.25        100.640        158.623
         9029.0       9029.000        -999.25         90.978        158.629
         9029.5       9029.500        -999.25         91.139        158.634
         9030.0       9030.000        -999.25         99.261        158.639
         9030.5       9030.500        -999.25        107.562        158.644
         9031.0       9031.000        -999.25        111.511        158.650
         9031.5       9031.500        -999.25        111.835        158.655
         9032.0       9032.000        -999.25        115.792        158.660
         9032.5       9032.500        -999.25        119.821        158.666
         9033.0       9033.000        -999.25        118.434        158.671
         9033.5       9033.501        -999.25        114.911        158.676
         9034.0       9034.000        -999.25        110.223        158.681
         9034.5       9034.500        -999.25        103.950        158.687
         9035.0       9034.999        -999.25         95.077        158.692
         9035.5       9035.500        -999.25         86.206        158.697
         9036.0       9036.000        -999.25         80.292        158.703
         9036.5       9036.500        -999.25         75.947        158.708
         9037.0       9037.000        -999.25         71.600        158.713
         9037.5       9037.499        -999.25         67.255        158.719
         9038.0       9038.000        -999.25         67.121        158.724
         9038.5       9038.500        -999.25         74.289        158.729
         9039.0       9039.000        -999.25         86.233        158.734
         9039.5       9039.500        -999.25         98.177        158.740
         9040.0       9040.000        -999.25        107.711        158.745
         9040.5       9040.500        -999.25        105.497        158.750
         9041.0       9041.000        -999.25        101.650        158.756
         9041.5       9041.500        -999.25        101.329        158.761
         9042.0       9042.001        -999.25        101.009        158.766
         9042.5       9042.500        -999.25        100.688        158.772
         9043.0       9043.000        -999.25        100.367        158.777
         9043.5       9043.499        -999.25         99.139        158.782
         9044.0       9043.999        -999.25         97.507        158.787
         9044.5       9044.500        -999.25         95.904        158.793
         9045.0       9045.000        -999.25         94.524        158.798
         9045.5       9045.500        -999.25         93.242        158.803
         9046.0       9046.000        -999.25         91.960        158.809
         9046.5       9046.500        -999.25         93.168        158.814
         9047.0       9047.000        -999.25         97.947        158.819
         9047.5       9047.500        -999.25        102.727        158.824
         9048.0       9048.000        -999.25        107.504        158.830
         9048.5       9048.501        -999.25        111.553        158.835
         9049.0       9049.000        -999.25        112.579        158.840
         9049.5       9049.500        -999.25        113.607        158.846
         9050.0       9050.000        -999.25        114.633        158.851
         9050.5       9050.500        -999.25        115.659        158.856
         9051.0       9051.000        -999.25        115.769        158.862
         9051.5       9051.500        -999.25        113.526        158.867
         9052.0       9051.999        -999.25        115.031        158.872
         9052.5       9052.499        -999.25        116.804        158.877
         9053.0       9053.000        -999.25        118.580        158.883
         9053.5       9053.500        -999.25        117.104        158.888
         9054.0       9054.000        -999.25        114.861        158.893
         9054.5       9054.500        -999.25        112.617        158.899
         9055.0       9055.000        -999.25        110.375        158.904
         9055.5       9055.500        -999.25        113.049        158.909
         9056.0       9056.000        -999.25        115.762        158.914
         9056.5       9056.500        -999.25        114.006        158.920
         9057.0       9057.000        -999.25        110.871        158.925
         9057.5       9057.501        -999.25        101.645        158.930
         9058.0       9058.001        -999.25        100.745        158.936
         9058.5       9058.500        -999.25         99.848        158.941
