#--------------------------------------------------#
#-------------------ENVERUS, INC.------------------#
#------------------WWW.ENVERUS.COM-----------------#
#------------------COPYRIGHT 2020------------------#
#--------------------------------------------------#
#THIS FILE MAY BE USED ONLY IN ACCORDANCE WITH A CURRENT SUBSCRIPTION AGREEMENT BETWEEN
#THE USER AND ENVERUS, INC. NO PART OF THIS FILE MAY BE REPRODUCED, USED, COPIED,
#MODIFIED, PROPAGATED, OR DISTRIBUTED EXCEPT IN ACCORDANCE WITH THE SUBSCRIPTION
#AGREEMENT. UNAUTHORIZED USE OR DISTRIBUTION OF ALL OR ANY PART OF THIS FILE MAY VIOLATE
#COPYRIGHT, TRADEMARK, AND/OR OTHER LAWS AND IS SUBJECT TO CIVIL AS WELL AS CRIMINAL
#SANCTIONS.
#--------------------------------------------------#
#THIS FILE IS PROVIDED "AS-IS" AND ALL WARRANTIES ARE EXPRESSLY DISCLAIMED, WHETHER
#EXPRESS, ORAL, IMPLIED, STATUTORY OR OTHERWISE, INCLUDING ANY IMPLIED WARRANTY OF FITNESS
#FOR A PARTICULAR PURPOSE, MERCHANTABILITY, TITLE OR NON-INFRINGEMENT, AND ANY WARRANTIES
#ARISING BY VIRTUE OF CUSTOM OF TRADE OR COURSE OF DEALING.  FURTHER, ENVERUS, INC.
#AND ITS LICENSORS DO NOT REPRESENT OR WARRANT THAT THIS FILE WILL MEET USER'S
#REQUIREMENTS OR ARE SUITABLE FOR USER'S NEEDS OR THAT THE DATA OR RESULTS PROVIDED IN
#CONJUNCTION THEREWITH ARE CORRECT, ACCURATE, TIMELY OR RELIABLE. THESE DISCLAIMERS SHALL
#APPLY REGARDLESS OF ANY FAILURE OF ESSENTIAL PURPOSE OF ANY LIMITED REMEDY.  SOME
#JURISDICTIONS DO NOT ALLOW THE EXCLUSION OF CERTAIN WARRANTIES SO SOME OF THE ABOVE
#EXCLUSIONS MAY NOT APPLY. IN NO EVENT SHALL ENVERUS, INC. OR ANY OF ITS AFFILIATES
#BE LIABLE UNDER ANY LEGAL THEORY, WHETHER IN TORT (INCLUDING WITHOUT LIMITATION
#NEGLIGENCE), CONTRACT, STRICT LIABILITY, STATUTORY OR OTHERWISE, FOR ANY SPECIAL,
#INCIDENTAL, CONSEQUENTIAL, EXEMPLARY, PUNITIVE OR INDIRECT DAMAGE OF ANY KIND, INCLUDING
#WITHOUT LIMITATION LOSS OF REVENUE, PROFITS, GOODWILL, USE, AND/OR DATA OR THE COST OF
#PROCUREMENT OF SUBSTITUTE GOODS OR SERVICES, EVEN IF APPRISED OF THE POSSIBILITY OF SUCH
#DAMAGES IN ADVANCE.
#--------------------------------------------------#

~VERSION INFORMATION
VERS. 2.0 : CWLS LOG ASCII STANDARD - VERSION 2.0
WRAP.  NO : ONE LINE PER DEPTH STEP
~WELL INFORMATION
#MNEMONIC     .UNIT              VALUE :DESCRIPTION
STRT       .FT                102 :START DEPTH
STOP       .FT                9071 :STOP DEPTH
STEP       .FT                   0.500 :STEP
NULL       .                  -999.99 :NULL
UWI        .                42389104910000 :UNIQUE WELL ID
API        .                42389104910000 :API NUMBER
COMP       .         :COMPANY
WELL       .        :WELL
DATE       .                 :LOG DATE
FLD       .                 :FIELD NAME
LOC       .                  UNK :LOCATION
CNTY       .                 UNK :COUNTY
STAT       .                 UNK :STATE
CTRY       .                 UNK :COUNTY
SRVC       .                 UNK :SERVICE COMPANY
~CURVE INFORMATION
#MNEMONIC     .UNIT      API CODE :CURVE DESCRIPTION
DEPTH       .FT                      :MEASURED DEPTH
DT.MSEC/FT        UNKNOWN   :DT
GR.API        UNKNOWN   :GR
~A    DEPTH    DT    GR
# ...
 8966     80.28992   54.45571
 8966.5     80.76402   54.98397
 8967     81.30132   55.51223
 8967.5     81.88676   55.0689
 8968     82.63633   53.97689
 8968.5     83.38591   53.11092
 8969     83.83118   53.31823
 8969.5     83.7832   53.83325
 8970     83.73523   52.54257
 8970.5     83.68725   51.04272
 8971     83.63927   50.84425
 8971.5     83.67335   51.3503
 8972     83.74488   51.85635
 8972.5     83.8164   52.3624
 8973     83.66231   52.54753
 8973.5     83.32681   52.25959
 8974     82.99132   51.97165
 8974.5     82.65583   51.6837
 8975     83.19807   51.62323
 8975.5     84.01804   52.86082
 8976     84.83801   54.0984
 8976.5     84.88203   54.19801
 8977     84.77732   55.17265
 8977.5     84.6726   57.93369
 8978     84.65384   60.69473
 8978.5     84.87649   63.45578
 8979     85.09915   66.21682
 8979.5     85.3218   66.13093
 8980     84.44717   64.76675
 8980.5     83.45589   63.40258
 8981     82.4646   62.0384
 8981.5     81.47332   60.67423
 8982     82.14253   62.18496
 8982.5     82.99366   63.77252
 8983     83.8448   65.36009
 8983.5     84.69593   66.94765
 8984     84.30526   68.53522
 8984.5     83.70642   69.3392
 8985     83.10758   66.69653
 8985.5     82.50875   64.12787
 8986     81.90991   62.37843
 8986.5     81.65913   61.52467
 8987     81.53707   61.85743
 8987.5     81.44204   62.74031
 8988     81.41959   63.62318
 8988.5     81.39713   65.06159
 8989     81.37468   66.93965
 8989.5     81.55665   68.68722
 8990     82.44145   69.37366
 8990.5     83.49987   71.41104
 8991     84.25994   76.26939
 8991.5     84.26141   77.14678
 8992     83.74466   78.02106
 8992.5     83.22791   77.46111
 8993     82.87716   75.69756
 8993.5     82.90483   73.93401
 8994     82.9325   72.17047
 8994.5     82.96017   74.40084
 8995     82.98783   78.17477
 8995.5     83.0155   81.04006
 8996     83.33015   81.62843
 8996.5     83.6641   85.15453
 8997     83.79139   89.81151
 8997.5     83.82834   94.4685
 8998     83.55359   93.8928
 8998.5     83.13401   90.2339
 8999     82.71518   86.92116
 8999.5     82.43551   84.20223
 9000     80.89155   81.12191
 9000.5     78.64852   75.24409
 9001     75.93113   69.36626
 9001.5     73.21375   63.6662
 9002     72.5579   58.2853
 9002.5     74.18682   61.9945
 9003     75.81574   65.10278
 9003.5     77.6132   68.21105
 9004     76.62899   70.76056
 9004.5     75.64478   70.61047
 9005     74.86439   66.79281
 9005.5     74.91986   62.97515
 9006     74.35414   62.79347
 9006.5     73.68206   65.60864
 9007     73.00999   68.4763
 9007.5     73.35839   71.30767
 9008     75.86668   73.78918
 9008.5     79.811   76.2707
 9009     80.79635   77.63912
 9009.5     79.9239   78.28815
 9010     78.54405   73.18725
 9010.5     77.54611   68.17451
 9011     77.94801   65.00695
 9011.5     78.94648   66.01712
 9012     79.94494   68.89242
 9012.5     80.52585   71.67307
 9013     80.75463   70.90043
 9013.5     79.34891   69.53645
 9014     74.55604   65.36681
 9014.5     68.50345   54.64182
 9015     62.79704   43.91683
 9015.5     59.38672   33.19184
 9016     58.60361   32.35976
 9016.5     62.19435   37.84408
 9017     65.78508   43.32839
 9017.5     69.37581   48.8127
 9018     72.0029   53.00383
 9018.5     71.79428   52.38452
 9019     70.40273   50.56912
 9019.5     69.6062   49.50683
 9020     69.88334   50.07195
 9020.5     70.38408   50.63707
 9021     70.88482   51.20219
 9021.5     70.58636   50.56344
 9022     69.67046   48.81179
 9022.5     68.75455   47.06013
 9023     67.83865   46.26587
 9023.5     68.76932   47.86894
 9024     70.77317   51.74608
 9024.5     72.77702   55.66438
 9025     74.78087   60.52012
 9025.5     76.77076   65.37585
 9026     78.3641   70.09608
 9026.5     79.95744   72.10571
 9027     80.27287   71.69561
 9027.5     79.28928   70.75631
 9028     74.86818   67.09276
 9028.5     70.56579   61.2153
 9029     70.38213   55.33784
 9029.5     72.54471   55.43591
 9030     76.31518   60.37607
 9030.5     79.47999   65.42479
 9031     79.86945   67.82711
 9031.5     79.85399   68.02394
 9032     79.73227   70.43128
 9032.5     79.54049   72.88246
 9033     79.56266   72.03799
 9033.5     79.16844   69.89543
 9034     77.8871   67.04358
 9034.5     76.60575   63.2277
 9035     75.35778   57.83136
 9035.5     75.1342   52.43503
 9036     72.97573   48.8377
 9036.5     69.95348   46.19455
 9037     66.93123   43.55139
 9037.5     63.90898   40.90823
 9038     63.57573   40.82683
 9038.5     65.45711   45.18729
 9039     70.62881   52.45234
 9039.5     75.13313   59.7174
 9040     78.19434   65.51623
 9040.5     81.12821   64.16895
 9041     81.128   61.82939
 9041.5     81.12538   61.63421
 9042     81.04143   61.43903
 9042.5     80.95749   61.24385
 9043     80.5134   61.04868
 9043.5     79.03617   60.30188
 9044     77.39211   59.30894
 9044.5     75.74805   58.33428
 9045     74.38025   57.49529
 9045.5     73.51554   56.71523
 9046     74.88265   55.93516
 9046.5     76.53675   56.67022
 9047     77.36397   59.57694
 9047.5     79.22063   62.48365
 9048     79.32339   65.39036
 9048.5     79.42616   67.85346
 9049     79.52892   68.47748
 9049.5     79.63168   69.1015
 9050     79.73445   69.72552
 9050.5     79.55284   70.34954
 9051     79.17483   70.41703
 9051.5     78.93277   69.0531
 9052     78.71682   69.9677
 9052.5     78.17434   71.0473
 9053     77.63185   72.12689
 9053.5     77.18897   71.22892
 9054     77.47844   69.86457
 9054.5     77.7679   68.50023
 9055     78.05736   67.13588
 9055.5     78.48201   68.76271
 9056     78.94935   70.41333
 9056.5     79.41669   69.345
 9057     79.06384   67.43767
 9057.5     77.46526   61.82604
 9058     75.86668   61.27944
 9058.5     74.33779   60.73285
 9059     73.72164   61.39597
 9059.5     75.13504   64.44032
 9060     77.28574   67.8275
 9060.5     79.1562   68.41636
 9061     80.3324   69.00523
 9061.5     80.21861   69.48349
 9062     78.72382   64.97554
 9062.5     77.22904   60.10088
 9063     75.73425   55.0393
 9063.5     75.77676   49.97772
 9064     75.99949   49.57416
 9064.5     76.22221   49.47687
 9065     76.44494   49.37958
 9065.5     76.47486   50.13571
 9066     76.47465   51.09726
 9066.5     76.37588   52.05881
 9067     76.13199   53.02036
 9067.5     -999.99   53.32825
 9068     -999.99   52.38326
 9068.5     -999.99   51.43827
 9069     -999.99   50.89594
 9069.5     -999.99   50.89629
 9070     -999.99   45.71872
 9070.5     -999.99   38.99711
 9071     -999.99   29.80428
