###############################################
##         ENVERUS                           ##
##         Petrophysical Curves              ##
##         PERMIAN / DELAWARE                ##
##         Jan 21 2022                       ##
##         42-371-36857-00-00                ##
###############################################
## Copyright 2017-2022  ENVERUS.  All Rights Reserved. 
## Confidential - Property of ENVERUS, use governed by terms and 
## conditions found within the existing Information Services Subscription Agreement 
## (as may be amended, the “ISSA”) between Customer and ENVERUS. 
## 
~VERSION INFORMATION
# MNEM.UNIT                               DATA : DESCRIPTION OF MNEMONIC
#-----.-----     ----------------------------- : -----------------------------
VERS.                                     2.00 : CWLS LOG ASCII STANDARD - VERSION 2.00
WRAP.                                       NO : MULTIPLE LINES PER DEPTH STEP
VEND.                                  ENVERUS : VENDOR
TYPE.                     PETROPHYSICAL CURVES : ENVERUS PETROPHYSICAL CURVES - ACCESSIBLE THROUGH ENVERUS CORE(TM)
#___________________________________________________________________________________________________ 
~WELL INFORMATION 
# uyaQ8P8kQDJ9DXFS5hR1PxmExEOYaAUkY5f3/tnOS+scoPAUWgXA1zCIHGRbWCuSuUcwDzaESCjqjWQ81XhadA== 
# MNEM.UNIT                                              DATA : DESCRIPTION OF MNEMONIC 
#-----.-----                    ----------------------------- : ----------------------------- 
CNTY.                                                   PECOS : COUNTY 
STATE.                                                  TEXAS : STATE 
CNTRY.                                                    USA : COUNTRY 
API.                                             42-371-36857 : API (10 Digit) 
API_14.                                    42-371-36857-00-00 : API (14 Digits) 
API_14_std.                                 42-371-36857-0000 : API (14 Digits Standard) 
UWI.                                           42371368570000 : UNIQUE WELL ID
STRT.FT                                                7870.0 : START DEPTH
STOP.FT                                               16592.5 : STOP DEPTH
STEP.FT                                                   0.5 : STEP BETWEEN DEPTHS
NULL.                                                 -999.25 : NULL VALUE
COMP.                                             DIAMONDBACK : COMPANY 
WELL.                                         MOORE-GILMORE 1 : WELL NAME 
FLD.                                               WAHA  WEST : FIELD NAME
#___________________________________________________________________________________________________ 
~CURVE INFORMATION 
#    Zone Description
#          1 = Upper Avalon
#          2 = Middle Avalon
#          3 = Lower Avalon
#          4 = 1st Bone Spring
#          5 = 2nd Bone Spring
#          6 = 2nd Bone Spring Sand
#          7 = 3rd Bone Spring
#          8 = 3rd Bone Spring Sand
#          9 = Wolfcamp XY
#          10 = Wolfcamp A Upper
#          11 = Wolfcamp A Lower
#          12 = Wolfcamp B Upper
#          13 = Wolfcamp B Lower
#          14 = Wolfcamp C
#          15 = Wolfcamp D
#          16 = Pennsylvanian Shale
#          17 = Lower Pennsylvanian Shale
#          18 = Barnett
#          19 = Barnett Lower
#          20 = Mississippian Lime
#          21 = Woodford
#          22 = Base Woodford 
# MNEM.UNIT           : CURVE DESCRIPTION 
#-----.-----          : ----------------------------- 
 DEPT.FT               : MEASURED DEPTH 
 TVD_I.FT              : ENVERUS TRUE VERTICAL DEPTH 
 ZONE_I.               : ENVERUS DEFINED ZONE CODE 
 GR_N_I.API            : ENVERUS NORMALIZED GAMMA RAY LEVERAGED IN GEOLOGICAL MODELLING 
 RESD_I.OHMM           : ENVERUS DEEP RESISTIVITY LEVERAGED IN GEOLOGICAL MODELLING 
 DPHI_I.V/V            : ENVERUS INTERPRETED DENSITY POROSITY USING A 2.71 G/CC MATRIX DENSITY 
 PHIE_I.V/V            : ENVERUS INTERPRETED EFFECTIVE POROSITY 
 SW_I.V/V              : ENVERUS INTERPRETED WATER SATURATION USING MODIFIED SIMANDOUX EQUATION 
 TOC_I.WT%             : ENVERUS INTERPRETED TOTAL ORGANIC CARBON USING MULTI-LINEAR REGRESSION 
 VCLAY_I.V/V           : ENVERUS INTERPRETED CLAY VOLUMES USING MULTI-LINEAR REGRESSION 
 NVCLAY_I.V/V          : ENVERUS INTERPRETED NON CLAY VOLUMES 
 HCPV_I.V/V            : ENVERUS INTERPRETED HYDROCARBON PORE VOLUME 
 OOIP_I.MMBBL/SEC      : ENVERUS INTERPRETED ORIGINAL OIL IN PLACE 
 OGIP_I.BCF/SEC        : ENVERUS INTERPRETED ORIGINAL GAS IN PLACE 
 TEMP_I.DEGF           : ENVERUS INTERPRETED TEMPERATURE DERIVED FROM BOTTOM HOLE TEMPERATURES 
 #___________________________________________________________________________________________________ 
~A         DEPT          TVD_I         ZONE_I         GR_N_I         RESD_I         DPHI_I         PHIE_I           SW_I          TOC_I        VCLAY_I       NVCLAY_I         HCPV_I         OOIP_I         OGIP_I         TEMP_I
# ...
         9292.0       9292.000        -999.25         70.687      -999.2500        0.12700        0.11040        0.06590        3.01140        0.13030        0.75930        0.09450        0.48770     2060.33960        415.288
         9292.5       9292.500        -999.25         70.624      -999.2500        0.12270        0.10540        0.05710        2.96990        0.14170        0.75290        0.09100        0.46970     1984.41960        415.307
         9293.0       9292.999        -999.25         70.204      -999.2500        0.12450        0.10730        0.05110        2.99610        0.13820        0.75450        0.09260        0.48150     2034.04190        415.326
         9293.5       9293.499        -999.25         71.070      -999.2500        0.12810        0.11110        0.04650        3.07490        0.13290        0.75610        0.09580        0.50070     2115.43290        415.345
         9294.0       9294.000        -999.25         76.096      -999.2500        0.13160        0.11450        0.04160        3.23260        0.13050        0.75510        0.09860        0.51870     2191.53150        415.364
         9294.5       9294.500        -999.25         81.006      -999.2500        0.13520        0.11670        0.04600        3.39730        0.13710        0.74630        0.10120        0.52630     2223.66580        415.383
         9295.0       9295.000        -999.25         85.535      -999.2500        0.13950        0.11950        0.05370        3.57060        0.14360        0.73690        0.10460        0.53470     2259.34230        415.402
         9295.5       9295.500        -999.25         86.186      -999.2500        0.13720        0.11610        0.06060        3.55680        0.15380        0.73010        0.10150        0.51570     2178.94950        415.421
         9296.0       9296.000        -999.25         86.746      -999.2500        0.13220        0.11020        0.06760        3.49750        0.16650        0.72330        0.09510        0.48590     2053.37110        415.440
         9296.5       9296.500        -999.25         88.273      -999.2500        0.12730        0.10440        0.07340        3.46050        0.18020        0.71540        0.08900        0.45730     1932.56350        415.459
         9297.0       9297.000        -999.25         92.541      -999.2500        0.12320        0.09920        0.07090        3.49310        0.19490        0.70590        0.08460        0.43560     1840.74370        415.478
         9297.5       9297.500        -999.25         96.681      -999.2500        0.12740        0.10180        0.06940        3.67340        0.20110        0.69710        0.08760        0.44800     1893.17220        415.497
         9298.0       9298.001        -999.25        100.860      -999.2500        0.13160        0.10440        0.05960        3.85790        0.20700        0.68860        0.09160        0.46420     1961.80360        415.516
         9298.5       9298.500        -999.25        105.141      -999.2500        0.13050        0.10210        0.04720        3.94790        0.21740        0.68050        0.09100        0.46000     1944.27760        415.535
         9299.0       9299.000        -999.25        101.067      -999.2500        0.12980        0.10440        0.04830        3.79810        0.19580        0.69980        0.09290        0.46960     1984.81650        415.554
         9299.5       9299.500        -999.25         96.074      -999.2500        0.12470        0.10220        0.04590        3.56050        0.18040        0.71740        0.09060        0.46100     1948.59530        415.573
         9300.0       9300.000        -999.25         91.033      -999.2500        0.11680        0.09700        0.04040        3.28420        0.17010        0.73290        0.08510        0.44000     1859.54190        415.592
         9300.5       9300.500        -999.25         88.041      -999.2500        0.11250        0.09280        0.02840        3.16880        0.17480        0.73230        0.08120        0.42660     1803.05710        415.610
         9301.0       9301.000        -999.25         91.890      -999.2500        0.11980        0.09920        0.03370        3.37710        0.17240        0.72850        0.08720        0.45310     1915.17440        415.629
         9301.5       9301.499        -999.25         90.698      -999.2500        0.12500        0.10380        0.03970        3.44990        0.16940        0.72680        0.09150        0.47140     1992.60020        415.648
         9302.0       9301.999        -999.25         89.150      -999.2500        0.12390        0.10350        0.04840        3.37660        0.16460        0.73190        0.09100        0.46580     1969.11410        415.667
         9302.5       9302.500        -999.25         92.745      -999.2500        0.12300        0.10330        0.05760        3.39590        0.16020        0.73650        0.08970        0.46020     1945.64260        415.686
         9303.0       9303.000        -999.25         94.326      -999.2500        0.12690        0.10680        0.06710        3.49060        0.15810        0.73500        0.09190        0.47130     1992.52220        415.705
         9303.5       9303.500        -999.25         89.174      -999.2500        0.12480        0.10490        0.07500        3.35690        0.15940        0.73570        0.08870        0.45890     1939.92820        415.724
         9304.0       9304.000        -999.25         85.105      -999.2500        0.12090        0.10120        0.08140        3.21480        0.16290        0.73590        0.08420        0.43950     1858.23600        415.743
         9304.5       9304.500        -999.25         81.041      -999.2500        0.11700        0.09720        0.08390        3.08460        0.16880        0.73400        0.08020        0.42110     1780.57590        415.762
         9305.0       9305.000        -999.25         76.970      -999.2500        0.11310        0.09300        0.08500        2.96660        0.17740        0.72960        0.07630        0.40260     1702.10930        415.781
         9305.5       9305.500        -999.25         75.324      -999.2500        0.10990        0.08890        0.08370        2.92110        0.19140        0.71970        0.07270        0.38520     1628.80850        415.800
         9306.0       9306.000        -999.25         80.270      -999.2500        0.11120        0.08810        0.08270        3.07870        0.20800        0.70390        0.07240        0.38210     1615.85520        415.819
         9306.5       9306.500        -999.25         84.146      -999.2500        0.11250        0.08660        0.07810        3.23980        0.23070        0.68270        0.07170        0.37730     1595.55080        415.838
         9307.0       9307.001        -999.25         88.009      -999.2500        0.11370        0.08770        0.07970        3.32230        0.22920        0.68310        0.07260        0.38150     1613.25890        415.857
         9307.5       9307.500        -999.25         91.648      -999.2500        0.11740        0.09150        0.07680        3.43060        0.22000        0.68850        0.07670        0.39960     1690.09480        415.876
         9308.0       9308.000        -999.25         86.814      -999.2500        0.12400        0.09890        0.08240        3.42990        0.20190        0.69920        0.08300        0.42930     1815.61050        415.895
         9308.5       9308.500        -999.25         81.510      -999.2500        0.13050        0.10650        0.09610        3.41580        0.18400        0.70950        0.08810        0.45530     1925.49120        415.914
         9309.0       9309.000        -999.25         76.201      -999.2500        0.13710        0.11400        0.11350        3.40860        0.16860        0.71740        0.09200        0.47800     2021.47440        415.933
         9309.5       9309.500        -999.25         71.481      -999.2500        0.13970        0.11790        0.13110        3.33730        0.15580        0.72630        0.09230        0.48460     2049.79520        415.952
