#--------------------------------------------------#
#-------------------ENVERUS, INC.------------------#
#------------------WWW.ENVERUS.COM-----------------#
#------------------COPYRIGHT 2020------------------#
#--------------------------------------------------#
#THIS FILE MAY BE USED ONLY IN ACCORDANCE WITH A CURRENT SUBSCRIPTION AGREEMENT BETWEEN
#THE USER AND ENVERUS, INC. NO PART OF THIS FILE MAY BE REPRODUCED, USED, COPIED,
#MODIFIED, PROPAGATED, OR DISTRIBUTED EXCEPT IN ACCORDANCE WITH THE SUBSCRIPTION
#AGREEMENT. UNAUTHORIZED USE OR DISTRIBUTION OF ALL OR ANY PART OF THIS FILE MAY VIOLATE
#COPYRIGHT, TRADEMARK, AND/OR OTHER LAWS AND IS SUBJECT TO CIVIL AS WELL AS CRIMINAL
#SANCTIONS.
#--------------------------------------------------#
#THIS FILE IS PROVIDED "AS-IS" AND ALL WARRANTIES ARE EXPRESSLY DISCLAIMED, WHETHER
#EXPRESS, ORAL, IMPLIED, STATUTORY OR OTHERWISE, INCLUDING ANY IMPLIED WARRANTY OF FITNESS
#FOR A PARTICULAR PURPOSE, MERCHANTABILITY, TITLE OR NON-INFRINGEMENT, AND ANY WARRANTIES
#ARISING BY VIRTUE OF CUSTOM OF TRADE OR COURSE OF DEALING.  FURTHER, ENVERUS, INC.
#AND ITS LICENSORS DO NOT REPRESENT OR WARRANT THAT THIS FILE WILL MEET USER'S
#REQUIREMENTS OR ARE SUITABLE FOR USER'S NEEDS OR THAT THE DATA OR RESULTS PROVIDED IN
#CONJUNCTION THEREWITH ARE CORRECT, ACCURATE, TIMELY OR RELIABLE. THESE DISCLAIMERS SHALL
#APPLY REGARDLESS OF ANY FAILURE OF ESSENTIAL PURPOSE OF ANY LIMITED REMEDY.  SOME
#JURISDICTIONS DO NOT ALLOW THE EXCLUSION OF CERTAIN WARRANTIES SO SOME OF THE ABOVE
#EXCLUSIONS MAY NOT APPLY. IN NO EVENT SHALL ENVERUS, INC. OR ANY OF ITS AFFILIATES
#BE LIABLE UNDER ANY LEGAL THEORY, WHETHER IN TORT (INCLUDING WITHOUT LIMITATION
#NEGLIGENCE), CONTRACT, STRICT LIABILITY, STATUTORY OR OTHERWISE, FOR ANY SPECIAL,
#INCIDENTAL, CONSEQUENTIAL, EXEMPLARY, PUNITIVE OR INDIRECT DAMAGE OF ANY KIND, INCLUDING
#WITHOUT LIMITATION LOSS OF REVENUE, PROFITS, GOODWILL, USE, AND/OR DATA OR THE COST OF
#PROCUREMENT OF SUBSTITUTE GOODS OR SERVICES, EVEN IF APPRISED OF THE POSSIBILITY OF SUCH
#DAMAGES IN ADVANCE.
#--------------------------------------------------#

~VERSION INFORMATION
VERS. 2.0 : CWLS LOG ASCII STANDARD - VERSION 2.0
WRAP.  NO : ONE LINE PER DEPTH STEP
~WELL INFORMATION
#MNEMONIC     .UNIT              VALUE :DESCRIPTION
STRT       .FT                429 :START DEPTH
STOP       .FT                6365 :STOP DEPTH
STEP       .FT                   0.500 :STEP
NULL       .                  -999.99 :NULL
UWI        .                42371100750000 :UNIQUE WELL ID
API        .                42371100750000 :API NUMBER
COMP       .         :COMPANY
WELL       .        :WELL
DATE       .                 :LOG DATE
FLD       .                 :FIELD NAME
LOC       .                  UNK :LOCATION
CNTY       .                 UNK :COUNTY
STAT       .                 UNK :STATE
CTRY       .                 UNK :COUNTY
SRVC       .                 UNK :SERVICE COMPANY
~CURVE INFORMATION
#MNEMONIC     .UNIT      API CODE :CURVE DESCRIPTION
DEPTH       .FT                      :MEASURED DEPTH
DT.MSEC/FT        UNKNOWN   :DT
GR.API        UNKNOWN   :GR
~A    DEPTH    DT    GR
# ...
 1612.5     63.64895   16.36827
 1613     70.08895   17.78962
 1613.5     76.52896   19.21096
 1614     77.14289   20.63231
 1614.5     75.22463   23.26347
 1615     73.04938   25.91606
 1615.5     70.87413   28.56864
 1616     64.99524   29.22645
 1616.5     58.51453   27.86146
 1617     52.31037   25.30881
 1617.5     50.73125   22.75616
 1618     49.15214   19.97888
 1618.5     50.70886   16.7706
 1619     53.00114   14.80067
 1619.5     52.70184   15.00882
 1620     52.40255   15.21697
 1620.5     52.10326   15.42512
 1621     52.327   15.63327
 1621.5     52.68319   15.84142
 1622     53.03938   15.89536
 1622.5     53.39557   15.06008
 1623     53.75176   14.2248
 1623.5     53.53363   13.81666
 1624     52.58068   14.26494
 1624.5     51.62773   15.1496
 1625     68.78143   16.66841
 1625.5     81.76405   18.68182
 1626     82.76825   20.07433
 1626.5     82.3238   21.08611
 1627     81.87935   22.09789
 1627.5     75.14257   22.98006
 1628     70.13641   23.50798
 1628.5     65.13025   21.51218
 1629     59.05686   17.55502
 1629.5     58.46952   14.0493
 1630     60.51663   14.24418
 1630.5     61.63423   14.43907
 1631     59.7405   14.63395
 1631.5     60.7197   15.36988
 1632     61.9102   17.32023
 1632.5     68.41852   19.27059
 1633     66.93206   20.84839
 1633.5     65.4456   21.84683
 1634     63.60139   22.84526
 1634.5     59.83241   21.64845
 1635     47.82745   16.67231
 1635.5     49.48218   12.86068
 1636     51.13691   13.49447
 1636.5     52.79165   14.71424
 1637     54.44638   16.45639
 1637.5     56.10111   19.7358
 1638     55.67063   22.98559
 1638.5     55.16505   22.17309
 1639     54.65947   20.40746
 1639.5     54.15389   18.61455
 1640     53.64832   16.82164
 1640.5     53.14274   15.42021
 1641     54.86373   15.26063
 1641.5     57.51658   15.24807
 1642     57.98185   16.14232
 1642.5     57.88091   17.03657
 1643     57.75557   17.93082
 1643.5     56.68896   18.82507
 1644     55.62235   19.71933
 1644.5     53.83814   20.61358
 1645     53.71197   20.17751
 1645.5     53.58579   19.28529
 1646     53.45962   18.39308
 1646.5     53.33345   17.50086
 1647     53.25386   16.63556
 1647.5     53.2883   15.80679
 1648     53.32273   14.97803
 1648.5     53.35717   14.14926
 1649     53.39161   12.85124
 1649.5     53.42604   11.45849
 1650     53.24096   10.06574
 1650.5     52.92879   8.67299
 1651     52.61661   8.80069
 1651.5     52.30443   9.32833
 1652     52.5323   9.85597
 1652.5     52.83517   10.38361
 1653     53.13804   10.92444
 1653.5     53.44092   12.24341
 1654     53.74018   13.56238
 1654.5     54.01991   14.88135
 1655     54.29965   16.72475
 1655.5     54.57938   19.45941
 1656     54.85912   22.29735
 1656.5     55.13885   25.66505
 1657     55.41858   29.02099
 1657.5     55.61086   28.80571
 1658     55.00983   28.59043
 1658.5     54.40879   28.37515
 1659     53.8234   26.32537
 1659.5     54.66902   23.94326
 1660     58.42665   20.65899
 1660.5     63.33381   17.77497
 1661     68.24097   17.28453
 1661.5     73.14813   18.40914
 1662     77.87211   19.70767
 1662.5     65.55863   21.0062
 1663     59.43871   22.30473
 1663.5     56.83302   21.15817
 1664     54.22733   19.27738
 1664.5     51.99442   17.39658
 1665     54.66795   15.51578
 1665.5     57.34149   13.63499
 1666     60.01502   11.75419
 1666.5     64.52262   11.39188
 1667     75.23785   12.14797
 1667.5     85.2593   12.94591
 1668     92.31417   13.90323
 1668.5     91.7856   14.86056
 1669     91.25703   15.81789
 1669.5     89.74417   15.91465
 1670     80.31734   15.8601
 1670.5     70.89876   15.82404
 1671     61.65498   16.06596
 1671.5     52.4112   16.30787
 1672     43.16741   16.54979
 1672.5     46.57249   16.45304
 1673     53.0525   15.43917
 1673.5     58.6396   14.42529
 1674     62.91166   13.41142
 1674.5     67.18371   13.13253
 1675     71.53733   14.65815
 1675.5     76.99281   16.18377
 1676     82.44828   17.70939
 1676.5     87.90376   18.17656
 1677     70.23141   18.12876
 1677.5     65.48723   18.08097
 1678     61.65198   19.18229
 1678.5     61.14651   21.27656
 1679     60.64104   20.07075
 1679.5     60.0618   18.59493
 1680     58.67781   17.11911
 1680.5     59.40911   15.64328
 1681     61.06652   15.52491
 1681.5     64.59478   15.60627
 1682     63.09061   15.57131
 1682.5     61.58645   15.39062
 1683     60.81303   15.20992
 1683.5     61.89329   16.18926
 1684     62.97355   17.81842
 1684.5     64.05381   19.349
 1685     64.13063   20.69447
 1685.5     60.84044   21.58245
 1686     57.55026   21.66413
 1686.5     54.88706   21.74581
 1687     54.11218   19.72376
 1687.5     53.33731   17.55371
 1688     52.82   15.38366
 1688.5     53.14229   13.21361
 1689     53.46459   11.88392
 1689.5     53.68077   11.89259
 1690     53.61735   11.90126
 1690.5     53.55392   13.49731
 1691     53.49049   15.17471
 1691.5     53.42706   16.8521
 1692     53.36363   18.4457
 1692.5     53.30021   17.0569
 1693     52.82253   15.66811
 1693.5     52.05766   14.27931
 1694     51.38174   13.38666
 1694.5     51.79237   13.39532
 1695     52.203   13.8889
 1695.5     52.61364   15.4366
 1696     53.02427   18.9633
 1696.5     53.4349   20.29048
 1697     53.84553   21.61767
 1697.5     54.25617   22.94486
 1698     54.58826   24.27205
 1698.5     54.70594   25.44709
 1699     54.82362   24.78974
 1699.5     54.9413   23.50875
 1700     55.05898   22.22776
 1700.5     55.17666   20.56677
 1701     63.62381   18.81745
 1701.5     67.31354   17.06813
 1702     66.88277   15.54469
 1702.5     66.452   16.40207
 1703     66.02123   17.25946
 1703.5     65.59047   18.11684
 1704     63.71172   18.97422
 1704.5     60.1963   18.70628
 1705     55.57367   17.97358
 1705.5     52.36563   16.35657
 1706     53.38921   14.04347
 1706.5     54.04156   11.73038
 1707     54.31208   11.38684
 1707.5     54.58261   11.28298
 1708     54.85313   11.17912
 1708.5     54.77497   11.48502
 1709     54.68663   11.92934
 1709.5     54.5983   12.37365
 1710     54.50996   12.81796
 1710.5     54.42163   13.26227
 1711     55.14394   13.70659
 1711.5     55.79925   14.39887
 1712     55.78512   15.44681
 1712.5     55.77099   15.37723
 1713     55.75686   15.30766
 1713.5     55.74273   15.23808
 1714     55.77222   15.1685
 1714.5     57.43695   15.92526
 1715     59.10168   17.19388
 1715.5     60.76641   21.84421
 1716     62.43113   26.49454
 1716.5     64.09586   28.29094
 1717     62.19966   27.33296
 1717.5     58.93138   25.642
 1718     51.81689   23.83571
 1718.5     48.97069   20.41602
 1719     49.75724   16.44276
 1719.5     50.54379   12.52009
 1720     51.33034   10.85775
 1720.5     52.11689   9.61829
 1721     52.90344   10.22183
 1721.5     53.68999   10.82537
 1722     53.81374   13.46745
 1722.5     53.36319   16.20463
 1723     52.91264   16.89411
 1723.5     52.4621   16.08863
 1724     52.01155   14.94669
 1724.5     52.06979   13.80474
 1725     52.25394   12.6628
 1725.5     52.43808   11.57528
 1726     52.62223   10.51008
 1726.5     52.55452   10.14892
 1727     52.40314   9.86974
 1727.5     52.25319   10.29738
 1728     53.16002   11.64366
 1728.5     54.45468   12.96882
 1729     64.83578   14.26816
 1729.5     75.21688   15.5675
 1730     80.07006   16.86684
 1730.5     75.40823   17.73771
 1731     74.69102   17.99198
 1731.5     73.97382   17.02008
 1732     72.93853   15.97863
 1732.5     69.40189   14.77368
 1733     56.49186   13.56874
 1733.5     45.91569   12.63629
 1734     50.44639   12.14545
 1734.5     54.9771   12.13581
 1735     59.5078   12.31344
 1735.5     60.60723   13.06985
 1736     56.5571   13.82627
 1736.5     52.50697   19.88495
 1737     52.74866   23.14479
 1737.5     63.73218   26.55294
 1738     74.7157   37.3607
 1738.5     84.95879   44.9573
 1739     78.17194   51.01235
 1739.5     71.38509   57.06739
 1740     64.59824   60.92211
 1740.5     72.00881   63.14149
 1741     75.98733   65.33226
 1741.5     79.21177   65.22366
 1742     80.3079   65.11506
 1742.5     81.40402   65.00646
