#--------------------------------------------------#
#-------------------ENVERUS, INC.------------------#
#------------------WWW.ENVERUS.COM-----------------#
#------------------COPYRIGHT 2020------------------#
#--------------------------------------------------#
#THIS FILE MAY BE USED ONLY IN ACCORDANCE WITH A CURRENT SUBSCRIPTION AGREEMENT BETWEEN
#THE USER AND ENVERUS, INC. NO PART OF THIS FILE MAY BE REPRODUCED, USED, COPIED,
#MODIFIED, PROPAGATED, OR DISTRIBUTED EXCEPT IN ACCORDANCE WITH THE SUBSCRIPTION
#AGREEMENT. UNAUTHORIZED USE OR DISTRIBUTION OF ALL OR ANY PART OF THIS FILE MAY VIOLATE
#COPYRIGHT, TRADEMARK, AND/OR OTHER LAWS AND IS SUBJECT TO CIVIL AS WELL AS CRIMINAL
#SANCTIONS.
#--------------------------------------------------#
#THIS FILE IS PROVIDED "AS-IS" AND ALL WARRANTIES ARE EXPRESSLY DISCLAIMED, WHETHER
#EXPRESS, ORAL, IMPLIED, STATUTORY OR OTHERWISE, INCLUDING ANY IMPLIED WARRANTY OF FITNESS
#FOR A PARTICULAR PURPOSE, MERCHANTABILITY, TITLE OR NON-INFRINGEMENT, AND ANY WARRANTIES
#ARISING BY VIRTUE OF CUSTOM OF TRADE OR COURSE OF DEALING.  FURTHER, ENVERUS, INC.
#AND ITS LICENSORS DO NOT REPRESENT OR WARRANT THAT THIS FILE WILL MEET USER'S
#REQUIREMENTS OR ARE SUITABLE FOR USER'S NEEDS OR THAT THE DATA OR RESULTS PROVIDED IN
#CONJUNCTION THEREWITH ARE CORRECT, ACCURATE, TIMELY OR RELIABLE. THESE DISCLAIMERS SHALL
#APPLY REGARDLESS OF ANY FAILURE OF ESSENTIAL PURPOSE OF ANY LIMITED REMEDY.  SOME
#JURISDICTIONS DO NOT ALLOW THE EXCLUSION OF CERTAIN WARRANTIES SO SOME OF THE ABOVE
#EXCLUSIONS MAY NOT APPLY. IN NO EVENT SHALL ENVERUS, INC. OR ANY OF ITS AFFILIATES
#BE LIABLE UNDER ANY LEGAL THEORY, WHETHER IN TORT (INCLUDING WITHOUT LIMITATION
#NEGLIGENCE), CONTRACT, STRICT LIABILITY, STATUTORY OR OTHERWISE, FOR ANY SPECIAL,
#INCIDENTAL, CONSEQUENTIAL, EXEMPLARY, PUNITIVE OR INDIRECT DAMAGE OF ANY KIND, INCLUDING
#WITHOUT LIMITATION LOSS OF REVENUE, PROFITS, GOODWILL, USE, AND/OR DATA OR THE COST OF
#PROCUREMENT OF SUBSTITUTE GOODS OR SERVICES, EVEN IF APPRISED OF THE POSSIBILITY OF SUCH
#DAMAGES IN ADVANCE.
#--------------------------------------------------#

~VERSION INFORMATION
VERS. 2.0 : CWLS LOG ASCII STANDARD - VERSION 2.0
WRAP.  NO : ONE LINE PER DEPTH STEP
~WELL INFORMATION
#MNEMONIC     .UNIT              VALUE :DESCRIPTION
STRT       .FT                102 :START DEPTH
STOP       .FT                9071 :STOP DEPTH
STEP       .FT                   0.500 :STEP
NULL       .                  -999.99 :NULL
UWI        .                42389104910000 :UNIQUE WELL ID
API        .                42389104910000 :API NUMBER
COMP       .         :COMPANY
WELL       .        :WELL
DATE       .                 :LOG DATE
FLD       .                 :FIELD NAME
LOC       .                  UNK :LOCATION
CNTY       .                 UNK :COUNTY
STAT       .                 UNK :STATE
CTRY       .                 UNK :COUNTY
SRVC       .                 UNK :SERVICE COMPANY
~CURVE INFORMATION
#MNEMONIC     .UNIT      API CODE :CURVE DESCRIPTION
DEPTH       .FT                      :MEASURED DEPTH
DT.MSEC/FT        UNKNOWN   :DT
GR.API        UNKNOWN   :GR
~A    DEPTH    DT    GR
# ...
 4250     65.8856   6.89427
 4250.5     65.84531   6.29961
 4251     65.94123   5.45107
 4251.5     66.05089   4.60252
 4252     66.16054   3.75397
 4252.5     66.2702   3.78342
 4253     66.37986   3.91679
 4253.5     66.46024   4.05017
 4254     66.45981   4.18355
 4254.5     66.45939   4.31693
 4255     66.45896   4.4503
 4255.5     66.45854   4.58368
 4256     66.45811   4.71706
 4256.5     66.45769   4.85043
 4257     66.49253   4.98381
 4257.5     66.56538   5.11719
 4258     66.63822   5.12831
 4258.5     66.71106   5.10313
 4259     66.78391   5.07795
 4259.5     66.85675   5.05277
 4260     66.9296   5.02758
 4260.5     67.00244   5.0024
 4261     67.07239   4.97722
 4261.5     66.93118   4.95204
 4262     66.78996   4.92686
 4262.5     66.64875   4.90167
 4263     66.50753   4.87649
 4263.5     66.36632   4.85131
 4264     66.22511   4.82613
 4264.5     66.08389   4.80095
 4265     65.94844   5.17891
 4265.5     65.8853   5.62106
 4266     65.82217   6.0632
 4266.5     65.75903   6.50534
 4267     65.69589   6.94749
 4267.5     65.63276   6.39672
 4268     65.56962   5.68221
 4268.5     65.50649   4.9677
 4269     65.44335   4.75566
 4269.5     65.38022   5.01133
 4270     65.31708   5.267
 4270.5     65.25395   5.52267
 4271     65.20241   5.77834
 4271.5     65.20194   6.034
 4272     65.20147   6.28967
 4272.5     65.201   6.43855
 4273     65.20053   6.32411
 4273.5     65.20005   6.20968
 4274     65.19958   6.09524
 4274.5     65.19911   5.9808
 4275     65.19864   5.86637
 4275.5     65.19817   5.75193
 4276     65.1977   5.63749
 4276.5     65.19723   5.52305
 4277     65.19675   5.40862
 4277.5     65.19628   5.29418
 4278     65.18808   5.17195
 4278.5     65.02699   5.00821
 4279     64.86589   4.84447
 4279.5     64.70479   4.68074
 4280     64.54369   4.517
 4280.5     64.38259   4.35326
 4281     64.22149   4.38917
 4281.5     64.0604   4.56359
 4282     63.8993   4.73801
 4282.5     64.12495   4.91243
 4283     64.6801   5.08684
 4283.5     65.00004   5.26126
 4284     64.78079   5.43568
 4284.5     64.56155   5.6101
 4285     64.34231   5.78451
 4285.5     64.12307   5.95893
 4286     63.97648   6.13335
 4286.5     64.13336   6.30777
 4287     64.29023   5.83894
 4287.5     64.44711   5.30377
 4288     64.55459   4.7686
 4288.5     64.51016   4.23344
 4289     64.46572   3.99192
 4289.5     64.42129   4.10983
 4290     64.37686   4.22773
 4290.5     64.33243   4.34563
 4291     64.288   4.46354
 4291.5     64.24357   4.58144
 4292     64.19913   4.69934
 4292.5     64.1547   4.81725
 4293     64.11027   4.93515
 4293.5     64.06584   5.05305
 4294     64.02141   4.63642
 4294.5     63.97698   4.21327
 4295     63.93689   3.79011
 4295.5     63.93636   3.36696
 4296     63.93584   2.94381
 4296.5     63.99506   2.52066
 4297     64.21515   2.09751
 4297.5     64.43524   1.76741
 4298     64.65533   1.83161
 4298.5     64.73089   1.89581
 4299     64.78899   1.96001
 4299.5     64.84709   2.02421
 4300     64.90519   2.08841
 4300.5     64.96328   2.15261
 4301     65.02138   2.21681
 4301.5     65.07948   2.28101
 4302     65.13758   2.34521
 4302.5     65.24043   2.40942
 4303     65.40514   2.47362
 4303.5     65.56985   2.90165
 4304     65.73456   3.69718
 4304.5     65.89928   4.49271
 4305     66.19498   5.43073
 4305.5     66.50382   5.64452
 4306     67.02718   5.35244
 4306.5     69.62419   5.06036
 4307     75.83631   4.76828
 4307.5     82.04844   4.4762
 4308     88.26056   4.33617
 4308.5     91.93207   4.30072
 4309     92.41332   4.26526
 4309.5     92.53502   4.22981
 4310     92.65672   4.19436
 4310.5     92.77841   4.8711
 4311     92.90011   6.06307
 4311.5     91.87989   7.25505
 4312     87.54936   8.44702
 4312.5     83.21883   9.63899
 4313     78.88829   10.79168
 4313.5     74.55776   9.99799
 4314     70.22723   9.20431
 4314.5     65.89669   8.41062
 4315     63.92139   7.61693
 4315.5     64.17552   6.82324
 4316     64.42965   6.02955
 4316.5     64.68378   5.23586
 4317     64.93791   4.44217
 4317.5     65.19203   3.64848
 4318     65.44616   3.1692
 4318.5     65.57691   2.96047
 4319     65.19407   2.75174
 4319.5     64.81123   2.543
 4320     64.91381   2.33427
 4320.5     65.0601   2.12553
 4321     65.20639   2.05529
 4321.5     65.35268   2.18509
 4322     65.49897   2.31489
 4322.5     65.30438   2.44469
 4323     65.04536   2.57449
 4323.5     64.78634   2.70429
 4324     64.52733   2.83409
 4324.5     64.26831   2.96389
 4325     64.00929   3.09369
 4325.5     69.63592   3.22348
 4326     79.32496   3.22591
 4326.5     89.014   3.02101
 4327     92.2573   2.81611
 4327.5     92.47717   2.6112
 4328     92.47909   2.4063
 4328.5     92.47863   2.43989
 4329     92.47816   2.4934
 4329.5     92.47769   2.5469
 4330     92.47723   2.60041
 4330.5     92.84413   2.65392
 4331     93.25386   2.70743
 4331.5     93.6636   2.76094
 4332     94.07333   2.81444
 4332.5     94.01971   2.86795
 4333     93.94615   2.92146
 4333.5     93.87259   2.89747
 4334     93.79904   2.71906
 4334.5     93.72548   2.54065
 4335     93.65193   2.36224
 4335.5     93.57837   2.18382
 4336     93.50481   2.00541
 4336.5     93.43126   1.88028
 4337     93.3577   1.96858
 4337.5     93.38129   2.05687
 4338     93.43578   2.14517
 4338.5     93.49026   2.23346
 4339     93.54474   2.32175
 4339.5     93.59922   2.41005
 4340     93.6537   2.49834
 4340.5     93.70818   2.58663
 4341     93.76267   2.67493
 4341.5     93.81715   2.76322
 4342     91.5339   2.78714
 4342.5     88.29117   2.7702
 4343     85.04843   2.75327
 4343.5     81.8057   2.73633
 4344     88.22791   2.7194
 4344.5     94.06747   2.70246
 4345     94.25051   2.68553
 4345.5     94.43355   2.66859
 4346     94.57182   2.65166
 4346.5     94.56084   2.63472
 4347     94.54985   2.61574
 4347.5     94.53886   2.59526
 4348     94.52787   2.57478
 4348.5     94.51688   2.5543
 4349     94.5059   2.53381
 4349.5     94.49491   2.51333
 4350     94.48392   2.49285
 4350.5     94.47293   2.47237
 4351     94.46195   2.51217
 4351.5     94.45096   2.77746
 4352     94.46463   3.04276
 4352.5     94.52567   3.30806
 4353     94.5867   3.57336
 4353.5     94.64774   3.83866
 4354     94.70878   4.10395
 4354.5     94.76981   4.36925
 4355     94.83085   4.63455
 4355.5     94.89189   4.16441
 4356     94.95293   3.56237
 4356.5     95.01396   2.96034
 4357     95.075   2.64753
 4357.5     95.13604   2.62845
 4358     95.19707   2.60937
 4358.5     95.25811   2.59029
 4359     95.29713   2.57121
 4359.5     95.24959   2.55213
 4360     95.20204   2.53304
 4360.5     95.1545   2.51396
 4361     95.10695   2.49488
 4361.5     95.05941   2.64265
 4362     95.01186   2.91574
 4362.5     94.96432   3.18882
 4363     94.09144   3.46191
 4363.5     91.03686   3.73499
 4364     87.98227   4.00808
 4364.5     84.92769   4.28116
 4365     82.48145   4.55425
 4365.5     84.35407   4.82733
 4366     86.22668   5.07881
 4366.5     88.0993   5.11686
 4367     89.97192   5.15491
 4367.5     91.84454   5.19297
 4368     92.58968   5.23102
 4368.5     92.63307   5.27616
 4369     92.67646   5.41504
 4369.5     92.71985   5.55392
 4370     92.76324   5.6928
 4370.5     92.80663   5.83168
 4371     92.85001   5.97056
 4371.5     92.8934   6.10944
 4372     84.89955   6.02376
 4372.5     79.99814   5.56477
 4373     75.09673   5.10578
 4373.5     70.19532   4.64679
 4374     65.2939   4.1878
 4374.5     64.15179   3.72881
 4375     64.23361   3.56465
 4375.5     64.31542   3.48119
 4376     64.39724   3.39773
 4376.5     64.42698   3.31427
 4377     64.28657   3.23081
 4377.5     64.14617   3.14735
 4378     64.00576   3.06389
 4378.5     63.86536   2.98042
 4379     63.72495   2.89696
 4379.5     63.58517   2.8135
 4380     63.67255   2.73004
 4380.5     63.75993   2.64658
 4381     63.87081   2.56312
 4381.5     64.0906   2.47966
 4382     64.31038   2.3962
 4382.5     64.53017   2.31274
 4383     69.62224   2.22928
 4383.5     75.97334   2.20741
 4384     82.32444   2.25384
