###############################################
##         ENVERUS                           ##
##         Petrophysical Curves              ##
##         PERMIAN / DELAWARE                ##
##         Jan 21 2022                       ##
##         42-389-10508-00-00                ##
###############################################
## Copyright 2017-2022  ENVERUS.  All Rights Reserved. 
## Confidential - Property of ENVERUS, use governed by terms and 
## conditions found within the existing Information Services Subscription Agreement 
## (as may be amended, the “ISSA”) between Customer and ENVERUS. 
## 
~VERSION INFORMATION
# MNEM.UNIT                               DATA : DESCRIPTION OF MNEMONIC
#-----.-----     ----------------------------- : -----------------------------
VERS.                                     2.00 : CWLS LOG ASCII STANDARD - VERSION 2.00
WRAP.                                       NO : MULTIPLE LINES PER DEPTH STEP
VEND.                                  ENVERUS : VENDOR
TYPE.                     PETROPHYSICAL CURVES : ENVERUS PETROPHYSICAL CURVES - ACCESSIBLE THROUGH ENVERUS CORE(TM)
#___________________________________________________________________________________________________ 
~WELL INFORMATION 
# uyaQ8P8kQDJ9DXFS5hR1PxmExEOYaAUkY5f3/tnOS+scoPAUWgXA1zCIHGRbWCuSuUcwDzaESCjqjWQ81XhadA== 
# MNEM.UNIT                                              DATA : DESCRIPTION OF MNEMONIC 
#-----.-----                    ----------------------------- : ----------------------------- 
CNTY.                                                  REEVES : COUNTY 
STATE.                                                  TEXAS : STATE 
CNTRY.                                                    USA : COUNTRY 
API.                                             42-389-10508 : API (10 Digit) 
API_14.                                    42-389-10508-00-00 : API (14 Digits) 
API_14_std.                                 42-389-10508-0000 : API (14 Digits Standard) 
UWI.                                           42389105080000 : UNIQUE WELL ID
STRT.FT                                               11776.0 : START DEPTH
STOP.FT                                               33299.5 : STOP DEPTH
STEP.FT                                                   0.5 : STEP BETWEEN DEPTHS
NULL.                                                 -999.25 : NULL VALUE
COMP.                                                  SABINE : COMPANY 
WELL.                                                       1 : WELL NAME 
FLD.                                         ROJO CABALLOS W. : FIELD NAME
#___________________________________________________________________________________________________ 
~CURVE INFORMATION 
#    Zone Description
#          1 = Upper Avalon
#          2 = Middle Avalon
#          3 = Lower Avalon
#          4 = 1st Bone Spring
#          5 = 2nd Bone Spring
#          6 = 2nd Bone Spring Sand
#          7 = 3rd Bone Spring
#          8 = 3rd Bone Spring Sand
#          9 = Wolfcamp XY
#          10 = Wolfcamp A Upper
#          11 = Wolfcamp A Lower
#          12 = Wolfcamp B Upper
#          13 = Wolfcamp B Lower
#          14 = Wolfcamp C
#          15 = Wolfcamp D
#          16 = Pennsylvanian Shale
#          17 = Lower Pennsylvanian Shale
#          18 = Barnett
#          19 = Barnett Lower
#          20 = Mississippian Lime
#          21 = Woodford
#          22 = Base Woodford 
# MNEM.UNIT           : CURVE DESCRIPTION 
#-----.-----          : ----------------------------- 
 DEPT.FT               : MEASURED DEPTH 
 TVD_I.FT              : ENVERUS TRUE VERTICAL DEPTH 
 ZONE_I.               : ENVERUS DEFINED ZONE CODE 
 GR_N_I.API            : ENVERUS NORMALIZED GAMMA RAY LEVERAGED IN GEOLOGICAL MODELLING 
 TEMP_I.DEGF           : ENVERUS INTERPRETED TEMPERATURE DERIVED FROM BOTTOM HOLE TEMPERATURES 
 #___________________________________________________________________________________________________ 
~A         DEPT          TVD_I         ZONE_I         GR_N_I         TEMP_I
# ...
        21793.0      21793.000          22.00         51.636        173.782
        21793.5      21793.500          22.00         52.937        173.788
        21794.0      21794.000          22.00         52.757        173.793
        21794.5      21794.498          22.00         51.475        173.799
        21795.0      21795.000          22.00         46.885        173.804
        21795.5      21795.500          22.00         42.294        173.810
        21796.0      21796.000          22.00         40.086        173.815
        21796.5      21796.500          22.00         39.377        173.821
        21797.0      21797.000          22.00         40.229        173.826
        21797.5      21797.500          22.00         41.582        173.832
        21798.0      21798.000          22.00         42.936        173.837
        21798.5      21798.500          22.00         44.289        173.843
        21799.0      21799.000          22.00         46.485        173.848
        21799.5      21799.500          22.00         44.492        173.854
        21800.0      21800.000          22.00         42.499        173.860
        21800.5      21800.500          22.00         40.505        173.865
        21801.0      21801.000          22.00         38.512        173.871
        21801.5      21801.500          22.00         37.617        173.876
        21802.0      21802.000          22.00         37.392        173.882
        21802.5      21802.500          22.00         40.661        173.887
        21803.0      21803.000          22.00         44.460        173.893
        21803.5      21803.502          22.00         47.745        173.898
        21804.0      21804.002          22.00         48.477        173.904
        21804.5      21804.502          22.00         49.040        173.909
        21805.0      21805.000          22.00         48.569        173.915
        21805.5      21805.500          22.00         47.427        173.920
        21806.0      21806.000          22.00         46.685        173.926
        21806.5      21806.498          22.00         46.641        173.931
        21807.0      21806.998          22.00         46.598        173.937
        21807.5      21807.498          22.00         46.161        173.943
        21808.0      21808.000          22.00         45.019        173.948
        21808.5      21808.500          22.00         45.325        173.954
        21809.0      21809.000          22.00         46.606        173.959
        21809.5      21809.500          22.00         46.030        173.965
        21810.0      21810.000          22.00         45.453        173.970
        21810.5      21810.500          22.00         44.877        173.976
        21811.0      21811.000          22.00         44.301        173.981
        21811.5      21811.500          22.00         43.693        173.987
        21812.0      21812.000          22.00         43.078        173.992
        21812.5      21812.500          22.00         42.464        173.998
        21813.0      21813.000          22.00         42.599        174.003
        21813.5      21813.500          22.00         43.201        174.009
        21814.0      21814.000          22.00         43.988        174.014
        21814.5      21814.500          22.00         45.467        174.020
        21815.0      21815.000          22.00         46.945        174.025
        21815.5      21815.500          22.00         48.408        174.031
        21816.0      21816.000          22.00         48.558        174.037
        21816.5      21816.502          22.00         47.609        174.042
        21817.0      21817.002          22.00         46.661        174.048
        21817.5      21817.502          22.00         45.712        174.053
        21818.0      21818.000          22.00         44.748        174.059
        21818.5      21818.500          22.00         43.733        174.064
        21819.0      21819.000          22.00         42.718        174.070
        21819.5      21819.500          22.00         41.704        174.075
        21820.0      21820.000          22.00         42.321        174.081
        21820.5      21820.498          22.00         43.189        174.086
        21821.0      21821.000          22.00         43.754        174.092
        21821.5      21821.500          22.00         42.438        174.097
        21822.0      21822.000          22.00         42.450        174.103
        21822.5      21822.500          22.00         43.213        174.108
        21823.0      21823.000          22.00         43.976        174.114
        21823.5      21823.500          22.00         43.143        174.120
        21824.0      21824.000          22.00         42.094        174.125
        21824.5      21824.498          22.00         41.044        174.131
        21825.0      21824.998          22.00         41.832        174.136
        21825.5      21825.500          22.00         44.483        174.142
        21826.0      21826.000          22.00         45.517        174.147
        21826.5      21826.500          22.00         45.008        174.153
        21827.0      21827.000          22.00         44.499        174.158
        21827.5      21827.500          22.00         43.991        174.164
        21828.0      21828.000          22.00         42.127        174.169
        21828.5      21828.500          22.00         42.586        174.175
        21829.0      21829.000          22.00         43.710        174.180
        21829.5      21829.500          22.00         44.834        174.186
        21830.0      21830.000          22.00         45.957        174.191
        21830.5      21830.500          22.00         46.698        174.197
        21831.0      21831.000          22.00         46.122        174.202
        21831.5      21831.500          22.00         45.545        174.208
        21832.0      21832.000          22.00         44.982        174.214
        21832.5      21832.500          22.00         44.847        174.219
        21833.0      21833.000          22.00         44.712        174.225
        21833.5      21833.500          22.00         44.577        174.230
        21834.0      21834.002          22.00         44.442        174.236
        21834.5      21834.502          22.00         44.307        174.241
        21835.0      21835.002          22.00         44.172        174.247
        21835.5      21835.502          22.00         44.038        174.252
        21836.0      21836.000          22.00         43.547        174.258
        21836.5      21836.500          22.00         41.803        174.263
        21837.0      21836.998          22.00         40.059        174.269
        21837.5      21837.498          22.00         38.208        174.274
        21838.0      21837.998          22.00         35.549        174.280
        21838.5      21838.500          22.00         35.251        174.285
        21839.0      21839.000          22.00         36.495        174.291
        21839.5      21839.500          22.00         38.972        174.297
        21840.0      21840.000          22.00         41.450        174.302
        21840.5      21840.500          22.00         43.927        174.308
        21841.0      21841.000          22.00         45.422        174.313
        21841.5      21841.500          22.00         46.012        174.319
        21842.0      21842.000          22.00         45.565        174.324
        21842.5      21842.500          22.00         44.801        174.330
        21843.0      21843.000          22.00         44.699        174.335
        21843.5      21843.500          22.00         44.597        174.341
        21844.0      21844.000          22.00         44.065        174.346
        21844.5      21844.500          22.00         42.203        174.352
        21845.0      21845.000          22.00         39.240        174.357
        21845.5      21845.500          22.00         36.278        174.363
