###############################################
##         ENVERUS                           ##
##         Petrophysical Curves              ##
##         PERMIAN / DELAWARE                ##
##         Jan 21 2022                       ##
##         42-389-10491-00-00                ##
###############################################
## Copyright 2017-2022  ENVERUS.  All Rights Reserved. 
## Confidential - Property of ENVERUS, use governed by terms and 
## conditions found within the existing Information Services Subscription Agreement 
## (as may be amended, the “ISSA”) between Customer and ENVERUS. 
## 
~VERSION INFORMATION
# MNEM.UNIT                               DATA : DESCRIPTION OF MNEMONIC
#-----.-----     ----------------------------- : -----------------------------
VERS.                                     2.00 : CWLS LOG ASCII STANDARD - VERSION 2.00
WRAP.                                       NO : MULTIPLE LINES PER DEPTH STEP
VEND.                                  ENVERUS : VENDOR
TYPE.                     PETROPHYSICAL CURVES : ENVERUS PETROPHYSICAL CURVES - ACCESSIBLE THROUGH ENVERUS CORE(TM)
#___________________________________________________________________________________________________ 
~WELL INFORMATION 
# uyaQ8P8kQDJ9DXFS5hR1PxmExEOYaAUkY5f3/tnOS+scoPAUWgXA1zCIHGRbWCuSuUcwDzaESCjqjWQ81XhadA== 
# MNEM.UNIT                                              DATA : DESCRIPTION OF MNEMONIC 
#-----.-----                    ----------------------------- : ----------------------------- 
CNTY.                                                  REEVES : COUNTY 
STATE.                                                  TEXAS : STATE 
CNTRY.                                                    USA : COUNTRY 
API.                                             42-389-10491 : API (10 Digit) 
API_14.                                    42-389-10491-00-00 : API (14 Digits) 
API_14_std.                                 42-389-10491-0000 : API (14 Digits Standard) 
UWI.                                           42389104910000 : UNIQUE WELL ID
STRT.FT                                                 102.0 : START DEPTH
STOP.FT                                                9071.0 : STOP DEPTH
STEP.FT                                                   0.5 : STEP BETWEEN DEPTHS
NULL.                                                 -999.25 : NULL VALUE
COMP.                                FLAT CREEK RESOURCES LLC : COMPANY 
WELL.                                         REEVES-AW-FEE 1 : WELL NAME 
FLD.                                                     TORO : FIELD NAME
#___________________________________________________________________________________________________ 
~CURVE INFORMATION 
#    Zone Description
#          1 = Upper Avalon
#          2 = Middle Avalon
#          3 = Lower Avalon
#          4 = 1st Bone Spring
#          5 = 2nd Bone Spring
#          6 = 2nd Bone Spring Sand
#          7 = 3rd Bone Spring
#          8 = 3rd Bone Spring Sand
#          9 = Wolfcamp XY
#          10 = Wolfcamp A Upper
#          11 = Wolfcamp A Lower
#          12 = Wolfcamp B Upper
#          13 = Wolfcamp B Lower
#          14 = Wolfcamp C
#          15 = Wolfcamp D
#          16 = Pennsylvanian Shale
#          17 = Lower Pennsylvanian Shale
#          18 = Barnett
#          19 = Barnett Lower
#          20 = Mississippian Lime
#          21 = Woodford
#          22 = Base Woodford 
# MNEM.UNIT           : CURVE DESCRIPTION 
#-----.-----          : ----------------------------- 
 DEPT.FT               : MEASURED DEPTH 
 TVD_I.FT              : ENVERUS TRUE VERTICAL DEPTH 
 ZONE_I.               : ENVERUS DEFINED ZONE CODE 
 GR_N_I.API            : ENVERUS NORMALIZED GAMMA RAY LEVERAGED IN GEOLOGICAL MODELLING 
 TEMP_I.DEGF           : ENVERUS INTERPRETED TEMPERATURE DERIVED FROM BOTTOM HOLE TEMPERATURES 
 #___________________________________________________________________________________________________ 
~A         DEPT          TVD_I         ZONE_I         GR_N_I         TEMP_I
# ...
         2487.0       2487.000        -999.25          5.151         89.341
         2487.5       2487.500        -999.25          5.988         89.346
         2488.0       2488.000        -999.25          6.824         89.351
         2488.5       2488.500        -999.25          7.661         89.356
         2489.0       2489.000        -999.25          8.340         89.362
         2489.5       2489.500        -999.25          7.046         89.367
         2490.0       2490.000        -999.25          5.753         89.372
         2490.5       2490.500        -999.25          4.457         89.378
         2491.0       2491.000        -999.25          3.163         89.383
         2491.5       2491.500        -999.25          1.869         89.388
         2492.0       2492.000        -999.25          1.815         89.393
         2492.5       2492.500        -999.25          1.818         89.399
         2493.0       2493.000        -999.25          1.820         89.404
         2493.5       2493.500        -999.25          1.822         89.409
         2494.0       2494.000        -999.25          1.823         89.415
         2494.5       2494.500        -999.25          1.825         89.420
         2495.0       2495.000        -999.25          1.827         89.425
         2495.5       2495.500        -999.25          1.828         89.431
         2496.0       2496.000        -999.25          1.830         89.436
         2496.5       2496.500        -999.25          1.832         89.441
         2497.0       2497.000        -999.25          1.833         89.446
         2497.5       2497.500        -999.25          1.835         89.452
         2498.0       2498.000        -999.25          1.836         89.457
         2498.5       2498.500        -999.25          1.838         89.462
         2499.0       2499.000        -999.25          1.840         89.468
         2499.5       2499.500        -999.25          1.841         89.473
         2500.0       2500.000        -999.25          1.843         89.478
         2500.5       2500.500        -999.25          1.845         89.483
         2501.0       2501.000        -999.25          1.808         89.489
         2501.5       2501.500        -999.25          1.769         89.494
         2502.0       2502.000        -999.25          1.731         89.499
         2502.5       2502.500        -999.25          1.693         89.505
         2503.0       2503.000        -999.25          1.656         89.510
         2503.5       2503.500        -999.25          1.618         89.515
         2504.0       2504.000        -999.25          1.580         89.521
         2504.5       2504.500        -999.25          1.541         89.526
         2505.0       2505.000        -999.25          1.503         89.531
         2505.5       2505.500        -999.25          1.465         89.536
         2506.0       2506.000        -999.25          1.427         89.542
         2506.5       2506.500        -999.25          1.389         89.547
         2507.0       2507.000        -999.25          1.351         89.552
         2507.5       2507.500        -999.25          1.312         89.558
         2508.0       2508.000        -999.25          1.274         89.563
         2508.5       2508.500        -999.25          1.236         89.568
         2509.0       2509.000        -999.25          1.199         89.574
         2509.5       2509.500        -999.25          1.161         89.579
         2510.0       2510.000        -999.25          1.123         89.584
         2510.5       2510.500        -999.25          1.085         89.589
         2511.0       2511.000        -999.25          1.046         89.595
         2511.5       2511.500        -999.25          1.008         89.600
         2512.0       2512.000        -999.25          0.970         89.605
         2512.5       2512.500        -999.25          0.932         89.611
         2513.0       2513.000        -999.25          0.894         89.616
         2513.5       2513.500        -999.25          0.857         89.621
         2514.0       2514.000        -999.25          0.817         89.626
         2514.5       2514.500        -999.25          0.779         89.632
         2515.0       2515.000        -999.25          0.742         89.637
         2515.5       2515.500        -999.25          0.704         89.642
         2516.0       2516.000        -999.25          0.666         89.648
         2516.5       2516.500        -999.25          0.628         89.653
         2517.0       2517.000        -999.25          0.589         89.658
         2517.5       2517.500        -999.25          0.551         89.664
         2518.0       2518.000        -999.25          0.513         89.669
         2518.5       2518.500        -999.25          0.475         89.674
         2519.0       2519.000        -999.25          0.437         89.679
         2519.5       2519.500        -999.25          0.400         89.685
         2520.0       2520.000        -999.25          0.360         89.690
         2520.5       2520.500        -999.25          0.322         89.695
         2521.0       2521.000        -999.25          0.284         89.701
         2521.5       2521.500        -999.25          0.247         89.706
         2522.0       2522.000        -999.25          0.209         89.711
         2522.5       2522.500        -999.25          0.171         89.717
         2523.0       2523.000        -999.25          0.132         89.722
         2523.5       2523.500        -999.25          0.202         89.727
         2524.0       2524.000        -999.25          0.401         89.732
         2524.5       2524.500        -999.25          0.602         89.738
         2525.0       2525.000        -999.25          0.801         89.743
         2525.5       2525.500        -999.25          1.001         89.748
         2526.0       2526.000        -999.25          1.202         89.754
         2526.5       2526.500        -999.25          1.401         89.759
         2527.0       2527.000        -999.25          1.601         89.764
         2527.5       2527.500        -999.25          1.800         89.769
         2528.0       2528.000        -999.25          2.001         89.775
         2528.5       2528.500        -999.25          2.200         89.780
         2529.0       2529.000        -999.25          2.113         89.785
         2529.5       2529.500        -999.25          1.955         89.791
         2530.0       2530.000        -999.25          1.795         89.796
         2530.5       2530.500        -999.25          1.636         89.801
         2531.0       2531.000        -999.25          1.476         89.807
         2531.5       2531.500        -999.25          1.319         89.812
         2532.0       2532.000        -999.25          1.159         89.817
         2532.5       2532.500        -999.25          1.000         89.822
         2533.0       2533.000        -999.25          0.840         89.828
         2533.5       2533.500        -999.25          0.682         89.833
         2534.0       2534.000        -999.25          0.523         89.838
         2534.5       2534.500        -999.25          0.363         89.844
         2535.0       2535.000        -999.25          0.204         89.849
         2535.5       2535.500        -999.25          0.046         89.854
         2536.0       2536.000        -999.25          0.000         89.859
         2536.5       2536.500        -999.25          0.000         89.865
         2537.0       2537.000        -999.25          0.000         89.870
         2537.5       2537.500        -999.25          0.000         89.875
         2538.0       2538.000        -999.25          0.000         89.881
         2538.5       2538.500        -999.25          0.000         89.886
         2539.0       2539.000        -999.25          0.000         89.891
         2539.5       2539.500        -999.25          0.000         89.897
