###############################################
##         ENVERUS                           ##
##         Petrophysical Curves              ##
##         PERMIAN / DELAWARE                ##
##         Jan 21 2022                       ##
##         42-389-10508-00-00                ##
###############################################
## Copyright 2017-2022  ENVERUS.  All Rights Reserved. 
## Confidential - Property of ENVERUS, use governed by terms and 
## conditions found within the existing Information Services Subscription Agreement 
## (as may be amended, the “ISSA”) between Customer and ENVERUS. 
## 
~VERSION INFORMATION
# MNEM.UNIT                               DATA : DESCRIPTION OF MNEMONIC
#-----.-----     ----------------------------- : -----------------------------
VERS.                                     2.00 : CWLS LOG ASCII STANDARD - VERSION 2.00
WRAP.                                       NO : MULTIPLE LINES PER DEPTH STEP
VEND.                                  ENVERUS : VENDOR
TYPE.                     PETROPHYSICAL CURVES : ENVERUS PETROPHYSICAL CURVES - ACCESSIBLE THROUGH ENVERUS CORE(TM)
#___________________________________________________________________________________________________ 
~WELL INFORMATION 
# uyaQ8P8kQDJ9DXFS5hR1PxmExEOYaAUkY5f3/tnOS+scoPAUWgXA1zCIHGRbWCuSuUcwDzaESCjqjWQ81XhadA== 
# MNEM.UNIT                                              DATA : DESCRIPTION OF MNEMONIC 
#-----.-----                    ----------------------------- : ----------------------------- 
CNTY.                                                  REEVES : COUNTY 
STATE.                                                  TEXAS : STATE 
CNTRY.                                                    USA : COUNTRY 
API.                                             42-389-10508 : API (10 Digit) 
API_14.                                    42-389-10508-00-00 : API (14 Digits) 
API_14_std.                                 42-389-10508-0000 : API (14 Digits Standard) 
UWI.                                           42389105080000 : UNIQUE WELL ID
STRT.FT                                               11776.0 : START DEPTH
STOP.FT                                               33299.5 : STOP DEPTH
STEP.FT                                                   0.5 : STEP BETWEEN DEPTHS
NULL.                                                 -999.25 : NULL VALUE
COMP.                                                  SABINE : COMPANY 
WELL.                                                       1 : WELL NAME 
FLD.                                         ROJO CABALLOS W. : FIELD NAME
#___________________________________________________________________________________________________ 
~CURVE INFORMATION 
#    Zone Description
#          1 = Upper Avalon
#          2 = Middle Avalon
#          3 = Lower Avalon
#          4 = 1st Bone Spring
#          5 = 2nd Bone Spring
#          6 = 2nd Bone Spring Sand
#          7 = 3rd Bone Spring
#          8 = 3rd Bone Spring Sand
#          9 = Wolfcamp XY
#          10 = Wolfcamp A Upper
#          11 = Wolfcamp A Lower
#          12 = Wolfcamp B Upper
#          13 = Wolfcamp B Lower
#          14 = Wolfcamp C
#          15 = Wolfcamp D
#          16 = Pennsylvanian Shale
#          17 = Lower Pennsylvanian Shale
#          18 = Barnett
#          19 = Barnett Lower
#          20 = Mississippian Lime
#          21 = Woodford
#          22 = Base Woodford 
# MNEM.UNIT           : CURVE DESCRIPTION 
#-----.-----          : ----------------------------- 
 DEPT.FT               : MEASURED DEPTH 
 TVD_I.FT              : ENVERUS TRUE VERTICAL DEPTH 
 ZONE_I.               : ENVERUS DEFINED ZONE CODE 
 GR_N_I.API            : ENVERUS NORMALIZED GAMMA RAY LEVERAGED IN GEOLOGICAL MODELLING 
 TEMP_I.DEGF           : ENVERUS INTERPRETED TEMPERATURE DERIVED FROM BOTTOM HOLE TEMPERATURES 
 #___________________________________________________________________________________________________ 
~A         DEPT          TVD_I         ZONE_I         GR_N_I         TEMP_I
# ...
        33241.0      33240.996          22.00         27.526        300.428
        33241.5      33241.496          22.00         30.094        300.434
        33242.0      33241.996          22.00         32.653        300.439
        33242.5      33242.500          22.00         33.579        300.445
        33243.0      33243.000          22.00         33.259        300.450
        33243.5      33243.500          22.00         30.741        300.456
        33244.0      33244.000          22.00         28.223        300.461
        33244.5      33244.500          22.00         27.108        300.467
        33245.0      33245.000          22.00         27.383        300.472
        33245.5      33245.500          22.00         29.066        300.478
        33246.0      33246.000          22.00         31.677        300.483
        33246.5      33246.500          22.00         32.807        300.489
        33247.0      33247.000          22.00         31.778        300.494
        33247.5      33247.500          22.00         25.318        300.500
        33248.0      33248.000          22.00         18.859        300.506
        33248.5      33248.500          22.00       -999.250        300.511
        33249.0      33249.000          22.00       -999.250        300.517
        33249.5      33249.500          22.00       -999.250        300.522
        33250.0      33250.000          22.00       -999.250        300.528
        33250.5      33250.500          22.00       -999.250        300.533
        33251.0      33251.000          22.00       -999.250        300.539
        33251.5      33251.500          22.00       -999.250        300.544
        33252.0      33252.000          22.00       -999.250        300.550
        33252.5      33252.500          22.00       -999.250        300.555
        33253.0      33253.000          22.00       -999.250        300.561
        33253.5      33253.500          22.00       -999.250        300.566
        33254.0      33254.000          22.00       -999.250        300.572
        33254.5      33254.500          22.00       -999.250        300.577
        33255.0      33255.000          22.00       -999.250        300.583
        33255.5      33255.500          22.00       -999.250        300.588
        33256.0      33256.000          22.00       -999.250        300.594
        33256.5      33256.500          22.00       -999.250        300.600
        33257.0      33257.000          22.00       -999.250        300.605
        33257.5      33257.500          22.00       -999.250        300.611
        33258.0      33258.000          22.00       -999.250        300.616
        33258.5      33258.500          22.00       -999.250        300.622
        33259.0      33259.000          22.00       -999.250        300.627
        33259.5      33259.500          22.00       -999.250        300.633
        33260.0      33260.004          22.00       -999.250        300.638
        33260.5      33260.504          22.00       -999.250        300.644
        33261.0      33261.004          22.00       -999.250        300.649
        33261.5      33261.504          22.00       -999.250        300.655
        33262.0      33262.004          22.00       -999.250        300.660
        33262.5      33262.504          22.00       -999.250        300.666
        33263.0      33263.004          22.00       -999.250        300.671
        33263.5      33263.504          22.00       -999.250        300.677
        33264.0      33264.004          22.00       -999.250        300.683
        33264.5      33264.500          22.00       -999.250        300.688
        33265.0      33265.000          22.00       -999.250        300.694
        33265.5      33265.500          22.00       -999.250        300.699
        33266.0      33265.996          22.00       -999.250        300.705
        33266.5      33266.496          22.00       -999.250        300.710
        33267.0      33266.996          22.00       -999.250        300.716
        33267.5      33267.496          22.00       -999.250        300.721
        33268.0      33267.996          22.00       -999.250        300.727
        33268.5      33268.500          22.00       -999.250        300.732
        33269.0      33269.000          22.00       -999.250        300.738
        33269.5      33269.500          22.00       -999.250        300.743
        33270.0      33270.000          22.00       -999.250        300.749
        33270.5      33270.500          22.00       -999.250        300.754
        33271.0      33271.000          22.00       -999.250        300.760
        33271.5      33271.500          22.00       -999.250        300.765
        33272.0      33272.000          22.00       -999.250        300.771
        33272.5      33272.500          22.00       -999.250        300.777
        33273.0      33273.000          22.00       -999.250        300.782
        33273.5      33273.500          22.00       -999.250        300.788
        33274.0      33274.000          22.00       -999.250        300.793
        33274.5      33274.500          22.00       -999.250        300.799
        33275.0      33275.000          22.00       -999.250        300.804
        33275.5      33275.500          22.00       -999.250        300.810
        33276.0      33276.000          22.00       -999.250        300.815
        33276.5      33276.496          22.00       -999.250        300.821
        33277.0      33277.000          22.00       -999.250        300.826
        33277.5      33277.500          22.00       -999.250        300.832
        33278.0      33278.000          22.00       -999.250        300.837
        33278.5      33278.500          22.00       -999.250        300.843
        33279.0      33279.000          22.00       -999.250        300.848
        33279.5      33279.500          22.00       -999.250        300.854
        33280.0      33280.000          22.00       -999.250        300.860
        33280.5      33280.500          22.00       -999.250        300.865
        33281.0      33281.000          22.00       -999.250        300.871
        33281.5      33281.500          22.00       -999.250        300.876
        33282.0      33282.000          22.00       -999.250        300.882
        33282.5      33282.500          22.00       -999.250        300.887
        33283.0      33283.000          22.00       -999.250        300.893
        33283.5      33283.500          22.00       -999.250        300.898
        33284.0      33284.000          22.00       -999.250        300.904
        33284.5      33284.500          22.00       -999.250        300.909
        33285.0      33285.000          22.00       -999.250        300.915
        33285.5      33285.500          22.00       -999.250        300.920
        33286.0      33286.004          22.00       -999.250        300.926
        33286.5      33286.500          22.00       -999.250        300.931
        33287.0      33287.000          22.00       -999.250        300.937
        33287.5      33287.500          22.00       -999.250        300.942
        33288.0      33288.000          22.00       -999.250        300.948
        33288.5      33288.500          22.00       -999.250        300.954
        33289.0      33289.000          22.00       -999.250        300.959
        33289.5      33289.500          22.00       -999.250        300.965
        33290.0      33290.000          22.00       -999.250        300.970
        33290.5      33290.500          22.00       -999.250        300.976
        33291.0      33291.000          22.00       -999.250        300.981
        33291.5      33291.500          22.00       -999.250        300.987
        33292.0      33292.000          22.00       -999.250        300.992
        33292.5      33292.500          22.00       -999.250        300.998
        33293.0      33293.000          22.00       -999.250        301.003
        33293.5      33293.500          22.00       -999.250        301.009
