###############################################
##         ENVERUS                           ##
##         ESS - Open Hole                   ##
##         PERMIAN / DELAWARE                ##
##         Nov 04 2023  V4.0                 ##
##         42-389-10116-00-00                ##
###############################################
## Copyright 2017-2023  ENVERUS.  All Rights Reserved. 
## Confidential - Property of ENVERUS, use governed by terms and 
## conditions found within the existing Information Services Subscription Agreement 
## (as may be amended, the “ISSA”) between Customer and ENVERUS. 
## 
~VERSION INFORMATION
# MNEM.UNIT                               DATA : DESCRIPTION OF MNEMONIC
#-----.-----     ----------------------------- : -----------------------------
VERS.                                     2.00 : CWLS LOG ASCII STANDARD - VERSION 2.00
WRAP.                                       NO : MULTIPLE LINES PER DEPTH STEP
VEND.                                  ENVERUS : VENDOR
TYPE.                          ESS - OPEN HOLE : ENVERUS ESSENTIAL CURVES – ACCESSIBLE THROUGH ENVERUS PRISM(TM)
DOC.                                  31818149 : ENVERUS HEADER RAW DOCUMENT ID
#___________________________________________________________________________________________________ 
~WELL INFORMATION 
# kxSJJvG4Ro99GqojvmaAoFb8nmZsGWyMBdB6Op61yYkHZj6VRdx+Ef4kBXz5Syac/VH6awax3Ll89xsC2rvs8g== 
# MNEM.UNIT                                              DATA : DESCRIPTION OF MNEMONIC 
#-----.-----                    ----------------------------- : ----------------------------- 
CNTY.                                                  REEVES : COUNTY 
STATE.                                                  TEXAS : STATE 
CNTRY.                                                    USA : COUNTRY 
API.                                             42-389-10116 : API (10 Digit) 
API_14.                                    42-389-10116-00-00 : API (14 Digits) 
API_14_std.                                 42-389-10116-0000 : API (14 Digits Standard) 
UWI.                                           42389101160000 : UNIQUE WELL ID 
WELL.                                            WOODS -A-  1 : WELL NAME
STRT.FT                                                 107.0 : START DEPTH
STOP.FT                                                5258.0 : STOP DEPTH
STEP.FT                                                   0.5 : STEP BETWEEN DEPTHS
NULL.                                                 -999.25 : NULL VALUE
COMP.                              PHILLIPS PETROLEUM COMPANY : COMPANY
#___________________________________________________________________________________________________ 
~CURVE INFORMATION 
# MNEM.UNIT           : CURVE DESCRIPTION 
#-----.-----          : ----------------------------- 
 DEPT.FT               : MEASURED DEPTH 
 GR.API                : GAMMA RAY (GR) 
 DT.US/FT              : SONIC DELTA TRANSIT TIME (DT) 
 #___________________________________________________________________________________________________ 
~A         DEPT             GR             DT
# ...
         1151.0         45.122       -999.250
         1151.5         42.900       -999.250
         1152.0         40.679       -999.250
         1152.5         38.458       -999.250
         1153.0         36.237       -999.250
         1153.5         34.015       -999.250
         1154.0         31.794       -999.250
         1154.5         32.254       -999.250
         1155.0         33.796       -999.250
         1155.5         35.338       -999.250
         1156.0         36.880       -999.250
         1156.5         38.421       -999.250
         1157.0         39.963       -999.250
         1157.5         38.809       -999.250
         1158.0         35.567       -999.250
         1158.5         36.535       -999.250
         1159.0         37.504       -999.250
         1159.5         38.472       -999.250
         1160.0         39.440       -999.250
         1160.5         40.130       -999.250
         1161.0         39.853       -999.250
         1161.5         39.576       -999.250
         1162.0         39.298       -999.250
         1162.5         35.646       -999.250
         1163.0         35.697       -999.250
         1163.5         35.748       -999.250
         1164.0         35.799       -999.250
         1164.5         35.850       -999.250
         1165.0         35.493       -999.250
         1165.5         34.473       -999.250
         1166.0         33.454       -999.250
         1166.5         32.434       -999.250
         1167.0         31.415       -999.250
         1167.5         31.735       -999.250
         1168.0         33.916       -999.250
         1168.5         35.815       -999.250
         1169.0         34.446       -999.250
         1169.5         33.077       -999.250
         1170.0         32.072       -999.250
         1170.5         35.103       -999.250
         1171.0         37.312       -999.250
         1171.5         36.922       -999.250
         1172.0         36.533       -999.250
         1172.5         36.143       -999.250
         1173.0         35.754       -999.250
         1173.5         36.749       -999.250
         1174.0         40.484       -999.250
         1174.5         41.450       -999.250
         1175.0         39.823       -999.250
         1175.5         38.195       -999.250
         1176.0         36.567       -999.250
         1176.5         34.940       -999.250
         1177.0         33.312       -999.250
         1177.5         31.685       -999.250
         1178.0         34.178       -999.250
         1178.5         36.716       -999.250
         1179.0         39.255       -999.250
         1179.5         39.059       -999.250
         1180.0         37.882       -999.250
         1180.5         36.706       -999.250
         1181.0         36.231       -999.250
         1181.5         37.839       -999.250
         1182.0         39.448       -999.250
         1182.5         41.056       -999.250
         1183.0         40.858       -999.250
         1183.5         38.639       -999.250
         1184.0         36.419       -999.250
         1184.5         36.540       -999.250
         1185.0         39.851       -999.250
         1185.5         40.824       -999.250
         1186.0         40.174       -999.250
         1186.5         39.525       -999.250
         1187.0         38.875       -999.250
         1187.5         38.225       -999.250
         1188.0         37.575       -999.250
         1188.5         36.926       -999.250
         1189.0         36.276       -999.250
         1189.5         35.626       -999.250
         1190.0         35.093       -999.250
         1190.5         35.337       -999.250
         1191.0         37.818       -999.250
         1191.5         39.326       -999.250
         1192.0         39.286       -999.250
         1192.5         39.247       -999.250
         1193.0         39.208       -999.250
         1193.5         39.168       -999.250
         1194.0         39.181       -999.250
         1194.5         41.078       -999.250
         1195.0         42.975       -999.250
         1195.5         44.872       -999.250
         1196.0         46.769       -999.250
         1196.5         47.484       -999.250
         1197.0         47.901       -999.250
         1197.5         48.317       -999.250
         1198.0         48.734       -999.250
         1198.5         49.150       -999.250
         1199.0         50.724       -999.250
         1199.5         53.526       -999.250
         1200.0         56.328       -999.250
         1200.5         59.130       -999.250
         1201.0         60.836       -999.250
         1201.5         60.267       -999.250
         1202.0         59.698       -999.250
         1202.5         58.339       -999.250
         1203.0         55.653       -999.250
         1203.5         52.966       -999.250
         1204.0         50.279       -999.250
         1204.5         47.593       -999.250
         1205.0         45.983       -999.250
         1205.5         47.725       -999.250
         1206.0         49.467       -999.250
         1206.5         51.209       -999.250
         1207.0         51.515       -999.250
         1207.5         50.225       -999.250
         1208.0         48.936       -999.250
         1208.5         49.613       -999.250
         1209.0         52.015       -999.250
         1209.5         50.569       -999.250
         1210.0         49.123       -999.250
         1210.5         47.676       -999.250
         1211.0         46.373       -999.250
         1211.5         46.522       -999.250
         1212.0         46.671       -999.250
         1212.5         46.819       -999.250
         1213.0         46.968       -999.250
         1213.5         47.117       -999.250
         1214.0         47.265       -999.250
         1214.5         48.687       -999.250
         1215.0         53.171       -999.250
         1215.5         57.655       -999.250
         1216.0         61.683       -999.250
         1216.5         63.227       -999.250
         1217.0         64.770       -999.250
         1217.5         66.313       -999.250
         1218.0         65.829       -999.250
         1218.5         64.970       -999.250
         1219.0         64.112       -999.250
         1219.5         63.254       -999.250
         1220.0         62.396       -999.250
         1220.5         61.538       -999.250
         1221.0         60.679       -999.250
         1221.5         59.821       -999.250
         1222.0         56.605       -999.250
         1222.5         50.296       -999.250
         1223.0         43.986       -999.250
         1223.5         37.677       -999.250
         1224.0         33.347       -999.250
         1224.5         30.591       -999.250
         1225.0         27.835       -999.250
         1225.5         25.079       -999.250
         1226.0         24.976       -999.250
         1226.5         24.982       -999.250
         1227.0         24.988       -999.250
         1227.5         25.506       -999.250
         1228.0         33.188       -999.250
         1228.5         40.869       -999.250
         1229.0         48.551       -999.250
         1229.5         55.622       -999.250
         1230.0         60.831       -999.250
         1230.5         66.041       -999.250
         1231.0         66.711       -999.250
         1231.5         64.251       -999.250
         1232.0         61.791       -999.250
         1232.5         59.330       -999.250
         1233.0         56.870       -999.250
         1233.5         54.058       -999.250
         1234.0         50.870       -999.250
         1234.5         47.682       -999.250
         1235.0         45.757       -999.250
         1235.5         45.963       -999.250
         1236.0         46.169       -999.250
         1236.5         43.791       -999.250
         1237.0         41.271       -999.250
         1237.5         40.086       -999.250
