#--------------------------------------------------#
#-------------------ENVERUS, INC.------------------#
#------------------WWW.ENVERUS.COM-----------------#
#------------------COPYRIGHT 2020------------------#
#--------------------------------------------------#
#THIS FILE MAY BE USED ONLY IN ACCORDANCE WITH A CURRENT SUBSCRIPTION AGREEMENT BETWEEN
#THE USER AND ENVERUS, INC. NO PART OF THIS FILE MAY BE REPRODUCED, USED, COPIED,
#MODIFIED, PROPAGATED, OR DISTRIBUTED EXCEPT IN ACCORDANCE WITH THE SUBSCRIPTION
#AGREEMENT. UNAUTHORIZED USE OR DISTRIBUTION OF ALL OR ANY PART OF THIS FILE MAY VIOLATE
#COPYRIGHT, TRADEMARK, AND/OR OTHER LAWS AND IS SUBJECT TO CIVIL AS WELL AS CRIMINAL
#SANCTIONS.
#--------------------------------------------------#
#THIS FILE IS PROVIDED "AS-IS" AND ALL WARRANTIES ARE EXPRESSLY DISCLAIMED, WHETHER
#EXPRESS, ORAL, IMPLIED, STATUTORY OR OTHERWISE, INCLUDING ANY IMPLIED WARRANTY OF FITNESS
#FOR A PARTICULAR PURPOSE, MERCHANTABILITY, TITLE OR NON-INFRINGEMENT, AND ANY WARRANTIES
#ARISING BY VIRTUE OF CUSTOM OF TRADE OR COURSE OF DEALING.  FURTHER, ENVERUS, INC.
#AND ITS LICENSORS DO NOT REPRESENT OR WARRANT THAT THIS FILE WILL MEET USER'S
#REQUIREMENTS OR ARE SUITABLE FOR USER'S NEEDS OR THAT THE DATA OR RESULTS PROVIDED IN
#CONJUNCTION THEREWITH ARE CORRECT, ACCURATE, TIMELY OR RELIABLE. THESE DISCLAIMERS SHALL
#APPLY REGARDLESS OF ANY FAILURE OF ESSENTIAL PURPOSE OF ANY LIMITED REMEDY.  SOME
#JURISDICTIONS DO NOT ALLOW THE EXCLUSION OF CERTAIN WARRANTIES SO SOME OF THE ABOVE
#EXCLUSIONS MAY NOT APPLY. IN NO EVENT SHALL ENVERUS, INC. OR ANY OF ITS AFFILIATES
#BE LIABLE UNDER ANY LEGAL THEORY, WHETHER IN TORT (INCLUDING WITHOUT LIMITATION
#NEGLIGENCE), CONTRACT, STRICT LIABILITY, STATUTORY OR OTHERWISE, FOR ANY SPECIAL,
#INCIDENTAL, CONSEQUENTIAL, EXEMPLARY, PUNITIVE OR INDIRECT DAMAGE OF ANY KIND, INCLUDING
#WITHOUT LIMITATION LOSS OF REVENUE, PROFITS, GOODWILL, USE, AND/OR DATA OR THE COST OF
#PROCUREMENT OF SUBSTITUTE GOODS OR SERVICES, EVEN IF APPRISED OF THE POSSIBILITY OF SUCH
#DAMAGES IN ADVANCE.
#--------------------------------------------------#

~VERSION INFORMATION
VERS. 2.0 : CWLS LOG ASCII STANDARD - VERSION 2.0
WRAP.  NO : ONE LINE PER DEPTH STEP
~WELL INFORMATION
#MNEMONIC     .UNIT              VALUE :DESCRIPTION
STRT       .FT                429 :START DEPTH
STOP       .FT                6365 :STOP DEPTH
STEP       .FT                   0.500 :STEP
NULL       .                  -999.99 :NULL
UWI        .                42371100750000 :UNIQUE WELL ID
API        .                42371100750000 :API NUMBER
COMP       .         :COMPANY
WELL       .        :WELL
DATE       .                 :LOG DATE
FLD       .                 :FIELD NAME
LOC       .                  UNK :LOCATION
CNTY       .                 UNK :COUNTY
STAT       .                 UNK :STATE
CTRY       .                 UNK :COUNTY
SRVC       .                 UNK :SERVICE COMPANY
~CURVE INFORMATION
#MNEMONIC     .UNIT      API CODE :CURVE DESCRIPTION
DEPTH       .FT                      :MEASURED DEPTH
DT.MSEC/FT        UNKNOWN   :DT
GR.API        UNKNOWN   :GR
~A    DEPTH    DT    GR
# ...
 2394.5     67.28143   17.8247
 2395     64.4569   16.75684
 2395.5     67.33895   15.35693
 2396     68.8281   13.95702
 2396.5     67.53953   12.5571
 2397     66.45978   11.15719
 2397.5     67.4932   10.71792
 2398     68.52663   10.80709
 2398.5     69.56005   11.80979
 2399     68.32107   13.49811
 2399.5     70.61061   15.18642
 2400     72.90015   16.87474
 2400.5     75.18969   17.81616
 2401     75.93199   16.67777
 2401.5     66.07519   15.53939
 2402     61.86142   14.401
 2402.5     62.55138   13.26261
 2403     63.24134   11.63659
 2403.5     63.9313   9.70571
 2404     66.14856   8.13596
 2404.5     72.4761   7.06492
 2405     72.78227   7.36989
 2405.5     63.20488   11.2279
 2406     58.79004   19.09045
 2406.5     54.94321   33.04446
 2407     54.28777   60.67462
 2407.5     52.39399   78.98158
 2408     49.60715   97.28854
 2408.5     49.14026   117.92868
 2409     51.60773   125.22131
 2409.5     54.0752   125.3471
 2410     58.6879   122.52629
 2410.5     58.48695   67.1481
 2411     57.86934   70.44382
 2411.5     57.25173   73.73954
 2412     56.63412   77.03527
 2412.5     56.01652   80.33099
 2413     57.10099   81.31417
 2413.5     63.77395   79.80535
 2414     70.11364   74.45523
 2414.5     76.45334   61.19868
 2415     82.69903   42.86078
 2415.5     81.62639   24.52288
 2416     80.55376   14.71813
 2416.5     79.41797   13.59028
 2417     69.96708   12.64319
 2417.5     67.21341   11.6961
 2418     68.0792   10.82679
 2418.5     68.94499   11.04445
 2419     69.81079   11.26211
 2419.5     70.04619   11.47978
 2420     68.65605   11.69744
 2420.5     67.26591   12.91081
 2421     65.87577   14.19752
 2421.5     66.47311   14.59846
 2422     67.35314   14.37667
 2422.5     68.23317   14.15487
 2423     69.1132   13.7413
 2423.5     69.99324   13.09208
 2424     70.87327   12.44286
 2424.5     67.92128   11.79363
 2425     62.92594   12.01927
 2425.5     62.96422   12.31666
 2426     67.86559   12.76387
 2426.5     67.63213   13.35092
 2427     67.39867   13.93797
 2427.5     67.16521   14.52502
 2428     67.34551   15.11207
 2428.5     68.72397   15.63202
 2429     69.41525   15.04919
 2429.5     68.24255   14.46637
 2430     67.06984   13.59593
 2430.5     65.89714   12.70856
 2431     65.39519   11.82119
 2431.5     66.55162   10.93381
 2432     70.60059   10.04644
 2432.5     70.155   10.47673
 2433     69.69214   10.9362
 2433.5     69.79567   11.39567
 2434     71.07229   11.85514
 2434.5     72.3489   12.31461
 2435     73.62552   12.6336
 2435.5     73.72106   12.19941
 2436     72.11186   11.76523
 2436.5     70.5274   11.33104
 2437     70.01045   10.89685
 2437.5     69.4935   10.46266
 2438     69.27192   11.03693
 2438.5     69.08406   11.72274
 2439     68.89621   12.40855
 2439.5     70.12133   13.09436
 2440     69.64333   13.78017
 2440.5     69.16533   13.76064
 2441     68.68734   12.89065
 2441.5     69.53214   12.02066
 2442     70.95017   11.15067
 2442.5     72.28227   10.50441
 2443     71.61323   10.76481
 2443.5     70.94419   11.02521
 2444     70.27515   11.2856
 2444.5     69.60611   11.83338
 2445     68.93707   12.47398
 2445.5     69.27213   13.11458
 2446     69.84356   13.75518
 2446.5     70.41499   14.39579
 2447     70.9724   15.03639
 2447.5     71.47928   15.67699
 2448     71.98616   16.15412
 2448.5     72.20052   16.15751
 2449     71.52581   16.16091
 2449.5     70.85111   15.65201
 2450     70.17641   14.59973
 2450.5     69.72089   13.54745
 2451     69.42059   13.53162
 2451.5     69.12029   14.11095
 2452     68.81999   14.69028
 2452.5     68.76238   14.78726
 2453     69.4926   14.50902
 2453.5     70.22282   14.23078
 2454     70.95304   14.17952
 2454.5     71.68326   14.45898
 2455     72.41348   15.15561
 2455.5     73.1437   15.85224
 2456     73.87392   16.54887
 2456.5     73.23839   15.58991
 2457     72.4896   14.5977
 2457.5     71.74081   13.6055
 2458     71.35856   13.21757
 2458.5     70.70394   13.64735
 2459     70.94725   14.07712
 2459.5     71.31751   14.5069
 2460     71.68777   14.93668
 2460.5     72.10069   15.36646
 2461     72.75595   15.79624
 2461.5     73.4112   16.22602
 2462     74.06646   16.34657
 2462.5     74.72171   16.20431
 2463     75.37696   15.98177
 2463.5     70.28901   15.08048
 2464     64.90251   14.1792
 2464.5     59.51601   13.27791
 2465     63.8028   12.37663
 2465.5     65.03717   11.47535
 2466     65.78966   10.65538
 2466.5     69.72981   9.9422
 2467     73.66995   9.22902
 2467.5     76.16779   9.20517
 2468     69.72843   9.20845
 2468.5     63.28908   10.28108
 2469     64.04687   11.4947
 2469.5     66.51959   12.70831
 2470     68.9923   13.92193
 2470.5     70.47876   15.13554
 2471     71.65343   16.34915
 2471.5     72.23727   17.29267
 2472     70.37128   16.68492
 2472.5     68.70414   15.16531
 2473     67.45954   13.64571
 2473.5     66.49211   12.1261
 2474     66.07218   11.67576
 2474.5     65.65225   12.28384
 2475     65.23233   12.89191
 2475.5     65.57247   13.49999
 2476     66.47646   14.10807
 2476.5     67.38045   14.71614
 2477     67.93761   15.19097
 2477.5     68.10169   15.42775
 2478     68.26576   15.66454
 2478.5     68.42984   15.90132
 2479     68.59392   15.43888
 2479.5     68.29126   14.44604
 2480     67.93571   13.45321
 2480.5     67.58016   12.46038
 2481     67.22461   11.68274
 2481.5     66.86906   11.01596
 2482     66.97626   10.34917
 2482.5     67.57065   9.97478
 2483     68.16504   9.90537
 2483.5     68.21194   9.86931
 2484     67.69654   10.36063
 2484.5     67.18115   10.85194
 2485     67.94198   11.34325
 2485.5     68.96595   11.83456
 2486     69.98993   12.32587
 2486.5     71.0139   12.81718
 2487     72.03788   13.22427
 2487.5     73.06185   13.62174
 2488     72.85707   14.0192
 2488.5     71.61489   14.41667
 2489     70.3727   14.81414
 2489.5     65.95775   15.18678
 2490     68.59356   15.18992
 2490.5     68.94548   15.19306
 2491     69.2974   15.19621
 2491.5     69.64932   15.06245
 2492     69.63907   14.52297
 2492.5     69.27919   13.98349
 2493     68.9193   13.44401
 2493.5     68.66175   12.90453
 2494     68.69134   12.85535
 2494.5     68.72092   13.02923
 2495     68.75051   13.2031
 2495.5     68.78009   13.37698
 2496     67.84756   13.1555
 2496.5     67.80357   12.60451
 2497     68.13295   12.05351
 2497.5     68.46234   11.5083
 2498     68.25768   11.13178
 2498.5     67.96331   10.75527
 2499     67.66894   10.58034
 2499.5     69.23979   11.0569
 2500     72.12606   11.53347
 2500.5     74.17465   12.01004
 2501     72.61463   12.39505
 2501.5     71.05462   12.14443
 2502     69.4946   11.89382
 2502.5     67.93459   11.6432
 2503     68.19503   11.31201
 2503.5     71.12899   10.9354
 2504     73.27061   10.55878
 2504.5     75.41223   10.18217
 2505     77.55385   9.80556
 2505.5     71.94203   9.50843
 2506     67.75193   10.90868
 2506.5     63.56183   12.30892
 2507     59.37174   13.70917
 2507.5     55.18164   15.10942
 2508     53.9212   16.50966
 2508.5     55.26664   17.12688
 2509     56.61209   16.25468
 2509.5     59.54776   15.38248
 2510     66.74757   14.51027
 2510.5     72.45883   13.78431
 2511     68.98467   14.40266
 2511.5     65.39417   15.02101
 2512     60.19095   15.63936
 2512.5     54.98773   16.25771
 2513     55.57068   16.87606
 2513.5     57.039   16.92888
 2514     58.50732   16.65524
 2514.5     59.97563   16.38159
 2515     60.45374   16.10795
 2515.5     60.82482   16.2179
 2516     61.1959   16.48984
 2516.5     63.89675   17.59372
 2517     70.07469   18.69761
 2517.5     72.95261   19.80149
 2518     75.43319   19.44641
 2518.5     77.91378   18.45229
 2519     80.39436   17.45817
 2519.5     82.87494   16.46405
 2520     72.1687   15.27838
 2520.5     70.35489   14.04213
 2521     66.75167   12.80587
 2521.5     63.14846   13.04102
 2522     59.54524   13.37861
 2522.5     60.60827   13.71621
 2523     62.4861   14.0538
 2523.5     64.3764   14.39139
 2524     66.41254   14.72898
 2524.5     68.44868   15.0098
